{"type": "FeatureCollection", "features": [{"type": "Feature", "geometry": {"type": "Point", "coordinates": ["-122.381674", "49.115834"]}, "properties": {"id": "10", "name": "Eco Kids Care Inc.", "address": "6256 Mt Lehman Rd", "city": "Abbotsford", "phone": "778-549-0766", "services": []}}, {"type": "Feature", "geometry": {"type": "Point", "coordinates": ["-121.962297", "49.100184"]}, "properties": {"id": "11", "name": "Laugh And Learn Children Centre Branch", "address": "5412 Vedder Rd", "city": "Chilliwack", "phone": "604-824-8984", "services": []}}, {"type": "Feature", "geometry": {"type": "Point", "coordinates": ["-121.965953", "49.164731"]}, "properties": {"id": "27", "name": "Northside ymca Child Care", "address": "45465 Bernard Ave", "city": "Chilliwack", "phone": "604-792-8010", "services": []}}, {"type": "Feature", "geometry": {"type": "Point", "coordinates": ["-121.929289", "49.181666"]}, "properties": {"id": "28", "name": "Little Mountain ymca Kids Club", "address": "9900 Carleton St", "city": "Chilliwack", "phone": "604-819-3338", "services": []}}, {"type": "Feature", "geometry": {"type": "Point", "coordinates": ["-122.316711", "49.058963"]}, "properties": {"id": "106", "name": "Gladwin Child Care Centre", "address": "3145 Gladwin Rd", "city": "Abbotsford", "phone": "604-853-9084", "services": []}}, {"type": "Feature", "geometry": {"type": "Point", "coordinates": ["-122.337824", "49.058796"]}, "properties": {"id": "133", "name": "Hand In Hand - Early Learning Centre", "address": "3154 Clearbrook Rd", "city": "Abbotsford", "phone": "604-859-3830", "services": []}}, {"type": "Feature", "geometry": {"type": "Point", "coordinates": ["-122.301283", "49.135342"]}, "properties": {"id": "140", "name": "Sandcastle Developmental Preschool", "address": "33345 2 Ave", "city": "Mission", "phone": "604-826-9080", "services": []}}, {"type": "Feature", "geometry": {"type": "Point", "coordinates": ["-122.406489", "49.017709"]}, "properties": {"id": "231", "name": "Peardonville House Day Care", "address": "825 Peardonville Rd", "city": "Abbotsford", "phone": "604-864-0039", "services": []}}, {"type": "Feature", "geometry": {"type": "Point", "coordinates": ["-122.290378", "49.039575"]}, "properties": {"id": "248", "name": "Abbotsford Childcare", "address": "2054 Cherry St", "city": "Abbotsford", "phone": "604-612-0439", "services": [0, 1]}}, {"type": "Feature", "geometry": {"type": "Point", "coordinates": ["-122.3171", "49.071394"]}, "properties": {"id": "265", "name": "Kids Club Child Care Centre Ltd. (Gladwin)", "address": "3845 Gladwin Rd", "city": "Abbotsford", "phone": "604-852-2822", "services": []}}, {"type": "Feature", "geometry": {"type": "Point", "coordinates": ["-122.259887", "49.059279"]}, "properties": {"id": "266", "name": "Kids Club Child Care Centre Ltd. (Mcmillan Rd)", "address": "3130 mcmillan Rd", "city": "Abbotsford", "phone": "604-852-6606", "services": []}}, {"type": "Feature", "geometry": {"type": "Point", "coordinates": ["-122.24943", "49.034374"]}, "properties": {"id": "267", "name": "Kids Club Child Care Centre Ltd. (Delair Road)", "address": "35190 Delair Rd", "city": "Abbotsford", "phone": "604-556-7355", "services": []}}, {"type": "Feature", "geometry": {"type": "Point", "coordinates": ["-122.247573", "49.071933"]}, "properties": {"id": "278", "name": "Fraser Valley Montessori Preschool Sandy Hill Campus", "address": "3836 Old Clayburn Rd", "city": "Abbotsford", "phone": "604-859-5061", "services": []}}, {"type": "Feature", "geometry": {"type": "Point", "coordinates": ["-122.301963", "49.057742"]}, "properties": {"id": "319", "name": "Hand In Hand - Terry Fox Elementary", "address": "3071 Babich St", "city": "Abbotsford", "phone": "604-859-1843", "services": []}}, {"type": "Feature", "geometry": {"type": "Point", "coordinates": ["-122.367282", "49.058186"]}, "properties": {"id": "320", "name": "Hand In Hand - Blue Jay Elementary", "address": "30995 Southern Dr", "city": "Abbotsford", "phone": "604-859-1843", "services": []}}, {"type": "Feature", "geometry": {"type": "Point", "coordinates": ["-122.316749", "49.047948"]}, "properties": {"id": "321", "name": "Hand In Hand - Centennial Park Elementary", "address": "2527 Gladwin Rd", "city": "Abbotsford", "phone": "604-859-1843", "services": []}}, {"type": "Feature", "geometry": {"type": "Point", "coordinates": ["-122.247573", "49.071933"]}, "properties": {"id": "322", "name": "Hand In Hand - Sandy Hill Elementary", "address": "3836 Old Clayburn Rd", "city": "Abbotsford", "phone": "604-859-1843", "services": []}}, {"type": "Feature", "geometry": {"type": "Point", "coordinates": ["-122.335878", "49.038836"]}, "properties": {"id": "323", "name": "Hand In Hand - North Poplar Elementary", "address": "32041 Marshall Rd", "city": "Abbotsford", "phone": "604-859-1843", "services": []}}, {"type": "Feature", "geometry": {"type": "Point", "coordinates": ["-122.242934", "49.064392"]}, "properties": {"id": "324", "name": "Hand In Hand - Prince Charles Elementary", "address": "35410 mckee Rd", "city": "Abbotsford", "phone": "604-859-1843", "services": []}}, {"type": "Feature", "geometry": {"type": "Point", "coordinates": ["-122.306584", "49.041016"]}, "properties": {"id": "325", "name": "Hand In Hand - Godson Elementary", "address": "33130 Bevan Ave", "city": "Abbotsford", "phone": "604-859-1843", "services": []}}, {"type": "Feature", "geometry": {"type": "Point", "coordinates": ["-122.319307", "49.056257"]}, "properties": {"id": "326", "name": "Hand In Hand - John Maclure Elementary", "address": "2990 Oriole Cres", "city": "Abbotsford", "phone": "604-852-1622", "services": []}}, {"type": "Feature", "geometry": {"type": "Point", "coordinates": ["-122.323492", "49.039532"]}, "properties": {"id": "329", "name": "Braun-Tasaurus Preschool", "address": "2087 Majestic Cres", "city": "Abbotsford", "phone": "604-854-5963", "services": []}}, {"type": "Feature", "geometry": {"type": "Point", "coordinates": ["-121.943165", "49.186544"]}, "properties": {"id": "340", "name": "Wibble Wobble Childcare - Fairfield", "address": "46326 Strathcona Rd", "city": "Chilliwack", "phone": "604-793-9300", "services": []}}, {"type": "Feature", "geometry": {"type": "Point", "coordinates": ["-121.958093", "49.129874"]}, "properties": {"id": "345", "name": "Sardis Children's Centre Society", "address": "45795 Manuel Rd", "city": "Chilliwack", "phone": "604-858-3922", "services": []}}, {"type": "Feature", "geometry": {"type": "Point", "coordinates": ["-121.95984", "49.130397"]}, "properties": {"id": "347", "name": "The Briar Patch Child Care Centre", "address": "7012 Vedder Rd", "city": "Chilliwack", "phone": "604-858-2307", "services": []}}, {"type": "Feature", "geometry": {"type": "Point", "coordinates": ["-121.970334", "49.176774"]}, "properties": {"id": "373", "name": "Chilliwack Landing Preschool", "address": "620 Wellington Ave", "city": "Chilliwack", "phone": "604-792-5337", "services": []}}, {"type": "Feature", "geometry": {"type": "Point", "coordinates": ["-121.971299", "49.134046"]}, "properties": {"id": "389", "name": "Once Upon A Time... Child Care Centre Inc.", "address": "7256 Richardson Ave", "city": "Chilliwack", "phone": "604-858-0148", "services": []}}, {"type": "Feature", "geometry": {"type": "Point", "coordinates": ["-122.275275", "49.143509"]}, "properties": {"id": "447", "name": "Future 4 Nations Aboriginal Headstart Program - Room 146", "address": "34110 Lougheed Hwy", "city": "Mission", "phone": "604-820-4567", "services": [2]}}, {"type": "Feature", "geometry": {"type": "Point", "coordinates": ["-121.933825", "49.166014"]}, "properties": {"id": "480", "name": "Wee Care Family Daycare", "address": "46622 Arbutus Ave", "city": "Chilliwack", "phone": "604-795-4642", "services": []}}, {"type": "Feature", "geometry": {"type": "Point", "coordinates": ["-121.9407", "49.166887"]}, "properties": {"id": "481", "name": "Scribbles & Dribbles Family Childcare", "address": "9070 Garden Dr", "city": "Chilliwack", "phone": "604-793-9328", "services": []}}, {"type": "Feature", "geometry": {"type": "Point", "coordinates": ["-122.323498", "49.041587"]}, "properties": {"id": "482", "name": "Leanne's Place Family Daycare", "address": "2065 Majestic Cres", "city": "Abbotsford", "phone": "604-852-2060", "services": [0, 1, 3]}}, {"type": "Feature", "geometry": {"type": "Point", "coordinates": ["-121.956275", "49.181423"]}, "properties": {"id": "483", "name": "Rainbow's End Daycare", "address": "45834 Berkeley Ave", "city": "Chilliwack", "phone": "604-795-7526", "services": []}}, {"type": "Feature", "geometry": {"type": "Point", "coordinates": ["-122.288032", "49.153409"]}, "properties": {"id": "590", "name": "Circles Squares & Bears Family Child Care", "address": "33809 Blueberry Dr", "city": "Mission", "phone": "604-820-5565", "services": []}}, {"type": "Feature", "geometry": {"type": "Point", "coordinates": ["-122.325026", "49.144053"]}, "properties": {"id": "591", "name": "Barley's Place Daycare", "address": "32485 mcrae Ave", "city": "Mission", "phone": "604-820-9649", "services": []}}, {"type": "Feature", "geometry": {"type": "Point", "coordinates": ["-121.969484", "49.137639"]}, "properties": {"id": "594", "name": "Play And Learn Family Child Care", "address": "7472 Leary Cres", "city": "Chilliwack", "phone": "604-845-8458", "services": [0, 1, 3]}}, {"type": "Feature", "geometry": {"type": "Point", "coordinates": ["-121.974433", "49.112244"]}, "properties": {"id": "595", "name": "Charlene's Family Child Care", "address": "45173 Oliver Cres", "city": "Chilliwack", "phone": "604-858-6105", "services": []}}, {"type": "Feature", "geometry": {"type": "Point", "coordinates": ["-122.423561", "49.181141"]}, "properties": {"id": "622", "name": "Club K.I.D.S. Central - Room 129", "address": "7644 Welton St", "city": "Mission", "phone": "604-820-5360", "services": []}}, {"type": "Feature", "geometry": {"type": "Point", "coordinates": ["-122.293973", "49.143864"]}, "properties": {"id": "623", "name": "Club K.I.D.S. Windebank", "address": "33570 11Th Ave", "city": "Mission", "phone": "604-820-5360", "services": []}}, {"type": "Feature", "geometry": {"type": "Point", "coordinates": ["-122.292919", "49.15175"]}, "properties": {"id": "624", "name": "Club Kids Hillside", "address": "33621 Best Ave", "city": "Mission", "phone": "604-820-5360", "services": []}}, {"type": "Feature", "geometry": {"type": "Point", "coordinates": ["-122.321829", "49.144765"]}, "properties": {"id": "625", "name": "Club K.I.D.S Morrison", "address": "32611 mcrae Ave", "city": "Mission", "phone": "604-820-5360", "services": [3]}}, {"type": "Feature", "geometry": {"type": "Point", "coordinates": ["-122.275121", "49.143194"]}, "properties": {"id": "690", "name": "Little Willows Lougheed", "address": "34110 Lougheed Hwy", "city": "Mission", "phone": "604-826-1118", "services": []}}, {"type": "Feature", "geometry": {"type": "Point", "coordinates": ["-122.335911", "49.142299"]}, "properties": {"id": "706", "name": "Club K.I.D.S. West Heights Room 217", "address": "32065 Van Velzen Ave", "city": "Mission", "phone": "604-820-5360", "services": []}}, {"type": "Feature", "geometry": {"type": "Point", "coordinates": ["-122.352547", "49.065478"]}, "properties": {"id": "727", "name": "Sehaj Childcare Centre", "address": "31475 Ridgeview Dr", "city": "Abbotsford", "phone": "778-245-8277", "services": []}}, {"type": "Feature", "geometry": {"type": "Point", "coordinates": ["-121.988512", "49.102501"]}, "properties": {"id": "743", "name": "The Beanstalk Daycare", "address": "44699 Riverwood Cres", "city": "Chilliwack", "phone": "604-845-1050", "services": []}}, {"type": "Feature", "geometry": {"type": "Point", "coordinates": ["-122.297759", "49.049296"]}, "properties": {"id": "746", "name": "New Leaf Learning And Childcare Centre Inc.", "address": "33442 South Fraser Way", "city": "Abbotsford", "phone": "604-613-1919", "services": []}}, {"type": "Feature", "geometry": {"type": "Point", "coordinates": ["-121.968424", "49.177332"]}, "properties": {"id": "756", "name": "Little Mountain Child Care Center", "address": "9601 Hamilton St", "city": "Chilliwack", "phone": "604-997-8446", "services": [1, 3]}}, {"type": "Feature", "geometry": {"type": "Point", "coordinates": ["-122.276559", "49.059823"]}, "properties": {"id": "809", "name": "Cutefeet Childcare", "address": "3185 Lukiv Terrace", "city": "Abbotsford", "phone": "604-859-3561", "services": [0, 1]}}, {"type": "Feature", "geometry": {"type": "Point", "coordinates": ["-122.403151", "49.050139"]}, "properties": {"id": "929", "name": "Little Hands Learning Center", "address": "2626 Ross Rd", "city": "Abbotsford", "phone": "604-302-1091", "services": []}}, {"type": "Feature", "geometry": {"type": "Point", "coordinates": ["-121.933703", "49.179065"]}, "properties": {"id": "942", "name": "Cream Of The Crop Enriched Learning & Childcare Centre Ltd.", "address": "1-9718 Menzies St", "city": "Chilliwack", "phone": "604-402-2273", "services": []}}, {"type": "Feature", "geometry": {"type": "Point", "coordinates": ["-122.427207", "49.056152"]}, "properties": {"id": "943", "name": "Hand In Hand - Aberdeen Elementary", "address": "2975 Bradner Rd", "city": "Abbotsford", "phone": "778-369-0114", "services": []}}, {"type": "Feature", "geometry": {"type": "Point", "coordinates": ["-122.25205", "49.044172"]}, "properties": {"id": "950", "name": "Steph's Little Sprouts Child Care", "address": "2343 Harper Dr", "city": "Abbotsford", "phone": "604-219-1447", "services": []}}, {"type": "Feature", "geometry": {"type": "Point", "coordinates": ["-121.946303", "49.09584"]}, "properties": {"id": "966", "name": "Promontory Heights Christian Daycare", "address": "5108 Cecil Ridge Pl", "city": "Chilliwack", "phone": "604-760-6348", "services": []}}, {"type": "Feature", "geometry": {"type": "Point", "coordinates": ["-122.26822", "49.047579"]}, "properties": {"id": "983", "name": "Symmetry Early Learning Center", "address": "109-2526 Yale Crt", "city": "Abbotsford", "phone": "778-386-3173", "services": [1]}}, {"type": "Feature", "geometry": {"type": "Point", "coordinates": ["-121.957614", "49.158679"]}, "properties": {"id": "1032", "name": "Autumn Childcare Centre", "address": "45768 Hocking Ave", "city": "Chilliwack", "phone": "778-552-8012", "services": []}}, {"type": "Feature", "geometry": {"type": "Point", "coordinates": ["-122.313063", "49.159176"]}, "properties": {"id": "1054", "name": "Building Blocks Family Child Care", "address": "32927 Phelps Ave", "city": "Mission", "phone": "604-300-2820", "services": []}}, {"type": "Feature", "geometry": {"type": "Point", "coordinates": ["-121.961183", "49.171904"]}, "properties": {"id": "1097", "name": "Mother Nature's Daycare", "address": "45647 Kipp Ave", "city": "Chilliwack", "phone": "604-799-6002", "services": []}}, {"type": "Feature", "geometry": {"type": "Point", "coordinates": ["-122.294295", "49.04795"]}, "properties": {"id": "1099", "name": "Learn N' Play Abbotsford", "address": "100-2525 mccallum Rd", "city": "Abbotsford", "phone": "604-288-8271", "services": []}}, {"type": "Feature", "geometry": {"type": "Point", "coordinates": ["-121.972191", "49.116624"]}, "properties": {"id": "1109", "name": "Ton Of Love Family Daycare", "address": "6305 Lanark St", "city": "Chilliwack", "phone": "778-938-3166", "services": []}}, {"type": "Feature", "geometry": {"type": "Point", "coordinates": ["-122.328741", "49.044005"]}, "properties": {"id": "1121", "name": "Qt Daycare Ltd.", "address": "2316 Beaver St", "city": "Abbotsford", "phone": "778-551-3099", "services": []}}, {"type": "Feature", "geometry": {"type": "Point", "coordinates": ["-121.935564", "49.1614"]}, "properties": {"id": "1132", "name": "Broadway Childcare Centre", "address": "8781 Broadway", "city": "Chilliwack", "phone": "778-847-3898", "services": []}}, {"type": "Feature", "geometry": {"type": "Point", "coordinates": ["-121.959052", "49.123831"]}, "properties": {"id": "1142", "name": "Creative Kids Learning Centers - Chilliwack", "address": "200 6640 Vedder Rd", "city": "Chilliwack", "phone": "604-560-5002", "services": []}}, {"type": "Feature", "geometry": {"type": "Point", "coordinates": ["-121.99545", "49.102922"]}, "properties": {"id": "1147", "name": "Beanstalk Daycare The", "address": "44411 Sherry Dr", "city": "Chilliwack", "phone": "604-845-1050", "services": []}}, {"type": "Feature", "geometry": {"type": "Point", "coordinates": ["-122.36249", "49.05873"]}, "properties": {"id": "1156", "name": "Smiles 4 Miles", "address": "31105 Heron Ave", "city": "Abbotsford", "phone": "778-551-3260", "services": []}}, {"type": "Feature", "geometry": {"type": "Point", "coordinates": ["-121.43915", "49.3778"]}, "properties": {"id": "1162", "name": "Swetexel Preschool & Daycare", "address": "949 3Rd Ave Hope Bldg 2", "city": "Hope", "phone": "604-206-9553", "services": []}}, {"type": "Feature", "geometry": {"type": "Point", "coordinates": ["-122.321055", "49.138781"]}, "properties": {"id": "1170", "name": "Little Willows Sunshine", "address": "7521 Briskham St", "city": "Mission", "phone": "604-820-7575", "services": []}}, {"type": "Feature", "geometry": {"type": "Point", "coordinates": ["-121.829392", "49.074528"]}, "properties": {"id": "1179", "name": "Slesse Child Care Facility", "address": "50501 O'byrne Rd", "city": "Chilliwack", "phone": "778-539-5019", "services": []}}, {"type": "Feature", "geometry": {"type": "Point", "coordinates": ["-122.386872", "49.222505"]}, "properties": {"id": "1188", "name": "Little Willows Stave Falls", "address": "30204 Brackley Ave", "city": "Mission", "phone": "604-462-1433", "services": []}}, {"type": "Feature", "geometry": {"type": "Point", "coordinates": ["-122.237484", "49.039469"]}, "properties": {"id": "1216", "name": "Kat And Kids", "address": "35653 Zanatta Pl", "city": "Abbotsford", "phone": "604-617-1544", "services": []}}, {"type": "Feature", "geometry": {"type": "Point", "coordinates": ["-122.361634", "49.066706"]}, "properties": {"id": "1219", "name": "Little Dreamers", "address": "31150 Blueridge Dr", "city": "Abbotsford", "phone": "604-614-5308", "services": []}}, {"type": "Feature", "geometry": {"type": "Point", "coordinates": ["-121.949173", "49.12499"]}, "properties": {"id": "1225", "name": "Wind And Tide Preschool - Sardis", "address": "46078 Higginson Rd", "city": "Chilliwack", "phone": "604-575-0549", "services": []}}, {"type": "Feature", "geometry": {"type": "Point", "coordinates": ["-122.403968", "49.04746"]}, "properties": {"id": "1228", "name": "Tiger Stripes Learning Center", "address": "2451 Ross Rd", "city": "Abbotsford", "phone": "778-772-6289", "services": []}}, {"type": "Feature", "geometry": {"type": "Point", "coordinates": ["-121.948299", "49.17096"]}, "properties": {"id": "1247", "name": "Kids Club Child Care Centre Ltd.", "address": "46129 Princess Ave", "city": "Chilliwack", "phone": "604-795-2322", "services": []}}, {"type": "Feature", "geometry": {"type": "Point", "coordinates": ["-121.952952", "49.173623"]}, "properties": {"id": "1251", "name": "Central Sockeye Preschool", "address": "9435 Young Rd", "city": "Chilliwack", "phone": "604-792-8539", "services": []}}, {"type": "Feature", "geometry": {"type": "Point", "coordinates": ["-122.244567", "49.063838"]}, "properties": {"id": "1255", "name": "Smile 'N' Play Daycare Centre Inc.", "address": "3411 Mckinley Dr", "city": "Abbotsford", "phone": "604-655-5040", "services": []}}, {"type": "Feature", "geometry": {"type": "Point", "coordinates": ["-122.241139", "49.061203"]}, "properties": {"id": "1260", "name": "Enchanted Forest Childcare Center Inc.", "address": "3266 Rathtrevor Crt", "city": "Abbotsford", "phone": "604-789-1368", "services": []}}, {"type": "Feature", "geometry": {"type": "Point", "coordinates": ["-121.93228", "49.165694"]}, "properties": {"id": "1295", "name": "Little Blessings Early Learning Centre", "address": "46685 Ramona Dr", "city": "Chilliwack", "phone": "604-845-9954", "services": []}}, {"type": "Feature", "geometry": {"type": "Point", "coordinates": ["-122.448037", "49.057334"]}, "properties": {"id": "1324", "name": "Learn N' Play Childcare Centre", "address": "110-28040 Fraser Hwy", "city": "Abbotsford", "phone": "604-561-0444", "services": []}}, {"type": "Feature", "geometry": {"type": "Point", "coordinates": ["-122.331996", "49.065049"]}, "properties": {"id": "1356", "name": "Golden Rainbow Childcare Centre", "address": "32225 Golden Ave", "city": "Abbotsford", "phone": "778-344-2642", "services": []}}, {"type": "Feature", "geometry": {"type": "Point", "coordinates": ["-122.243599", "49.065662"]}, "properties": {"id": "1397", "name": "Grand Kids Care The (Tgk)", "address": "35431 mckee Rd", "city": "Abbotsford", "phone": "778-536-5423", "services": [0]}}, {"type": "Feature", "geometry": {"type": "Point", "coordinates": ["-122.290369", "49.049548"]}, "properties": {"id": "1402", "name": "Contemporary Kids Learning Centre Inc.", "address": "2621 Montrose Ave", "city": "Abbotsford", "phone": "604-839-0511", "services": []}}, {"type": "Feature", "geometry": {"type": "Point", "coordinates": ["-121.917043", "49.108312"]}, "properties": {"id": "1408", "name": "Precious Miracles Childcare", "address": "47247 Vista Pl", "city": "Chilliwack", "phone": "604-307-3427", "services": []}}, {"type": "Feature", "geometry": {"type": "Point", "coordinates": ["-122.29386", "49.107785"]}, "properties": {"id": "1419", "name": "Pure Play Child Care", "address": "5824 Riverside St", "city": "Abbotsford", "phone": "604-226-3714", "services": []}}, {"type": "Feature", "geometry": {"type": "Point", "coordinates": ["-122.30741", "49.147814"]}, "properties": {"id": "1421", "name": "Little Beans Daycare", "address": "8021 Sykes St", "city": "Mission", "phone": "604-751-1869", "services": []}}, {"type": "Feature", "geometry": {"type": "Point", "coordinates": ["-121.780856", "49.295776"]}, "properties": {"id": "1423", "name": "Woodland Family Daycare", "address": "331 Chestnut Ave", "city": "Harrison Hot Springs", "phone": "604-491-3013", "services": []}}, {"type": "Feature", "geometry": {"type": "Point", "coordinates": ["-121.993376", "49.103295"]}, "properties": {"id": "1430", "name": "Beanstalk Daycare The", "address": "44490 Keith Wilson Rd", "city": "Chilliwack", "phone": "604-845-1050", "services": []}}, {"type": "Feature", "geometry": {"type": "Point", "coordinates": ["-121.834882", "49.131184"]}, "properties": {"id": "1431", "name": "Marble Hill Childcare", "address": "7105B Tahoma Pl", "city": "Chilliwack", "phone": "778-240-1578", "services": []}}, {"type": "Feature", "geometry": {"type": "Point", "coordinates": ["-122.332196", "49.147166"]}, "properties": {"id": "1455", "name": "Mission Stars Childcare Centre", "address": "32222 14Th Ave", "city": "Mission", "phone": "778-246-1539", "services": []}}, {"type": "Feature", "geometry": {"type": "Point", "coordinates": ["-122.261002", "49.063871"]}, "properties": {"id": "1465", "name": "Stars Of The Sky Child Care Ltd.", "address": "34790 Laburnum Ave", "city": "Abbotsford", "phone": "604-854-8007", "services": [0, 1, 3]}}, {"type": "Feature", "geometry": {"type": "Point", "coordinates": ["-121.932173", "49.193089"]}, "properties": {"id": "1471", "name": "Shining Stars Family Daycare", "address": "46706 Teton Ave", "city": "Chilliwack", "phone": "604-845-1538", "services": []}}, {"type": "Feature", "geometry": {"type": "Point", "coordinates": ["-122.304764", "49.03688"]}, "properties": {"id": "1476", "name": "Little Ducklings Home Daycare", "address": "1920 Eagle St", "city": "Abbotsford", "phone": "778-201-2630", "services": []}}, {"type": "Feature", "geometry": {"type": "Point", "coordinates": ["-122.292409", "49.030729"]}, "properties": {"id": "1482", "name": "Little Leaders Childcare Centre", "address": "1528 mccallum Rd", "city": "Abbotsford", "phone": "604-217-1404", "services": [0, 1, 2]}}, {"type": "Feature", "geometry": {"type": "Point", "coordinates": ["-122.193287", "49.05652"]}, "properties": {"id": "1490", "name": "Busy Bear Club Preschool The", "address": "37290 Kilgard", "city": "Abbotsford", "phone": "604-852-1260", "services": []}}, {"type": "Feature", "geometry": {"type": "Point", "coordinates": ["-121.966128", "49.123005"]}, "properties": {"id": "1508", "name": "Little Peeps Learning Centre", "address": "45467 Stevenson Rd", "city": "Chilliwack", "phone": "604-798-7996", "services": []}}, {"type": "Feature", "geometry": {"type": "Point", "coordinates": ["-122.427207", "49.056152"]}, "properties": {"id": "1512", "name": "Small Beginnings Preschool - Little Leaders Childcare", "address": "2975 Bradner Rd", "city": "Abbotsford", "phone": "604-217-1404", "services": []}}, {"type": "Feature", "geometry": {"type": "Point", "coordinates": ["-121.838321", "49.134743"]}, "properties": {"id": "1516", "name": "Mountain Bear Daycare", "address": "7240 Bryant Pl", "city": "Chilliwack", "phone": "604-745-2221", "services": []}}, {"type": "Feature", "geometry": {"type": "Point", "coordinates": ["-121.993575", "49.100986"]}, "properties": {"id": "1545", "name": "Beanstalk Daycare The", "address": "44458 Freshwater Dr", "city": "Chilliwack", "phone": "604-845-1050", "services": []}}, {"type": "Feature", "geometry": {"type": "Point", "coordinates": ["-121.93777", "49.190154"]}, "properties": {"id": "1557", "name": "Second Home Multi-Age Childcare", "address": "46504 Gilbert Ave", "city": "Chilliwack", "phone": "604-799-1238", "services": [0, 1]}}, {"type": "Feature", "geometry": {"type": "Point", "coordinates": ["-122.253538", "49.057462"]}, "properties": {"id": "1568", "name": "Building Blocks Daycare", "address": "3071 Mccrae St", "city": "Abbotsford", "phone": "778-235-3699", "services": []}}, {"type": "Feature", "geometry": {"type": "Point", "coordinates": ["-121.940357", "49.161031"]}, "properties": {"id": "1573", "name": "Just For Fun", "address": "8759 Cornwall Cres", "city": "Chilliwack", "phone": "604-701-5805", "services": []}}, {"type": "Feature", "geometry": {"type": "Point", "coordinates": ["-121.970187", "49.115548"]}, "properties": {"id": "1594", "name": "Prickly Pear Child Care", "address": "6250 Reid Rd", "city": "Chilliwack", "phone": "604-339-7162", "services": []}}, {"type": "Feature", "geometry": {"type": "Point", "coordinates": ["-121.96556", "49.17791"]}, "properties": {"id": "1597", "name": "Sleepy Cloud Daycare", "address": "45499 Lewis Ave", "city": "Chilliwack", "phone": "604-845-8631", "services": []}}, {"type": "Feature", "geometry": {"type": "Point", "coordinates": ["-121.863619", "49.161417"]}, "properties": {"id": "1625", "name": "Little Valley 123 Childcare Centre Ltd", "address": "49190 Chilliwack Central Rd", "city": "Chilliwack", "phone": "778-882-1360", "services": []}}, {"type": "Feature", "geometry": {"type": "Point", "coordinates": ["-122.249779", "49.071864"]}, "properties": {"id": "1646", "name": "Grandma's House Day Care Ltd.", "address": "3855 Old Clayburn Rd", "city": "Abbotsford", "phone": "778-666-7394", "services": []}}, {"type": "Feature", "geometry": {"type": "Point", "coordinates": ["-122.289874", "49.05107"]}, "properties": {"id": "1650", "name": "Next Level Childcare Fraser Valley Inc.", "address": "2699 West Railway St", "city": "Abbotsford", "phone": "604-380-4060", "services": []}}, {"type": "Feature", "geometry": {"type": "Point", "coordinates": ["-122.340256", "49.059903"]}, "properties": {"id": "1679", "name": "Shreya Academic Centre Ltd.", "address": "3180 Crown Crt", "city": "Abbotsford", "phone": "604-832-1880", "services": []}}, {"type": "Feature", "geometry": {"type": "Point", "coordinates": ["-121.971156", "49.161657"]}, "properties": {"id": "1684", "name": "Little Steps Childcare Centre", "address": "8776 Bellevue Dr", "city": "Chilliwack", "phone": "778-317-9445", "services": []}}, {"type": "Feature", "geometry": {"type": "Point", "coordinates": ["-121.976673", "49.119163"]}, "properties": {"id": "1692", "name": "Momma Maia's Daycare Center", "address": "6447 Tyson Rd", "city": "Chilliwack", "phone": "604-703-9223", "services": []}}, {"type": "Feature", "geometry": {"type": "Point", "coordinates": ["-122.292956", "49.110188"]}, "properties": {"id": "1694", "name": "Little Dreamers Childcare Ltd.", "address": "5930 Riverside St", "city": "Abbotsford", "phone": "604-614-5308", "services": []}}, {"type": "Feature", "geometry": {"type": "Point", "coordinates": ["-122.337779", "49.040752"]}, "properties": {"id": "1711", "name": "Tiny Scholars Inc.", "address": "100-2121 Clearbrook Rd", "city": "Abbotsford", "phone": "604-744-0362", "services": []}}, {"type": "Feature", "geometry": {"type": "Point", "coordinates": ["-122.318274", "49.070348"]}, "properties": {"id": "1712", "name": "Fun Times Child Care", "address": "3795 Nanaimo Cres", "city": "Abbotsford", "phone": "604-996-0923", "services": []}}, {"type": "Feature", "geometry": {"type": "Point", "coordinates": ["-121.988875", "49.102262"]}, "properties": {"id": "1723", "name": "Beanstalk Daycare The", "address": "44687 Riverwood Cres", "city": "Chilliwack", "phone": "604-845-1050", "services": []}}, {"type": "Feature", "geometry": {"type": "Point", "coordinates": ["-121.988437", "49.102741"]}, "properties": {"id": "1724", "name": "The Beanstalk Daycare Ltd.", "address": "9-5545 Peach Rd", "city": "Chilliwack", "phone": "604-845-1050", "services": []}}, {"type": "Feature", "geometry": {"type": "Point", "coordinates": ["-122.360076", "49.052576"]}, "properties": {"id": "1726", "name": "St James ymca Kids Club", "address": "2777 Townline Rd", "city": "Abbotsford", "phone": "604-320-5828", "services": []}}, {"type": "Feature", "geometry": {"type": "Point", "coordinates": ["-122.341679", "49.047367"]}, "properties": {"id": "1735", "name": "New Leaf Learning And Childcare Centre", "address": "#100 - 31838 South Fraser Way", "city": "Abbotsford", "phone": "604-613-1919", "services": []}}, {"type": "Feature", "geometry": {"type": "Point", "coordinates": ["-122.313431", "49.149003"]}, "properties": {"id": "1768", "name": "Little Kingdom Childcare Inc", "address": "32891 Bakerview Ave", "city": "Mission", "phone": "604-410-3742", "services": []}}, {"type": "Feature", "geometry": {"type": "Point", "coordinates": ["-122.264989", "49.051695"]}, "properties": {"id": "1792", "name": "Abby Good Beginnings", "address": "34641 Sandon Dr", "city": "Abbotsford", "phone": "778-798-4450", "services": []}}, {"type": "Feature", "geometry": {"type": "Point", "coordinates": ["-122.247733", "49.156557"]}, "properties": {"id": "1816", "name": "Best Friends Daycare", "address": "35264 Mcewen Ave", "city": "Mission", "phone": "604-826-7139", "services": []}}, {"type": "Feature", "geometry": {"type": "Point", "coordinates": ["-122.378506", "49.057946"]}, "properties": {"id": "1848", "name": "Cefa Early Learning Abbotsford \u2013 Highstreet", "address": "3122 Mt Lehman Rd", "city": "Abbotsford", "phone": "604-425-3800", "services": []}}, {"type": "Feature", "geometry": {"type": "Point", "coordinates": ["-122.359086", "49.066042"]}, "properties": {"id": "1856", "name": "Wagner Childcare & Learning Centre Ltd.", "address": "3511 Wagner Dr", "city": "Abbotsford", "phone": "778-989-3930", "services": []}}, {"type": "Feature", "geometry": {"type": "Point", "coordinates": ["-121.964457", "49.158223"]}, "properties": {"id": "1857", "name": "Midtown Childcare & Learning Center", "address": "45564 Meadowbrook Dr", "city": "Chilliwack", "phone": "604-832-2895", "services": []}}, {"type": "Feature", "geometry": {"type": "Point", "coordinates": ["-121.961926", "49.105094"]}, "properties": {"id": "1863", "name": "Chilliwack Childrens Academy", "address": "101-5658 Vedder Rd", "city": "Chilliwack", "phone": "778-882-1360", "services": []}}, {"type": "Feature", "geometry": {"type": "Point", "coordinates": ["-121.93746", "49.17926"]}, "properties": {"id": "1864", "name": "Cozy Bear Childcare", "address": "46527 Portage Ave", "city": "Chilliwack", "phone": "604-793-8197", "services": []}}, {"type": "Feature", "geometry": {"type": "Point", "coordinates": ["-122.243145", "49.066529"]}, "properties": {"id": "1879", "name": "Smile 'N' Play Daycare Centre Inc.", "address": "3558 Mckinley Dr", "city": "Abbotsford", "phone": "604-655-5040", "services": []}}, {"type": "Feature", "geometry": {"type": "Point", "coordinates": ["-121.956069", "49.171865"]}, "properties": {"id": "1902", "name": "Young Academics Club Early Learning Ltd", "address": "45846 Wellington Ave", "city": "Chilliwack", "phone": "604-354-8797", "services": []}}, {"type": "Feature", "geometry": {"type": "Point", "coordinates": ["-121.989243", "49.100373"]}, "properties": {"id": "1910", "name": "Beanstalk Daycare The", "address": "5416 Chinook St", "city": "Chilliwack", "phone": "604-845-1050", "services": []}}, {"type": "Feature", "geometry": {"type": "Point", "coordinates": ["-121.969673", "49.111525"]}, "properties": {"id": "1915", "name": "Watson Childcare Centre", "address": "45345 Watson Rd", "city": "Chilliwack", "phone": "604-613-1148", "services": []}}, {"type": "Feature", "geometry": {"type": "Point", "coordinates": ["-122.300731", "49.040978"]}, "properties": {"id": "1923", "name": "St. Ann's Parish Daycare", "address": "33333 Mayfair Ave", "city": "Abbotsford", "phone": "604-852-5602", "services": []}}, {"type": "Feature", "geometry": {"type": "Point", "coordinates": ["-121.950278", "49.17281"]}, "properties": {"id": "1930", "name": "Aristokids Center", "address": "46077 Victoria Ave", "city": "Chilliwack", "phone": "604-283-4117", "services": [0, 1]}}, {"type": "Feature", "geometry": {"type": "Point", "coordinates": ["-121.442631", "49.391458"]}, "properties": {"id": "1932", "name": "Willow Family Daycare", "address": "635 Willow St", "city": "Hope", "phone": "604-869-6257", "services": [0, 1, 3]}}, {"type": "Feature", "geometry": {"type": "Point", "coordinates": ["-122.346319", "49.056414"]}, "properties": {"id": "1954", "name": "The Backyard Daycare", "address": "2983 Palm Cres", "city": "Abbotsford", "phone": "604-897-6927", "services": []}}, {"type": "Feature", "geometry": {"type": "Point", "coordinates": ["-122.291201", "49.141325"]}, "properties": {"id": "1962", "name": "Garderie Les Riverains", "address": "7674 Stave Lake St", "city": "Mission", "phone": "604-736-5056", "services": []}}, {"type": "Feature", "geometry": {"type": "Point", "coordinates": ["-122.288236", "49.046894"]}, "properties": {"id": "1970", "name": "Valley Pine Learning Centre Inc", "address": "100-2485 West Railway St", "city": "Abbotsford", "phone": "604-864-6424", "services": []}}, {"type": "Feature", "geometry": {"type": "Point", "coordinates": ["-122.363159", "49.057346"]}, "properties": {"id": "1971", "name": "Smart Steps Daycare", "address": "31079 Southern Dr", "city": "Abbotsford", "phone": "604-363-7339", "services": []}}, {"type": "Feature", "geometry": {"type": "Point", "coordinates": ["-122.005725", "49.122239"]}, "properties": {"id": "1997", "name": "Garderie Les Castors", "address": "6610 Lickman Rd", "city": "Chilliwack", "phone": "604-736-5056", "services": []}}, {"type": "Feature", "geometry": {"type": "Point", "coordinates": ["-122.427941", "49.098155"]}, "properties": {"id": "2002", "name": "Kids Zone Child Care Centre - Bradner Elementary", "address": "5291 Bradner Rd", "city": "Abbotsford", "phone": "778-239-2075", "services": []}}, {"type": "Feature", "geometry": {"type": "Point", "coordinates": ["-122.260831", "49.051171"]}, "properties": {"id": "2008", "name": "Sinoah's Ark", "address": "2748 Sandon Dr", "city": "Abbotsford", "phone": "604-615-1529", "services": []}}, {"type": "Feature", "geometry": {"type": "Point", "coordinates": ["-121.969404", "49.139619"]}, "properties": {"id": "2041", "name": "Scallywags Childcare", "address": "7561 Sapphire Dr", "city": "Chilliwack", "phone": "604-793-8855", "services": []}}, {"type": "Feature", "geometry": {"type": "Point", "coordinates": ["-122.316981", "49.155596"]}, "properties": {"id": "2051", "name": "Cherub's Inn Daycare", "address": "8469 Cedar St", "city": "Mission", "phone": "778-255-7699", "services": [0, 1]}}, {"type": "Feature", "geometry": {"type": "Point", "coordinates": ["-121.925809", "49.179722"]}, "properties": {"id": "2052", "name": "Thrive Childcare Inc.", "address": "9800 mcnaught Rd", "city": "Chilliwack", "phone": "604-819-0708", "services": []}}, {"type": "Feature", "geometry": {"type": "Point", "coordinates": ["-121.975889", "49.120296"]}, "properties": {"id": "2058", "name": "Little Cherry Buds Daycare", "address": "6508 Tyson Rd", "city": "Chilliwack", "phone": "604-997-1142", "services": []}}, {"type": "Feature", "geometry": {"type": "Point", "coordinates": ["-122.327722", "49.037839"]}, "properties": {"id": "2089", "name": "Red Apple Day Care Centre", "address": "32354 Marshall Rd", "city": "Abbotsford", "phone": "778-669-0268", "services": []}}, {"type": "Feature", "geometry": {"type": "Point", "coordinates": ["-122.300608", "49.048916"]}, "properties": {"id": "2090", "name": "Joyful Christian Childcare Abbotsford", "address": "2597 Bourquin Cres E", "city": "Abbotsford", "phone": "778-952-3870", "services": [0]}}, {"type": "Feature", "geometry": {"type": "Point", "coordinates": ["-122.284077", "49.151896"]}, "properties": {"id": "2095", "name": "M'n'm Montessori Childcare Centre Inc", "address": "33943 Barker Crt", "city": "Mission", "phone": "778-683-1369", "services": []}}, {"type": "Feature", "geometry": {"type": "Point", "coordinates": ["-122.272052", "49.055429"]}, "properties": {"id": "2097", "name": "Little Lions Childcare", "address": "103-2955 Immel St", "city": "Abbotsford", "phone": "778-347-0553", "services": []}}, {"type": "Feature", "geometry": {"type": "Point", "coordinates": ["-122.288689", "49.157851"]}, "properties": {"id": "2099", "name": "Lunar Early Childhood Learning Academy", "address": "8583 Kimball St", "city": "Mission", "phone": "604-202-8055", "services": []}}, {"type": "Feature", "geometry": {"type": "Point", "coordinates": ["-122.240465", "49.064128"]}, "properties": {"id": "2102", "name": "Angel Pines Daycare", "address": "8-3457 Whatcom Rd", "city": "Abbotsford", "phone": "778-929-0213", "services": [0, 1]}}, {"type": "Feature", "geometry": {"type": "Point", "coordinates": ["-122.336474", "49.043611"]}, "properties": {"id": "2103", "name": "Kids Kingdom Early Learning Centre Ltd", "address": "106-2276 Clearbrook Rd", "city": "Abbotsford", "phone": "778-956-9707", "services": []}}, {"type": "Feature", "geometry": {"type": "Point", "coordinates": ["-122.286933", "49.044009"]}, "properties": {"id": "2110", "name": "Peek 'N' Play Child Care Centre Inc", "address": "2317 Mouldstade Rd", "city": "Abbotsford", "phone": "604-721-9626", "services": []}}, {"type": "Feature", "geometry": {"type": "Point", "coordinates": ["-122.324173", "49.148929"]}, "properties": {"id": "2115", "name": "Little Fish Daycare", "address": "32510 Badger Ave", "city": "Mission", "phone": "604-832-2314", "services": []}}, {"type": "Feature", "geometry": {"type": "Point", "coordinates": ["-121.944412", "49.101197"]}, "properties": {"id": "2157", "name": "Dandelion Fields Outdoor Preschool", "address": "46200 Stoneview Dr", "city": "Chilliwack", "phone": "604-703-8417", "services": []}}, {"type": "Feature", "geometry": {"type": "Point", "coordinates": ["-122.332581", "49.044578"]}, "properties": {"id": "2167", "name": "Just B4 Dormick Park Elementary", "address": "32161 Dormick Ave", "city": "Abbotsford", "phone": "604-864-5437", "services": []}}, {"type": "Feature", "geometry": {"type": "Point", "coordinates": ["-121.941652", "49.179662"]}, "properties": {"id": "2169", "name": "A Little Moore Love", "address": "9766 Linwood St", "city": "Chilliwack", "phone": "604-866-0959", "services": []}}, {"type": "Feature", "geometry": {"type": "Point", "coordinates": ["-121.443885", "49.382521"]}, "properties": {"id": "2175", "name": "Mossy Branches Inc", "address": "310 Queen St", "city": "Hope", "phone": "778-318-6000", "services": []}}, {"type": "Feature", "geometry": {"type": "Point", "coordinates": ["-122.267694", "49.064392"]}, "properties": {"id": "2177", "name": "Sweet Pea's Daycare", "address": "3441 Eton Cres", "city": "Abbotsford", "phone": "604-961-9606", "services": []}}, {"type": "Feature", "geometry": {"type": "Point", "coordinates": ["-121.977311", "49.136985"]}, "properties": {"id": "2180", "name": "Evans Childcare Center", "address": "7434 Evans Rd", "city": "Chilliwack", "phone": "778-323-3100", "services": []}}, {"type": "Feature", "geometry": {"type": "Point", "coordinates": ["-121.952197", "49.09801"]}, "properties": {"id": "2194", "name": "Kids Place Daycare", "address": "5264 Weeden Pl", "city": "Chilliwack", "phone": "778-773-2015", "services": [0, 1, 3]}}, {"type": "Feature", "geometry": {"type": "Point", "coordinates": ["-121.989859", "49.099107"]}, "properties": {"id": "2200", "name": "Beanstalk Daycare The", "address": "5361 Chinook St", "city": "Chilliwack", "phone": "604-845-1050", "services": []}}, {"type": "Feature", "geometry": {"type": "Point", "coordinates": ["-121.952952", "49.173614"]}, "properties": {"id": "2231", "name": "Central Elementary Seamless Day", "address": "9435 Young Rd", "city": "Chilliwack", "phone": "604-614-6263", "services": [3]}}, {"type": "Feature", "geometry": {"type": "Point", "coordinates": ["-121.933684", "49.102613"]}, "properties": {"id": "2235", "name": "Trails Of Wonder Preschool Centre", "address": "5479 Dellview St", "city": "Chilliwack", "phone": "778-688-7350", "services": []}}, {"type": "Feature", "geometry": {"type": "Point", "coordinates": ["-121.931104", "49.173016"]}, "properties": {"id": "2239", "name": "1 Step 2 Steps Child Care", "address": "9422 Coote St", "city": "Chilliwack", "phone": "604-885-8439", "services": []}}, {"type": "Feature", "geometry": {"type": "Point", "coordinates": ["-121.951134", "49.095274"]}, "properties": {"id": "2240", "name": "Chilliwack Child Care", "address": "45983 Bridle Ridge Cres", "city": "Chilliwack", "phone": "778-345-8800", "services": [0, 1]}}, {"type": "Feature", "geometry": {"type": "Point", "coordinates": ["-122.224773", "49.051541"]}, "properties": {"id": "2242", "name": "Beautiful Minds", "address": "36120 Walter Rd", "city": "Abbotsford", "phone": "604-729-9538", "services": [0, 1, 3]}}, {"type": "Feature", "geometry": {"type": "Point", "coordinates": ["-122.306649", "49.041056"]}, "properties": {"id": "2250", "name": "Godson Early Learning Program", "address": "33130 Bevan Ave", "city": "Abbotsford", "phone": "604-864-5437", "services": []}}, {"type": "Feature", "geometry": {"type": "Point", "coordinates": ["-121.978837", "49.09856"]}, "properties": {"id": "2272", "name": "Stitos ymca Kids Club", "address": "5337 Tyson Rd", "city": "Chilliwack", "phone": "604-307-4872", "services": []}}, {"type": "Feature", "geometry": {"type": "Point", "coordinates": ["-121.970378", "49.112552"]}, "properties": {"id": "2273", "name": "Watson ymca Kids Club", "address": "45305 Watson Rd", "city": "Chilliwack", "phone": "604-307-4865", "services": []}}, {"type": "Feature", "geometry": {"type": "Point", "coordinates": ["-121.966635", "49.111943"]}, "properties": {"id": "2276", "name": "Kidspace Learning Centres Chilliwack Inc", "address": "6058 Glengarry Dr", "city": "Chilliwack", "phone": "604-786-5990", "services": []}}, {"type": "Feature", "geometry": {"type": "Point", "coordinates": ["-121.833012", "49.145935"]}, "properties": {"id": "2277", "name": "Pacific Wynd Montessori All Day Learning Centre Inc.", "address": "7956 Brookwood Pl", "city": "Chilliwack", "phone": "604-339-8054", "services": [0, 1]}}, {"type": "Feature", "geometry": {"type": "Point", "coordinates": ["-121.934799", "49.102394"]}, "properties": {"id": "2278", "name": "Cailey Anne's Child Care", "address": "5471 Alpine Cres", "city": "Chilliwack", "phone": "604-703-9826", "services": []}}, {"type": "Feature", "geometry": {"type": "Point", "coordinates": ["-122.40563", "49.162911"]}, "properties": {"id": "2283", "name": "Imagination Station Childcare Centre-Silverdale Crossing", "address": "29560 Lougheed Hwy", "city": "Mission", "phone": "604-287-7009", "services": []}}, {"type": "Feature", "geometry": {"type": "Point", "coordinates": ["-122.096306", "49.095643"]}, "properties": {"id": "2300", "name": "Little Caterpillars Childcare & Preschool Inc", "address": "5137 Tolmie Rd", "city": "Abbotsford", "phone": "604-799-7749", "services": [1, 3]}}, {"type": "Feature", "geometry": {"type": "Point", "coordinates": ["-122.214052", "49.055157"]}, "properties": {"id": "2344", "name": "All Day Smiles Child Care Centre", "address": "36517 Carnarvon Crt", "city": "Abbotsford", "phone": "778-680-4200", "services": []}}, {"type": "Feature", "geometry": {"type": "Point", "coordinates": ["-121.911741", "49.184877"]}, "properties": {"id": "2370", "name": "Hill Top Daycare", "address": "47425 Swallow Cres", "city": "Chilliwack", "phone": "604-353-8705", "services": [0, 1]}}, {"type": "Feature", "geometry": {"type": "Point", "coordinates": ["-122.329506", "49.040722"]}, "properties": {"id": "2373", "name": "Wibble Wobble Childcare - Clearbrook", "address": "2137 Beaver St", "city": "Abbotsford", "phone": "778-955-3030", "services": []}}, {"type": "Feature", "geometry": {"type": "Point", "coordinates": ["-122.324592", "49.054293"]}, "properties": {"id": "2399", "name": "Quality Time Childcare Centre Inc.", "address": "2865 Cruickshank St", "city": "Abbotsford", "phone": "778-551-3099", "services": []}}, {"type": "Feature", "geometry": {"type": "Point", "coordinates": ["-122.358912", "49.069309"]}, "properties": {"id": "2412", "name": "Little Dreamers Childcare Ltd.", "address": "#140 - #150 - 3720 Townline Rd", "city": "Abbotsford", "phone": "604-614-5308", "services": []}}, {"type": "Feature", "geometry": {"type": "Point", "coordinates": ["-122.323592", "49.146565"]}, "properties": {"id": "2428", "name": "Abm Childcare Center", "address": "32533 Ptarmigan Dr", "city": "Mission", "phone": "604-360-1247", "services": []}}, {"type": "Feature", "geometry": {"type": "Point", "coordinates": ["-122.317751", "49.052201"]}, "properties": {"id": "2440", "name": "Little Leaders Childcare Centre", "address": "2760 Emerson St", "city": "Abbotsford", "phone": "604-217-1404", "services": [0, 1, 2]}}, {"type": "Feature", "geometry": {"type": "Point", "coordinates": ["-121.958481", "49.164959"]}, "properties": {"id": "2455", "name": "Little Beginners Childcare Centre Ltd", "address": "45840 Yale Rd", "city": "Chilliwack", "phone": "604-751-0973", "services": []}}, {"type": "Feature", "geometry": {"type": "Point", "coordinates": ["-121.989247", "49.102393"]}, "properties": {"id": "2462", "name": "The Beanstalk Daycare", "address": "5500 Chinook St", "city": "Chilliwack", "phone": "604-845-1050", "services": []}}, {"type": "Feature", "geometry": {"type": "Point", "coordinates": ["-121.836529", "49.134604"]}, "properties": {"id": "2488", "name": "3 Bee's Marble Hill Daycare", "address": "7267 Marble Hill Rd", "city": "Chilliwack", "phone": "604-440-5923", "services": []}}, {"type": "Feature", "geometry": {"type": "Point", "coordinates": ["-121.949094", "49.159161"]}, "properties": {"id": "2490", "name": "Tiny Tykes Family Childcare", "address": "46095 Brooks Ave", "city": "Chilliwack", "phone": "778-955-7987", "services": [0, 1]}}, {"type": "Feature", "geometry": {"type": "Point", "coordinates": ["-122.351688", "49.05931"]}, "properties": {"id": "2493", "name": "Kids & I Daycare Ltd", "address": "31505 Southern Dr", "city": "Abbotsford", "phone": "604-679-9035", "services": []}}, {"type": "Feature", "geometry": {"type": "Point", "coordinates": ["-122.346389", "49.050629"]}, "properties": {"id": "2510", "name": "Little Sunshine Day Care", "address": "2660 Albert Way", "city": "Abbotsford", "phone": "604-584-3536", "services": []}}, {"type": "Feature", "geometry": {"type": "Point", "coordinates": ["-121.944302", "49.13584"]}, "properties": {"id": "2554", "name": "Skowkale S'iwesa:Ylhem Childcare Centre", "address": "46337 Smokehouse Rd", "city": "Chilliwack", "phone": "604-703-3766", "services": []}}, {"type": "Feature", "geometry": {"type": "Point", "coordinates": ["-121.935395", "49.184195"]}, "properties": {"id": "2559", "name": "Cubs On Kent Daycare Ltd", "address": "10033 Kent Rd", "city": "Chilliwack", "phone": "778-552-7713", "services": [0, 1]}}, {"type": "Feature", "geometry": {"type": "Point", "coordinates": ["-122.333822", "49.043583"]}, "properties": {"id": "2569", "name": "Brilliant Family Daycare", "address": "32118 Dormick Ave", "city": "Abbotsford", "phone": "604-746-9140", "services": [0, 1, 3]}}, {"type": "Feature", "geometry": {"type": "Point", "coordinates": ["-122.322371", "49.040478"]}, "properties": {"id": "2577", "name": "Little Champs Childcare", "address": "2124 Broadway St", "city": "Abbotsford", "phone": "778-552-0006", "services": []}}, {"type": "Feature", "geometry": {"type": "Point", "coordinates": ["-121.955083", "49.123447"]}, "properties": {"id": "2581", "name": "Green Valley Child Care", "address": "6675 School Lane", "city": "Chilliwack", "phone": "604-795-0151", "services": [0, 1]}}, {"type": "Feature", "geometry": {"type": "Point", "coordinates": ["-121.992058", "49.100307"]}, "properties": {"id": "2596", "name": "Beanstalk Daycare The", "address": "44490 Bayshore Ave", "city": "Chilliwack", "phone": "604-845-1050", "services": []}}, {"type": "Feature", "geometry": {"type": "Point", "coordinates": ["-121.944798", "49.182296"]}, "properties": {"id": "2624", "name": "Fairfield Island Daycare", "address": "46265 Hope River Rd", "city": "Chilliwack", "phone": "604-798-6826", "services": []}}, {"type": "Feature", "geometry": {"type": "Point", "coordinates": ["-122.355118", "49.061996"]}, "properties": {"id": "2625", "name": "Abby Junior Childcare Centre Inc.", "address": "3290 Wagner Dr", "city": "Abbotsford", "phone": "778-345-9202", "services": []}}, {"type": "Feature", "geometry": {"type": "Point", "coordinates": ["-121.936849", "49.192058"]}, "properties": {"id": "2626", "name": "Fairfield Island Little Bear Academy", "address": "46530 Elgin Dr", "city": "Chilliwack", "phone": "604-838-5032", "services": [0, 1]}}, {"type": "Feature", "geometry": {"type": "Point", "coordinates": ["-122.383644", "49.118153"]}, "properties": {"id": "2630", "name": "Eco Kids Care Inc.", "address": "6381 Mt Lehman Rd", "city": "Abbotsford", "phone": "778-549-6766", "services": []}}, {"type": "Feature", "geometry": {"type": "Point", "coordinates": ["-121.948628", "49.157317"]}, "properties": {"id": "2642", "name": "Robertson Elementary Just B4 Preschool & School Age Care", "address": "46106 Southlands Cres", "city": "Chilliwack", "phone": "604-614-6263", "services": [2, 3]}}, {"type": "Feature", "geometry": {"type": "Point", "coordinates": ["-121.954843", "49.110445"]}, "properties": {"id": "2643", "name": "Vedder Elementary Just B4 Preschool & School Age Care", "address": "45850 Promontory Rd", "city": "Chilliwack", "phone": "604-614-6263", "services": [3]}}, {"type": "Feature", "geometry": {"type": "Point", "coordinates": ["-121.463377", "49.362223"]}, "properties": {"id": "2661", "name": "Heart And Soul Childcare Foundation", "address": "63831 School Rd", "city": "Hope", "phone": "604-378-9227", "services": []}}, {"type": "Feature", "geometry": {"type": "Point", "coordinates": ["-122.281592", "49.158453"]}, "properties": {"id": "2668", "name": "Color Wheel Daycare Ltd The", "address": "34034 Cleven Dr", "city": "Mission", "phone": "604-621-2505", "services": []}}, {"type": "Feature", "geometry": {"type": "Point", "coordinates": ["-122.300935", "49.135973"]}, "properties": {"id": "2669", "name": "Wee Chickadees Childcare", "address": "33354 3Rd Ave", "city": "Mission", "phone": "604-788-2685", "services": []}}, {"type": "Feature", "geometry": {"type": "Point", "coordinates": ["-122.218531", "49.017503"]}, "properties": {"id": "2672", "name": "Kids Zone-Sema:Th", "address": "36321 Vye Rd", "city": "Abbotsford", "phone": "778-239-2075", "services": []}}, {"type": "Feature", "geometry": {"type": "Point", "coordinates": ["-122.339203", "49.065123"]}, "properties": {"id": "2684", "name": "New Creation Christian Childcare Center Inc", "address": "3471 Clearbrook Rd", "city": "Abbotsford", "phone": "778-751-6395", "services": [0]}}, {"type": "Feature", "geometry": {"type": "Point", "coordinates": ["-121.932004", "49.176061"]}, "properties": {"id": "2723", "name": "Petite Smile Daycare", "address": "9583 Coote St", "city": "Chilliwack", "phone": "604-367-6061", "services": []}}, {"type": "Feature", "geometry": {"type": "Point", "coordinates": ["-121.972028", "49.104265"]}, "properties": {"id": "2732", "name": "Midtown Childcare & Learning Center - Sardis", "address": "45255 Keith Wilson Rd", "city": "Chilliwack", "phone": "604-832-2895", "services": [0, 1]}}, {"type": "Feature", "geometry": {"type": "Point", "coordinates": ["-121.959095", "49.156787"]}, "properties": {"id": "2746", "name": "Mamacare Daycare Ltd", "address": "3-45676 Yale Rd", "city": "Chilliwack", "phone": "778-201-2110", "services": []}}, {"type": "Feature", "geometry": {"type": "Point", "coordinates": ["-122.29056", "49.13767"]}, "properties": {"id": "2747", "name": "Adventure Childcare Centre", "address": "33724 5Th Ave", "city": "Mission", "phone": "778-512-5650", "services": []}}, {"type": "Feature", "geometry": {"type": "Point", "coordinates": ["-121.934754", "49.168781"]}, "properties": {"id": "2767", "name": "Whole Child Childcare Mind Body Spirit", "address": "46612 First Ave", "city": "Chilliwack", "phone": "604-869-6555", "services": [1]}}, {"type": "Feature", "geometry": {"type": "Point", "coordinates": ["-121.940512", "49.187373"]}, "properties": {"id": "2780", "name": "Strathcona ymca Kids Club", "address": "46375 Strathcona Rd", "city": "Chilliwack", "phone": "236-880-9198", "services": []}}, {"type": "Feature", "geometry": {"type": "Point", "coordinates": ["-122.290328", "49.153978"]}, "properties": {"id": "2788", "name": "Peacock Place Daycare", "address": "8349 Peacock Pl", "city": "Mission", "phone": "604-556-1768", "services": [0, 1, 3]}}, {"type": "Feature", "geometry": {"type": "Point", "coordinates": ["-122.296948", "49.030922"]}, "properties": {"id": "2812", "name": "Tiny Toddlers Daycare", "address": "33472 King Rd", "city": "Abbotsford", "phone": "236-788-0008", "services": []}}, {"type": "Feature", "geometry": {"type": "Point", "coordinates": ["-121.945359", "49.172102"]}, "properties": {"id": "2834", "name": "Laugh And Learn Children Branch Ii", "address": "9362 William St", "city": "Chilliwack", "phone": "778-704-8407", "services": [0, 1]}}, {"type": "Feature", "geometry": {"type": "Point", "coordinates": ["-122.294607", "49.040929"]}, "properties": {"id": "2850", "name": "Learning Circle mccallum Tower The", "address": "2151 mccallum Rd", "city": "Abbotsford", "phone": "604-546-2873", "services": [0, 1, 2, 3]}}, {"type": "Feature", "geometry": {"type": "Point", "coordinates": ["-122.302797", "49.050813"]}, "properties": {"id": "2871", "name": "Valley Pine Learning Centre", "address": "33264 Old Yale Rd", "city": "Abbotsford", "phone": "604-866-9909", "services": []}}, {"type": "Feature", "geometry": {"type": "Point", "coordinates": ["-122.300969", "49.134685"]}, "properties": {"id": "2874", "name": "Little Kingdom Childcare Mission Downtown", "address": "33365 1St Ave", "city": "Mission", "phone": "778-384-3742", "services": [0, 1]}}, {"type": "Feature", "geometry": {"type": "Point", "coordinates": ["-122.348161", "49.050193"]}, "properties": {"id": "2898", "name": "Diversity Childcare Centre", "address": "31606 Clearview Cres", "city": "Abbotsford", "phone": "778-347-9620", "services": []}}, {"type": "Feature", "geometry": {"type": "Point", "coordinates": ["-122.365021", "49.057328"]}, "properties": {"id": "2906", "name": "Junior Adventures Childcare Academy", "address": "3031 Sandpiper Dr", "city": "Abbotsford", "phone": "778-982-4530", "services": []}}, {"type": "Feature", "geometry": {"type": "Point", "coordinates": ["-122.282662", "49.064461"]}, "properties": {"id": "2917", "name": "Smalls & Smiles Childcare Centre Ltd.", "address": "3444 Hazelwood Pl", "city": "Abbotsford", "phone": "204-906-1313", "services": [0, 1, 3]}}, {"type": "Feature", "geometry": {"type": "Point", "coordinates": ["-122.331637", "49.067173"]}, "properties": {"id": "2922", "name": "Meadowland Childcare Ltd", "address": "32241 Clinton Ave", "city": "Abbotsford", "phone": "604-771-8532", "services": [0, 1]}}, {"type": "Feature", "geometry": {"type": "Point", "coordinates": ["-121.966161", "49.128479"]}, "properties": {"id": "2953", "name": "Innocent Hearts Child Care", "address": "6933 Coach Lamp Dr", "city": "Chilliwack", "phone": "778-222-1451", "services": [0, 1]}}, {"type": "Feature", "geometry": {"type": "Point", "coordinates": ["-122.374238", "49.063202"]}, "properties": {"id": "2973", "name": "Little Oreos Daycare Ltd.", "address": "3347 Siskin Dr", "city": "Abbotsford", "phone": "778-344-5123", "services": []}}, {"type": "Feature", "geometry": {"type": "Point", "coordinates": ["-121.964697", "49.112168"]}, "properties": {"id": "2996", "name": "Watson Childcare Centre Ii", "address": "6045 Miller Dr", "city": "Chilliwack", "phone": "604-613-1148", "services": []}}, {"type": "Feature", "geometry": {"type": "Point", "coordinates": ["-121.934412", "49.158733"]}, "properties": {"id": "2997", "name": "Little Einstein Day Care (Annex Ii) Ltd", "address": "46610 Brooks Ave", "city": "Chilliwack", "phone": "778-512-9945", "services": []}}, {"type": "Feature", "geometry": {"type": "Point", "coordinates": ["-121.986214", "49.101342"]}, "properties": {"id": "3010", "name": "Bumble Jungle Daycare", "address": "44739 Vandell Dr", "city": "Chilliwack", "phone": "604-226-6227", "services": []}}, {"type": "Feature", "geometry": {"type": "Point", "coordinates": ["-122.333264", "49.06181"]}, "properties": {"id": "3014", "name": "Bright Life Childcare Ltd", "address": "32177 Austin Ave", "city": "Abbotsford", "phone": "604-712-1170", "services": []}}, {"type": "Feature", "geometry": {"type": "Point", "coordinates": ["-122.287788", "49.14612"]}, "properties": {"id": "3034", "name": "Kiddie Academy Child Care Centre Ltd", "address": "33837 Prentis Ave", "city": "Mission", "phone": "778-347-0816", "services": []}}, {"type": "Feature", "geometry": {"type": "Point", "coordinates": ["-122.365782", "49.054595"]}, "properties": {"id": "3044", "name": "Seven Colours Daycare", "address": "2858 Gardner Crt", "city": "Abbotsford", "phone": "778-982-8814", "services": []}}, {"type": "Feature", "geometry": {"type": "Point", "coordinates": ["-121.441193", "49.384682"]}, "properties": {"id": "3063", "name": "Heart And Soul Childcare Foundation", "address": "455 6Th Ave", "city": "Hope", "phone": "604-378-9227", "services": []}}, {"type": "Feature", "geometry": {"type": "Point", "coordinates": ["-121.976237", "49.110572"]}, "properties": {"id": "3068", "name": "Discover Montessori Preschool", "address": "202-5960 Tyson Rd", "city": "Chilliwack", "phone": "604-798-9237", "services": []}}, {"type": "Feature", "geometry": {"type": "Point", "coordinates": ["-122.301025", "49.057099"]}, "properties": {"id": "3077", "name": "Terry Fox Childcare", "address": "33341 Terry Fox Ave", "city": "Abbotsford", "phone": "604-441-7111", "services": []}}, {"type": "Feature", "geometry": {"type": "Point", "coordinates": ["-121.954708", "49.12208"]}, "properties": {"id": "3086", "name": "Dreamy Days Childcare And Learning Centre Ltd", "address": "45877 Verbena Dr", "city": "Chilliwack", "phone": "604-798-3889", "services": [0, 1]}}, {"type": "Feature", "geometry": {"type": "Point", "coordinates": ["-121.934276", "49.167816"]}, "properties": {"id": "3088", "name": "Toddler Town Learning Centre Inc", "address": "9127 Armitage St", "city": "Chilliwack", "phone": "437-223-0785", "services": [0, 1]}}, {"type": "Feature", "geometry": {"type": "Point", "coordinates": ["-121.932852", "49.191925"]}, "properties": {"id": "3117", "name": "Little Orchard Family Care", "address": "46751 Osborne Rd", "city": "Chilliwack", "phone": "604-997-2630", "services": []}}, {"type": "Feature", "geometry": {"type": "Point", "coordinates": ["-121.917401", "49.111725"]}, "properties": {"id": "3119", "name": "Maum Green Early Care & Learning Centre", "address": "47240 Laughington Pl", "city": "Chilliwack", "phone": "672-355-3991", "services": [0, 1]}}, {"type": "Feature", "geometry": {"type": "Point", "coordinates": ["-122.359556", "49.030774"]}, "properties": {"id": "3141", "name": "Country Bears Child Care Centre Inc", "address": "31216 King Rd", "city": "Abbotsford", "phone": "778-871-5608", "services": [1]}}, {"type": "Feature", "geometry": {"type": "Point", "coordinates": ["-121.953394", "49.120958"]}, "properties": {"id": "3170", "name": "Beanstalk Daycare The", "address": "6537 Iron St", "city": "Chilliwack", "phone": "604-845-1050", "services": []}}, {"type": "Feature", "geometry": {"type": "Point", "coordinates": ["-122.341144", "49.063413"]}, "properties": {"id": "3172", "name": "Care And Fun Childcare", "address": "31883 Mayne Ave", "city": "Abbotsford", "phone": "604-832-0375", "services": []}}, {"type": "Feature", "geometry": {"type": "Point", "coordinates": ["-122.379399", "49.061077"]}, "properties": {"id": "3189", "name": "Smile 'N' Play Daycare Centre", "address": "110-30475 Cardinal Ave", "city": "Abbotsford", "phone": "604-765-6215", "services": []}}, {"type": "Feature", "geometry": {"type": "Point", "coordinates": ["-121.95954", "49.133361"]}, "properties": {"id": "3191", "name": "Acklen Academy", "address": "7194 Vedder Rd", "city": "Chilliwack", "phone": "604-846-6078", "services": []}}, {"type": "Feature", "geometry": {"type": "Point", "coordinates": ["-121.945369", "49.172292"]}, "properties": {"id": "3194", "name": "Growing Steps Children Centre Chilliwack", "address": "46212 Maple Ave", "city": "Chilliwack", "phone": "778-387-1787", "services": []}}, {"type": "Feature", "geometry": {"type": "Point", "coordinates": ["-122.332984", "49.136133"]}, "properties": {"id": "3197", "name": "Mission Stars Childcare Centre (Hurd St)", "address": "7381 Hurd St", "city": "Mission", "phone": "778-246-1539", "services": []}}, {"type": "Feature", "geometry": {"type": "Point", "coordinates": ["-122.249162", "49.155678"]}, "properties": {"id": "3198", "name": "Nurturing Hearts Daycare Ltd", "address": "8436 Jack Cres", "city": "Mission", "phone": "778-239-5900", "services": []}}, {"type": "Feature", "geometry": {"type": "Point", "coordinates": ["-121.977062", "49.122108"]}, "properties": {"id": "3204", "name": "Laugh And Learn Children Centre Branch Iii", "address": "6596 Evans Rd.", "city": "Chilliwack", "phone": "604-726-8295", "services": []}}, {"type": "Feature", "geometry": {"type": "Point", "coordinates": ["-121.949157", "49.154979"]}, "properties": {"id": "3225", "name": "Creator Childcare Learning Center Inc", "address": "8408 Piper Cres", "city": "Chilliwack", "phone": "778-594-4449", "services": [0, 1, 3]}}, {"type": "Feature", "geometry": {"type": "Point", "coordinates": ["-122.314632", "49.139904"]}, "properties": {"id": "3230", "name": "Little Bright Minds Daycare", "address": "32858 7Th Ave", "city": "Mission", "phone": "236-332-7497", "services": [0, 1]}}, {"type": "Feature", "geometry": {"type": "Point", "coordinates": ["-122.312078", "49.152238"]}, "properties": {"id": "3240", "name": "Fun Zone Learning And Childcare Ltd The", "address": "8262 Bowyer Dr", "city": "Mission", "phone": "778-240-5306", "services": []}}, {"type": "Feature", "geometry": {"type": "Point", "coordinates": ["-122.3042", "49.040016"]}, "properties": {"id": "3245", "name": "Whimsical Wonders Childcare", "address": "2090 Ware St", "city": "Abbotsford", "phone": "778-246-1530", "services": []}}, {"type": "Feature", "geometry": {"type": "Point", "coordinates": ["-121.990227", "49.100311"]}, "properties": {"id": "3249", "name": "Beanstalk Daycare The", "address": "44544 Bayshore Ave", "city": "Chilliwack", "phone": "604-845-1050", "services": []}}, {"type": "Feature", "geometry": {"type": "Point", "coordinates": ["-122.318448", "49.066757"]}, "properties": {"id": "3265", "name": "Abby Twinkle Stars Daycare Inc", "address": "32708 Haida Dr", "city": "Abbotsford", "phone": "604-751-5765", "services": [0, 1, 3]}}, {"type": "Feature", "geometry": {"type": "Point", "coordinates": ["-122.374197", "49.069366"]}, "properties": {"id": "3268", "name": "Fun Square Childcare Limited", "address": "30675 Crestview Ave", "city": "Abbotsford", "phone": "778-344-3834", "services": []}}, {"type": "Feature", "geometry": {"type": "Point", "coordinates": ["-121.935582", "49.105976"]}, "properties": {"id": "3289", "name": "Wonder Balloons Childcare Centre", "address": "4-5697 Promontory Rd", "city": "Chilliwack", "phone": "250-899-3061", "services": [0, 1, 3]}}, {"type": "Feature", "geometry": {"type": "Point", "coordinates": ["-121.950865", "49.178675"]}, "properties": {"id": "3298", "name": "Wibble Wobble Learning Centre", "address": "46030 Bonny Ave", "city": "Chilliwack", "phone": "778-246-5513", "services": []}}, {"type": "Feature", "geometry": {"type": "Point", "coordinates": ["-122.254241", "49.034082"]}, "properties": {"id": "3304", "name": "Bright Zone Childcare", "address": "1730 Everett Rd", "city": "Abbotsford", "phone": "778-536-8510", "services": []}}, {"type": "Feature", "geometry": {"type": "Point", "coordinates": ["-121.958478", "49.127752"]}, "properties": {"id": "3328", "name": "Sardis Elementary School Age Care", "address": "45775 Manuel Rd", "city": "Chilliwack", "phone": "604-614-6263", "services": []}}, {"type": "Feature", "geometry": {"type": "Point", "coordinates": ["-121.999478", "49.105155"]}, "properties": {"id": "3329", "name": "Unsworth Elementary School Age Care", "address": "5685 Unsworth Rd", "city": "Chilliwack", "phone": "604-614-6263", "services": []}}, {"type": "Feature", "geometry": {"type": "Point", "coordinates": ["-122.047137", "49.121858"]}, "properties": {"id": "3330", "name": "Greendale Elementary School Age Care", "address": "6621 Sumas Prairie Rd", "city": "Chilliwack", "phone": "604-614-6263", "services": []}}, {"type": "Feature", "geometry": {"type": "Point", "coordinates": ["-122.247841", "49.034571"]}, "properties": {"id": "3331", "name": "Taylin Child Care Delair Rd", "address": "35270 Delair Rd", "city": "Abbotsford", "phone": "604-349-4066", "services": []}}, {"type": "Feature", "geometry": {"type": "Point", "coordinates": ["-121.9739", "49.135523"]}, "properties": {"id": "3343", "name": "Mathieson After School Childcare Centre", "address": "45195 Wells Rd", "city": "Chilliwack", "phone": "604-819-4117", "services": []}}, {"type": "Feature", "geometry": {"type": "Point", "coordinates": ["-121.974991", "49.159774"]}, "properties": {"id": "3353", "name": "Legendary Leaders And Explorers Childcare Centre Chilliwack", "address": "45160 Deans Ave", "city": "Chilliwack", "phone": "604-763-2023", "services": []}}, {"type": "Feature", "geometry": {"type": "Point", "coordinates": ["-121.955488", "49.1727"]}, "properties": {"id": "3359", "name": "Central Village Childcare Society", "address": "101-9391 College St", "city": "Chilliwack", "phone": "604-750-6365", "services": []}}, {"type": "Feature", "geometry": {"type": "Point", "coordinates": ["-121.91283", "49.181547"]}, "properties": {"id": "3364", "name": "Woodland Wonder Daycare", "address": "47383 Yale Rd", "city": "Chilliwack", "phone": "604-819-5403", "services": [0, 1]}}, {"type": "Feature", "geometry": {"type": "Point", "coordinates": ["-122.32214", "49.052938"]}, "properties": {"id": "3366", "name": "Sandbox Early Learning (Abbotsford)", "address": "32560 Simon Ave", "city": "Abbotsford", "phone": "604-868-7121", "services": []}}, {"type": "Feature", "geometry": {"type": "Point", "coordinates": ["-121.957158", "49.106195"]}, "properties": {"id": "3368", "name": "Puzzles Child Care Centre", "address": "5639 Remington Cres", "city": "Chilliwack", "phone": "778-918-6343", "services": []}}, {"type": "Feature", "geometry": {"type": "Point", "coordinates": ["-121.951169", "49.177857"]}, "properties": {"id": "3386", "name": "Mossy Creek Childcare", "address": "46017 Lewis Ave", "city": "Chilliwack", "phone": "236-975-8877", "services": [1]}}, {"type": "Feature", "geometry": {"type": "Point", "coordinates": ["-122.375782", "49.063587"]}, "properties": {"id": "3408", "name": "Sunlight Fraser Valley Daycare", "address": "3366 Goldfinch Pl", "city": "Abbotsford", "phone": "639-916-0322", "services": []}}, {"type": "Feature", "geometry": {"type": "Point", "coordinates": ["-121.445691", "49.39036"]}, "properties": {"id": "3425", "name": "Hope Montessori Academy", "address": "505 Wardle St", "city": "Hope", "phone": "604-614-9144", "services": [0, 1, 3]}}, {"type": "Feature", "geometry": {"type": "Point", "coordinates": ["-121.941568", "49.098772"]}, "properties": {"id": "3428", "name": "Beanstalk Daycare The", "address": "46365 Valleyview Rd", "city": "Chilliwack", "phone": "604-845-1050", "services": []}}, {"type": "Feature", "geometry": {"type": "Point", "coordinates": ["-122.329807", "49.050793"]}, "properties": {"id": "3439", "name": "Abby Childcare Centre", "address": "2663 James St", "city": "Abbotsford", "phone": "604-612-0439", "services": []}}, {"type": "Feature", "geometry": {"type": "Point", "coordinates": ["-122.279929", "49.053268"]}, "properties": {"id": "3469", "name": "Angel Pines Center", "address": "2826 Cambridge St", "city": "Abbotsford", "phone": "778-929-0213", "services": [0]}}, {"type": "Feature", "geometry": {"type": "Point", "coordinates": ["-122.309167", "49.135011"]}, "properties": {"id": "3471", "name": "Green Valley Sunshine Kids", "address": "7332 Grand St", "city": "Mission", "phone": "778-347-4242", "services": [1, 2, 3]}}, {"type": "Feature", "geometry": {"type": "Point", "coordinates": ["-121.942533", "49.186547"]}, "properties": {"id": "3475", "name": "Bright Early Learning Academy", "address": "46340 Strathcona Rd", "city": "Chilliwack", "phone": "778-704-8822", "services": [0, 1, 3]}}, {"type": "Feature", "geometry": {"type": "Point", "coordinates": ["-121.925852", "49.173592"]}, "properties": {"id": "3505", "name": "Little Einstein Day Care Ltd.", "address": "9435 James St", "city": "Chilliwack", "phone": "778-512-9945", "services": []}}, {"type": "Feature", "geometry": {"type": "Point", "coordinates": ["-121.971649", "49.113393"]}, "properties": {"id": "3508", "name": "Explore Daycare", "address": "6124 Arlington Dr", "city": "Chilliwack", "phone": "604-791-4117", "services": []}}, {"type": "Feature", "geometry": {"type": "Point", "coordinates": ["-121.972133", "49.121734"]}, "properties": {"id": "3526", "name": "Watson Childcare Center Iii", "address": "6583 Dayton Dr", "city": "Chilliwack", "phone": "604-613-1148", "services": []}}, {"type": "Feature", "geometry": {"type": "Point", "coordinates": ["-122.326735", "49.051329"]}, "properties": {"id": "3543", "name": "Next Level Childcare Society - Clearbrook", "address": "112-2653 Trethewey St", "city": "Abbotsford", "phone": "604-380-4060", "services": []}}, {"type": "Feature", "geometry": {"type": "Point", "coordinates": ["-122.318504", "49.050298"]}, "properties": {"id": "3545", "name": "Kiddie Club Childcare Center", "address": "22-32700 South Fraser Way", "city": "Abbotsford", "phone": "778-963-8811", "services": []}}, {"type": "Feature", "geometry": {"type": "Point", "coordinates": ["-121.988955", "49.161752"]}, "properties": {"id": "3573", "name": "Safe Haven Daycare", "address": "7810 Cedarbrook Rd", "city": "Chilliwack", "phone": "236-458-7095", "services": [0, 1]}}, {"type": "Feature", "geometry": {"type": "Point", "coordinates": ["-122.275077", "49.037783"]}, "properties": {"id": "3577", "name": "Pure Play Child Care Marshall Inc.", "address": "201-34314 Marshall Rd", "city": "Abbotsford", "phone": "604-854-0327", "services": []}}, {"type": "Feature", "geometry": {"type": "Point", "coordinates": ["-122.229766", "49.042421"]}, "properties": {"id": "3580", "name": "Welcome Kids Daycare", "address": "2268 Mountain Dr", "city": "Abbotsford", "phone": "778-893-8938", "services": []}}, {"type": "Feature", "geometry": {"type": "Point", "coordinates": ["-122.32482", "49.049144"]}, "properties": {"id": "3589", "name": "Chalo Child Care Centre", "address": "32462 Hillcrest Ave", "city": "Abbotsford", "phone": "236-258-1915", "services": []}}, {"type": "Feature", "geometry": {"type": "Point", "coordinates": ["-122.325507", "49.047202"]}, "properties": {"id": "3592", "name": "Care And Fun Childcare Centre 1", "address": "2485 Sugarpine St", "city": "Abbotsford", "phone": "604-832-0375", "services": []}}, {"type": "Feature", "geometry": {"type": "Point", "coordinates": ["-122.340451", "49.134602"]}, "properties": {"id": "3596", "name": "Kidz Hub Early Learning Centre Inc.", "address": "1-31895 Lougheed Hwy", "city": "Mission", "phone": "604-590-6771", "services": []}}, {"type": "Feature", "geometry": {"type": "Point", "coordinates": ["-121.948082", "49.098225"]}, "properties": {"id": "3610", "name": "Beanstalk Daycare The", "address": "5278 Westwood Dr", "city": "Chilliwack", "phone": "604-845-1050", "services": []}}, {"type": "Feature", "geometry": {"type": "Point", "coordinates": ["-122.298451", "49.155474"]}, "properties": {"id": "3643", "name": "Club K.I.D.S. Esr", "address": "33419 Cherry Ave", "city": "Mission", "phone": "604-820-5360", "services": []}}, {"type": "Feature", "geometry": {"type": "Point", "coordinates": ["-122.316749", "49.047948"]}, "properties": {"id": "3656", "name": "Li'l Acorn Childcare", "address": "2527 Gladwin Rd", "city": "Abbotsford", "phone": "604-853-9376", "services": [0, 1]}}, {"type": "Feature", "geometry": {"type": "Point", "coordinates": ["-122.259054", "49.045177"]}, "properties": {"id": "3675", "name": "The Open Door", "address": "2390 mcmillan Rd", "city": "Abbotsford", "phone": "604-859-8406", "services": [0, 1, 3]}}, {"type": "Feature", "geometry": {"type": "Point", "coordinates": ["-122.337322", "49.066948"]}, "properties": {"id": "3754", "name": "Maranatha Kids Care", "address": "3580 Clearbrook Rd", "city": "Abbotsford", "phone": "604-859-8405", "services": []}}, {"type": "Feature", "geometry": {"type": "Point", "coordinates": ["-121.964377", "49.135923"]}, "properties": {"id": "3766", "name": "A:Lmelhawtxw Early Education Centre", "address": "9-7201 Vedder Rd", "city": "Chilliwack", "phone": "604-824-6505", "services": []}}, {"type": "Feature", "geometry": {"type": "Point", "coordinates": ["-122.379707", "49.066994"]}, "properties": {"id": "3767", "name": "Little Twinkle Preschool/Out Of School Care (Mount Lehman)", "address": "3551 Crestview Ave", "city": "Abbotsford", "phone": "604-614-5562", "services": []}}, {"type": "Feature", "geometry": {"type": "Point", "coordinates": ["-122.377313", "49.064925"]}, "properties": {"id": "3785", "name": "Blueridge Childcare", "address": "3459 Goldfinch St", "city": "Abbotsford", "phone": "604-870-8878", "services": []}}, {"type": "Feature", "geometry": {"type": "Point", "coordinates": ["-122.298987", "49.147334"]}, "properties": {"id": "3824", "name": "Kinder Time Daycare", "address": "7993 Dunsmuir St", "city": "Mission", "phone": "604-826-2608", "services": []}}, {"type": "Feature", "geometry": {"type": "Point", "coordinates": ["-122.314526", "49.155602"]}, "properties": {"id": "3858", "name": "Club K.I.D.S. Albert mcmahon", "address": "32865 Cherry Ave", "city": "Mission", "phone": "604-820-5360", "services": []}}, {"type": "Feature", "geometry": {"type": "Point", "coordinates": ["-121.971309", "49.134245"]}, "properties": {"id": "3860", "name": "Once Upon A Time Child Care Centre Inc", "address": "7268 Richardson Ave", "city": "Chilliwack", "phone": "604-847-3017", "services": []}}, {"type": "Feature", "geometry": {"type": "Point", "coordinates": ["-122.284832", "49.055156"]}, "properties": {"id": "3861", "name": "Little Wonders Montessori Childcare Centre & Preschool Ltd", "address": "2884 Gladys Ave", "city": "Abbotsford", "phone": "604-853-9998", "services": []}}, {"type": "Feature", "geometry": {"type": "Point", "coordinates": ["-122.315196", "49.153141"]}, "properties": {"id": "3898", "name": "Wind & Tide-Cedar", "address": "32860 Cherry Ave", "city": "Mission", "phone": "604-617-3246", "services": []}}, {"type": "Feature", "geometry": {"type": "Point", "coordinates": ["-121.961998", "49.17332"]}, "properties": {"id": "3903", "name": "Castle Childcare Centre", "address": "45619 Princess Ave", "city": "Chilliwack", "phone": "604-795-4904", "services": []}}, {"type": "Feature", "geometry": {"type": "Point", "coordinates": ["-121.970378", "49.112552"]}, "properties": {"id": "3912", "name": "Watson Elementary - Just B4 Preschool", "address": "45305 Watson Rd", "city": "Chilliwack", "phone": "604-614-6263", "services": [2]}}, {"type": "Feature", "geometry": {"type": "Point", "coordinates": ["-122.045149", "49.120621"]}, "properties": {"id": "3921", "name": "Sonshine Place Preschool", "address": "6550 Sumas Prairie Rd", "city": "Chilliwack", "phone": "604-823-6364", "services": [2]}}, {"type": "Feature", "geometry": {"type": "Point", "coordinates": ["-122.31304", "49.074573"]}, "properties": {"id": "3929", "name": "Cornerstone Junior Kindergarten", "address": "32860 Downes Rd", "city": "Abbotsford", "phone": "604-859-7867", "services": []}}, {"type": "Feature", "geometry": {"type": "Point", "coordinates": ["-122.251149", "49.073426"]}, "properties": {"id": "3947", "name": "Abbotsford Christian School Childcare Preschool & Seamless D", "address": "3939 Old Clayburn Rd", "city": "Abbotsford", "phone": "604-755-8106", "services": []}}, {"type": "Feature", "geometry": {"type": "Point", "coordinates": ["-121.969945", "49.166032"]}, "properties": {"id": "3976", "name": "Mes Amis Childcare", "address": "45345 Westview Ave", "city": "Chilliwack", "phone": "604-819-4979", "services": []}}, {"type": "Feature", "geometry": {"type": "Point", "coordinates": ["-122.347627", "49.075743"]}, "properties": {"id": "4036", "name": "Mei Elementary Preschool", "address": "31655 Downes Rd", "city": "Abbotsford", "phone": "604-859-3700", "services": []}}, {"type": "Feature", "geometry": {"type": "Point", "coordinates": ["-121.997334", "49.105513"]}, "properties": {"id": "4040", "name": "Tree House Children's Centre", "address": "5696 Unsworth Rd", "city": "Chilliwack", "phone": "604-824-1234", "services": [0, 1, 3]}}, {"type": "Feature", "geometry": {"type": "Point", "coordinates": ["-122.234666", "49.042946"]}, "properties": {"id": "4067", "name": "Hand In Hand - Mountain Elementary", "address": "2299 Mountain Dr", "city": "Abbotsford", "phone": "604-859-1843", "services": []}}, {"type": "Feature", "geometry": {"type": "Point", "coordinates": ["-121.946136", "49.101649"]}, "properties": {"id": "4090", "name": "Promontory Hummingbird Child Care Centre", "address": "2 46170 Stoneview Dr", "city": "Chilliwack", "phone": "604-824-9907", "services": []}}, {"type": "Feature", "geometry": {"type": "Point", "coordinates": ["-121.946136", "49.101649"]}, "properties": {"id": "4143", "name": "Promontory Hummingbird Child Care Centre", "address": "1 46170 Stoneview Dr", "city": "Chilliwack", "phone": "604-824-9907", "services": []}}, {"type": "Feature", "geometry": {"type": "Point", "coordinates": ["-122.310642", "49.04037"]}, "properties": {"id": "4145", "name": "Growing Together Children's Centre", "address": "32981 Brundidge Ave", "city": "Abbotsford", "phone": "604-853-5618", "services": []}}, {"type": "Feature", "geometry": {"type": "Point", "coordinates": ["-122.314607", "49.169519"]}, "properties": {"id": "4159", "name": "Bloom Childcare Centre & Fine Arts Preschool", "address": "32811 Dewdney Trunk Rd", "city": "Mission", "phone": "604-820-8465", "services": []}}, {"type": "Feature", "geometry": {"type": "Point", "coordinates": ["-122.315426", "49.065288"]}, "properties": {"id": "4182", "name": "Wind And Tide Preschool - Gladwin", "address": "3474 Gladwin Rd", "city": "Abbotsford", "phone": "604-575-0549", "services": []}}, {"type": "Feature", "geometry": {"type": "Point", "coordinates": ["-121.975915", "49.141578"]}, "properties": {"id": "4184", "name": "Wind And Tide - Evans Elementary", "address": "7600 Evans Rd", "city": "Chilliwack", "phone": "604-575-0549", "services": []}}, {"type": "Feature", "geometry": {"type": "Point", "coordinates": ["-122.259646", "49.066408"]}, "properties": {"id": "4189", "name": "Hand In Hand - Dr. Thomas Swift Elementary", "address": "34800 Mierau Ave", "city": "Abbotsford", "phone": "604-859-1843", "services": []}}, {"type": "Feature", "geometry": {"type": "Point", "coordinates": ["-122.255995", "49.053734"]}, "properties": {"id": "4210", "name": "Gingerbread House Preschool", "address": "2859 Glenavon Crt", "city": "Abbotsford", "phone": "604-807-3066", "services": [2]}}, {"type": "Feature", "geometry": {"type": "Point", "coordinates": ["-122.333877", "49.047724"]}, "properties": {"id": "4267", "name": "Mr. Moose's Childcare Learning Centre Ltd.", "address": "32130 Hillcrest Ave", "city": "Abbotsford", "phone": "604-853-2769", "services": []}}, {"type": "Feature", "geometry": {"type": "Point", "coordinates": ["-121.962973", "49.164273"]}, "properties": {"id": "4278", "name": "St. Mary's School", "address": "8909 Mary St", "city": "Chilliwack", "phone": "604-683-0281", "services": []}}, {"type": "Feature", "geometry": {"type": "Point", "coordinates": ["-121.937591", "49.168129"]}, "properties": {"id": "4288", "name": "Little Footsteps Child Care Centre Society", "address": "46510 1St Ave", "city": "Chilliwack", "phone": "604-793-4452", "services": []}}, {"type": "Feature", "geometry": {"type": "Point", "coordinates": ["-121.945339", "49.101649"]}, "properties": {"id": "4289", "name": "The Panther Pen After School Care", "address": "46200 Stoneview Dr", "city": "Chilliwack", "phone": "604-858-2999", "services": []}}, {"type": "Feature", "geometry": {"type": "Point", "coordinates": ["-121.928777", "49.172224"]}, "properties": {"id": "4301", "name": "Hopscotch Kids Daycare", "address": "9365 Carleton St", "city": "Chilliwack", "phone": "604-795-5060", "services": []}}, {"type": "Feature", "geometry": {"type": "Point", "coordinates": ["-122.255923", "49.15567"]}, "properties": {"id": "4307", "name": "Club K.I.D.S. Hatzic", "address": "8465 Draper St", "city": "Mission", "phone": "604-820-5360", "services": []}}, {"type": "Feature", "geometry": {"type": "Point", "coordinates": ["-122.400798", "49.163363"]}, "properties": {"id": "4308", "name": "Imagination Station Childcare Centre-Silverdale", "address": "29715 Donatelli Ave", "city": "Mission", "phone": "604-614-6856", "services": []}}, {"type": "Feature", "geometry": {"type": "Point", "coordinates": ["-121.950232", "49.179634"]}, "properties": {"id": "4323", "name": "Tadpole Academy Child Care Center", "address": "9766 Oak St", "city": "Chilliwack", "phone": "604-751-5363", "services": []}}, {"type": "Feature", "geometry": {"type": "Point", "coordinates": ["-122.311253", "49.147074"]}, "properties": {"id": "4330", "name": "Little Professors", "address": "32948 Fourteenth Ave", "city": "Mission", "phone": "604-768-6697", "services": []}}, {"type": "Feature", "geometry": {"type": "Point", "coordinates": ["-122.319252", "49.155247"]}, "properties": {"id": "4331", "name": "Exploring Minds Childcare Center", "address": "32676 Stokes Ave", "city": "Mission", "phone": "604-287-0063", "services": [0, 1]}}, {"type": "Feature", "geometry": {"type": "Point", "coordinates": ["-121.929818", "49.103497"]}, "properties": {"id": "4365", "name": "Hobby Hill Parent Participation Preschool", "address": "5650 Teskey Way", "city": "Chilliwack", "phone": "604-858-5579", "services": []}}, {"type": "Feature", "geometry": {"type": "Point", "coordinates": ["-122.300739", "49.040977"]}, "properties": {"id": "4392", "name": "St. Ann's Preschool", "address": "33333 Mayfair Ave", "city": "Abbotsford", "phone": "604-581-3154", "services": [2]}}, {"type": "Feature", "geometry": {"type": "Point", "coordinates": ["-121.932959", "49.164171"]}, "properties": {"id": "4406", "name": "Bethel Children's Hour", "address": "1-8920 Broadway", "city": "Chilliwack", "phone": "604-794-7114", "services": []}}, {"type": "Feature", "geometry": {"type": "Point", "coordinates": ["-122.244882", "49.063475"]}, "properties": {"id": "4421", "name": "Blossom Childcare Centre", "address": "35366 mckee Rd", "city": "Abbotsford", "phone": "604-850-2231", "services": []}}, {"type": "Feature", "geometry": {"type": "Point", "coordinates": ["-122.322499", "49.152271"]}, "properties": {"id": "4439", "name": "Club K.I.D.S. Cherry Hill - Room 35", "address": "32557 Best Ave", "city": "Mission", "phone": "604-820-5360", "services": []}}, {"type": "Feature", "geometry": {"type": "Point", "coordinates": ["-122.291858", "49.106986"]}, "properties": {"id": "4441", "name": "Msa Montessori Preschool", "address": "33676 St. Olaf Ave", "city": "Abbotsford", "phone": "604-820-4987", "services": []}}, {"type": "Feature", "geometry": {"type": "Point", "coordinates": ["-121.997268", "49.105328"]}, "properties": {"id": "4448", "name": "Tree House Children's Centre", "address": "5684 Unsworth Rd", "city": "Chilliwack", "phone": "604-824-1234", "services": []}}, {"type": "Feature", "geometry": {"type": "Point", "coordinates": ["-122.34526", "49.049888"]}, "properties": {"id": "4451", "name": "Hand In Hand - Ten Broeck Elementary", "address": "2580 Stanley St", "city": "Abbotsford", "phone": "604-859-1843", "services": []}}, {"type": "Feature", "geometry": {"type": "Point", "coordinates": ["-121.981395", "49.10647"]}, "properties": {"id": "4472", "name": "Happy Days Family Daycare", "address": "5724 Janis St", "city": "Chilliwack", "phone": "604-798-5570", "services": []}}, {"type": "Feature", "geometry": {"type": "Point", "coordinates": ["-122.356438", "49.068683"]}, "properties": {"id": "4473", "name": "Little Dreamers Childcare Ltd.", "address": "31321 Blueridge Dr", "city": "Abbotsford", "phone": "604-614-5308", "services": []}}, {"type": "Feature", "geometry": {"type": "Point", "coordinates": ["-121.923077", "49.186093"]}, "properties": {"id": "4545", "name": "Little Mountain Daycare", "address": "10148 Beaver Cres", "city": "Chilliwack", "phone": "604-793-9378", "services": []}}, {"type": "Feature", "geometry": {"type": "Point", "coordinates": ["-122.336754", "49.047884"]}, "properties": {"id": "4553", "name": "Qt Daycare #1", "address": "2518 Clearbrook Rd", "city": "Abbotsford", "phone": "604-556-6458", "services": []}}, {"type": "Feature", "geometry": {"type": "Point", "coordinates": ["-121.934556", "49.163146"]}, "properties": {"id": "4556", "name": "Highroad Children's Centre", "address": "8860 Broadway", "city": "Chilliwack", "phone": "604-792-4680", "services": []}}, {"type": "Feature", "geometry": {"type": "Point", "coordinates": ["-122.318733", "49.070569"]}, "properties": {"id": "4561", "name": "Honey Bee Academy Family Daycare", "address": "3772 Nicola St", "city": "Abbotsford", "phone": "604-744-9109", "services": []}}, {"type": "Feature", "geometry": {"type": "Point", "coordinates": ["-122.374949", "49.064794"]}, "properties": {"id": "4568", "name": "Khalsa Child Care Centre", "address": "30640 Blueridge Dr", "city": "Abbotsford", "phone": "604-594-0553", "services": []}}, {"type": "Feature", "geometry": {"type": "Point", "coordinates": ["-122.344067", "49.067202"]}, "properties": {"id": "4591", "name": "Ladybug Landing Preschool", "address": "31789 Thornhill Pl", "city": "Abbotsford", "phone": "604-850-2474", "services": []}}, {"type": "Feature", "geometry": {"type": "Point", "coordinates": ["-122.354005", "49.048445"]}, "properties": {"id": "4613", "name": "Toor's Daycare Center", "address": "31406 Springhill Crt", "city": "Abbotsford", "phone": "604-614-3828", "services": []}}, {"type": "Feature", "geometry": {"type": "Point", "coordinates": ["-122.298988", "49.147013"]}, "properties": {"id": "4668", "name": "Baby Bears Infant And Toddler Daycare Ltd.", "address": "7973 Dunsmuir St", "city": "Mission", "phone": "604-826-5612", "services": []}}, {"type": "Feature", "geometry": {"type": "Point", "coordinates": ["-122.336193", "49.047712"]}, "properties": {"id": "4694", "name": "Qt Daycare #2", "address": "32034 Hillcrest Ave", "city": "Abbotsford", "phone": "604-556-6458", "services": []}}, {"type": "Feature", "geometry": {"type": "Point", "coordinates": ["-122.337701", "49.034332"]}, "properties": {"id": "4714", "name": "Redwood Early Childhood Education", "address": "107-1785 Clearbrook Rd", "city": "Abbotsford", "phone": "778-288-8855", "services": []}}, {"type": "Feature", "geometry": {"type": "Point", "coordinates": ["-122.319654", "49.071851"]}, "properties": {"id": "4761", "name": "Fraser Valley Montessori Preschool & School Age Care", "address": "32717 Chilcotin Dr", "city": "Abbotsford", "phone": "604-859-5061", "services": []}}, {"type": "Feature", "geometry": {"type": "Point", "coordinates": ["-121.817938", "49.156022"]}, "properties": {"id": "4776", "name": "Creekside Child Care", "address": "8416 Bradshaw Pl", "city": "Chilliwack", "phone": "604-745-4697", "services": []}}, {"type": "Feature", "geometry": {"type": "Point", "coordinates": ["-121.959767", "49.134418"]}, "properties": {"id": "4804", "name": "Wibble Wobble Childcare - Vedder", "address": "7258 Vedder Rd", "city": "Chilliwack", "phone": "604-392-9300", "services": []}}, {"type": "Feature", "geometry": {"type": "Point", "coordinates": ["-121.783898", "49.298194"]}, "properties": {"id": "4812", "name": "Agassiz/Harrison Childcare Centres Inc", "address": "501 Hot Springs Rd", "city": "Harrison Hot Springs", "phone": "604-378-9227", "services": []}}, {"type": "Feature", "geometry": {"type": "Point", "coordinates": ["-122.269171", "49.057618"]}, "properties": {"id": "4834", "name": "Fraser Valley Montessori School Age Care", "address": "3060 Old Clayburn Rd", "city": "Abbotsford", "phone": "604-859-5061", "services": []}}, {"type": "Feature", "geometry": {"type": "Point", "coordinates": ["-121.949731", "49.18423"]}, "properties": {"id": "4839", "name": "Sunny Fields Daycare", "address": "46090 Avalon Ave", "city": "Chilliwack", "phone": "604-799-8131", "services": []}}, {"type": "Feature", "geometry": {"type": "Point", "coordinates": ["-121.937586", "49.193116"]}, "properties": {"id": "4856", "name": "Sunshine Academy Childcare And Learning Center", "address": "46510 Teton Ave", "city": "Chilliwack", "phone": "604-702-0267", "services": []}}, {"type": "Feature", "geometry": {"type": "Point", "coordinates": ["-122.259434", "49.045838"]}, "properties": {"id": "4891", "name": "Puddlejumpers Childcare Centre", "address": "34824 Orchard Dr", "city": "Abbotsford", "phone": "778-809-1416", "services": []}}, {"type": "Feature", "geometry": {"type": "Point", "coordinates": ["-122.279223", "49.04"]}, "properties": {"id": "4894", "name": "Sun Hang Do Martial Arts Kids Life Skills Club (Abbotsford)", "address": "6-34100 South Fraser Way", "city": "Abbotsford", "phone": "604-852-4222", "services": []}}, {"type": "Feature", "geometry": {"type": "Point", "coordinates": ["-122.330432", "49.050242"]}, "properties": {"id": "4959", "name": "Wings Of Life Fine Arts Child Care", "address": "2630 Langdon St", "city": "Abbotsford", "phone": "604-302-2666", "services": []}}, {"type": "Feature", "geometry": {"type": "Point", "coordinates": ["-122.307744", "49.13776"]}, "properties": {"id": "4963", "name": "Mission Montessori Academy", "address": "33070 5Th Ave", "city": "Mission", "phone": "604-287-0120", "services": []}}, {"type": "Feature", "geometry": {"type": "Point", "coordinates": ["-122.287653", "49.042415"]}, "properties": {"id": "4968", "name": "Hand In Hand - Alexander Elementary", "address": "2250 Lobban Rd", "city": "Abbotsford", "phone": "604-859-1843", "services": []}}, {"type": "Feature", "geometry": {"type": "Point", "coordinates": ["-122.273476", "49.046015"]}, "properties": {"id": "5007", "name": "Tiny Turtles Daycare", "address": "34324 Old Yale Rd", "city": "Abbotsford", "phone": "778-835-0149", "services": [0, 1, 3]}}, {"type": "Feature", "geometry": {"type": "Point", "coordinates": ["-122.311068", "49.134171"]}, "properties": {"id": "5055", "name": "You Care We Care Daycare Inc.", "address": "32965 Lougheed Hwy", "city": "Mission", "phone": "604-820-4946", "services": []}}, {"type": "Feature", "geometry": {"type": "Point", "coordinates": ["-122.273425", "49.057177"]}, "properties": {"id": "5096", "name": "Creative Edge School Of Arts Ltd.", "address": "300-3033 Immel St", "city": "Abbotsford", "phone": "604-855-3343", "services": []}}, {"type": "Feature", "geometry": {"type": "Point", "coordinates": ["-122.293907", "49.040445"]}, "properties": {"id": "5123", "name": "Little Leaders Childcare Centre Inc.", "address": "4-33575 Mayfair Ave", "city": "Abbotsford", "phone": "604-217-1404", "services": [1, 2]}}, {"type": "Feature", "geometry": {"type": "Point", "coordinates": ["-121.974842", "49.105299"]}, "properties": {"id": "5138", "name": "Snuggles' Family Child Care", "address": "5682 Kathleen Dr", "city": "Chilliwack", "phone": "604-858-0153", "services": []}}, {"type": "Feature", "geometry": {"type": "Point", "coordinates": ["-122.328778", "49.058304"]}, "properties": {"id": "5197", "name": "Abc Childcare Centre", "address": "32340 Mouat Dr", "city": "Abbotsford", "phone": "604-300-1179", "services": []}}, {"type": "Feature", "geometry": {"type": "Point", "coordinates": ["-122.233071", "49.064446"]}, "properties": {"id": "5212", "name": "Gentle Touch Daycare", "address": "3429 Blueberry Crt", "city": "Abbotsford", "phone": "604-859-0170", "services": []}}, {"type": "Feature", "geometry": {"type": "Point", "coordinates": ["-122.235862", "49.06995"]}, "properties": {"id": "5260", "name": "Little Red Wagon Childcare", "address": "35694 mckee Rd", "city": "Abbotsford", "phone": "604-831-2018", "services": []}}, {"type": "Feature", "geometry": {"type": "Point", "coordinates": ["-122.35848", "49.068352"]}, "properties": {"id": "5268", "name": "Global West Montessori", "address": "101-3600 Townline Rd", "city": "Abbotsford", "phone": "604-763-4439", "services": []}}, {"type": "Feature", "geometry": {"type": "Point", "coordinates": ["-121.814702", "49.156786"]}, "properties": {"id": "5278", "name": "Unity Christian Child Care Centre", "address": "50950 Hack-Brown Rd", "city": "Chilliwack", "phone": "604-794-7797", "services": []}}, {"type": "Feature", "geometry": {"type": "Point", "coordinates": ["-122.218174", "49.083134"]}, "properties": {"id": "5281", "name": "Little Wonders Montessori Childcare & Preschool Ltd.", "address": "115 36363 Auguston Pky S", "city": "Abbotsford", "phone": "604-853-9998", "services": []}}, {"type": "Feature", "geometry": {"type": "Point", "coordinates": ["-122.356832", "49.06519"]}, "properties": {"id": "5291", "name": "Ridgeview Daycare Ltd.", "address": "31311 Ridgeview Dr", "city": "Abbotsford", "phone": "604-744-9412", "services": []}}, {"type": "Feature", "geometry": {"type": "Point", "coordinates": ["-121.920795", "49.171603"]}, "properties": {"id": "5310", "name": "Fg Leary ymca Kids Club", "address": "9320 Walden St", "city": "Chilliwack", "phone": "604-306-7915", "services": []}}, {"type": "Feature", "geometry": {"type": "Point", "coordinates": ["-122.338423", "49.064382"]}, "properties": {"id": "5366", "name": "Praise Daycare", "address": "3427 Clearbrook Rd", "city": "Abbotsford", "phone": "778-856-1718", "services": []}}, {"type": "Feature", "geometry": {"type": "Point", "coordinates": ["-121.959551", "49.133158"]}, "properties": {"id": "5378", "name": "Excel Martial Arts Chilliwack", "address": "7174 Vedder Rd", "city": "Chilliwack", "phone": "604-846-1888", "services": []}}, {"type": "Feature", "geometry": {"type": "Point", "coordinates": ["-122.362732", "49.055493"]}, "properties": {"id": "5381", "name": "Fun-N-Learn Childcare Centre", "address": "31094 Edgehill Ave", "city": "Abbotsford", "phone": "604-755-0738", "services": []}}, {"type": "Feature", "geometry": {"type": "Point", "coordinates": ["-121.965097", "49.126963"]}, "properties": {"id": "5384", "name": "Ready Set Grow", "address": "6875 Wiltshire St", "city": "Chilliwack", "phone": "604-997-4314", "services": []}}, {"type": "Feature", "geometry": {"type": "Point", "coordinates": ["-122.36163", "49.066695"]}, "properties": {"id": "5385", "name": "Little Dreamers Childcare Ltd", "address": "31150 Blueridge Dr", "city": "Abbotsford", "phone": "604-614-5308", "services": []}}, {"type": "Feature", "geometry": {"type": "Point", "coordinates": ["-122.303146", "49.128713"]}, "properties": {"id": "5389", "name": "Ema - Kids Club (Mission)", "address": "6995 Bridge St", "city": "Mission", "phone": "604-820-3011", "services": []}}, {"type": "Feature", "geometry": {"type": "Point", "coordinates": ["-122.195289", "49.165764"]}, "properties": {"id": "5419", "name": "Mission Montessori Outdoor Education Program", "address": "37151 Hawkins Pickle Rd", "city": "Mission", "phone": "604-768-5065", "services": []}}, {"type": "Feature", "geometry": {"type": "Point", "coordinates": ["-122.293884", "49.044338"]}, "properties": {"id": "5480", "name": "Little Koala Montessi Academy - Abbotsford", "address": "2335 mccallum Rd", "city": "Abbotsford", "phone": "778-856-1281", "services": [0, 1, 2]}}, {"type": "Feature", "geometry": {"type": "Point", "coordinates": ["-122.2792", "49.04"]}, "properties": {"id": "5534", "name": "Xtreme Performing Arts/Xplor Fine Arts Preschool", "address": "11-34100 South Fraser Way", "city": "Abbotsford", "phone": "778-808-8827", "services": []}}, {"type": "Feature", "geometry": {"type": "Point", "coordinates": ["-122.285357", "49.064529"]}, "properties": {"id": "5539", "name": "Little Wonders Montessori Childcare & Preschool Ltd.", "address": "33911 Hazelwood Ave", "city": "Abbotsford", "phone": "604-621-5116", "services": []}}, {"type": "Feature", "geometry": {"type": "Point", "coordinates": ["-122.246089", "49.074169"]}, "properties": {"id": "5559", "name": "Precious Treasures Child Care", "address": "3941 Waterton Cres", "city": "Abbotsford", "phone": "778-552-8501", "services": []}}, {"type": "Feature", "geometry": {"type": "Point", "coordinates": ["-121.938265", "49.190615"]}, "properties": {"id": "5582", "name": "Fairfield Island Childcare", "address": "46491 Gilbert Ave", "city": "Chilliwack", "phone": "604-802-0397", "services": []}}, {"type": "Feature", "geometry": {"type": "Point", "coordinates": ["-122.305323", "49.031544"]}, "properties": {"id": "5592", "name": "Little Dreamers Preschool Ltd.", "address": "33165 King Rd", "city": "Abbotsford", "phone": "604-614-5308", "services": []}}]}