{"type": "FeatureCollection", "features": [{"type": "Feature", "geometry": {"type": "Point", "coordinates": ["-120.32746", "50.672937"]}, "properties": {"id": "20", "name": "6Th Avenue Childcare", "address": "520 6Th Ave", "city": "Kamloops", "phone": "250-828-6675", "services": []}}, {"type": "Feature", "geometry": {"type": "Point", "coordinates": ["-120.327839", "50.672974"]}, "properties": {"id": "21", "name": "Gingerbread House", "address": "559 Battle St", "city": "Kamloops", "phone": "250-828-6675", "services": []}}, {"type": "Feature", "geometry": {"type": "Point", "coordinates": ["-120.338601", "50.657927"]}, "properties": {"id": "22", "name": "Summit Childcare", "address": "1565 Summit Dr", "city": "Kamloops", "phone": "250-828-6675", "services": []}}, {"type": "Feature", "geometry": {"type": "Point", "coordinates": ["-119.483527", "49.870191"]}, "properties": {"id": "29", "name": "Discovery World Daycare", "address": "870 Francis Ave", "city": "Kelowna", "phone": "250-868-7395", "services": [0, 1, 3]}}, {"type": "Feature", "geometry": {"type": "Point", "coordinates": ["-119.275795", "50.26863"]}, "properties": {"id": "35", "name": "Kids Club Child Care", "address": "3300 37 Ave", "city": "Vernon", "phone": "250-762-3989", "services": []}}, {"type": "Feature", "geometry": {"type": "Point", "coordinates": ["-120.352419", "50.670089"]}, "properties": {"id": "36", "name": "Boys & Girls Club Of Kamloops - L S Neighbourhood Club -", "address": "492 mcgill Rd", "city": "Kamloops", "phone": "250-554-5437", "services": []}}, {"type": "Feature", "geometry": {"type": "Point", "coordinates": ["-120.369904", "50.697406"]}, "properties": {"id": "37", "name": "First Steps Childcare Centre", "address": "480 Kenora Rd", "city": "Kamloops", "phone": "250-554-5437", "services": []}}, {"type": "Feature", "geometry": {"type": "Point", "coordinates": ["-120.39801", "50.704451"]}, "properties": {"id": "38", "name": "Brocklehurst Neighbourhood Club", "address": "950 Southill St", "city": "Kamloops", "phone": "250-554-5437", "services": []}}, {"type": "Feature", "geometry": {"type": "Point", "coordinates": ["-117.698524", "49.099322"]}, "properties": {"id": "63", "name": "Sunshine Children's Centre - Trail", "address": "1583 Fifth Ave", "city": "Trail", "phone": "250-368-3166", "services": [0, 1, 2]}}, {"type": "Feature", "geometry": {"type": "Point", "coordinates": ["-117.545728", "49.111973"]}, "properties": {"id": "64", "name": "Beaver Valley Afterschool Care", "address": "1867 Columbia Gardens Rd", "city": "Fruitvale", "phone": "250-367-7887", "services": []}}, {"type": "Feature", "geometry": {"type": "Point", "coordinates": ["-120.257728", "50.67779"]}, "properties": {"id": "77", "name": "Kiddies Korner Daycare", "address": "2250 Park Dr", "city": "Kamloops", "phone": "250-828-0877", "services": []}}, {"type": "Feature", "geometry": {"type": "Point", "coordinates": ["-117.663951", "49.319134"]}, "properties": {"id": "83", "name": "Hobbit Hill Children's Centre", "address": "749 11Th Ave", "city": "Castlegar", "phone": "778-460-5102", "services": []}}, {"type": "Feature", "geometry": {"type": "Point", "coordinates": ["-119.581726", "49.48992"]}, "properties": {"id": "84", "name": "Edmonton Ave Childcare Center", "address": "470 Edmonton Ave", "city": "Penticton", "phone": "250-485-8969", "services": []}}, {"type": "Feature", "geometry": {"type": "Point", "coordinates": ["-116.515859", "49.09449"]}, "properties": {"id": "109", "name": "Teddy Bear Day Care", "address": "806 Cook St", "city": "Creston", "phone": "250-402-0068", "services": []}}, {"type": "Feature", "geometry": {"type": "Point", "coordinates": ["-119.157104", "50.530424"]}, "properties": {"id": "134", "name": "Splats' In Child Care Center", "address": "2730 Canyon Rd", "city": "Enderby", "phone": "250-838-6404", "services": []}}, {"type": "Feature", "geometry": {"type": "Point", "coordinates": ["-119.142269", "50.557555"]}, "properties": {"id": "135", "name": "Enderby Preschool Daycare And Kids Club", "address": "102 Meadow Cres", "city": "Enderby", "phone": "250-838-6676", "services": [0, 1, 3]}}, {"type": "Feature", "geometry": {"type": "Point", "coordinates": ["-117.577393", "49.086075"]}, "properties": {"id": "137", "name": "Beaver Valley Nursery Centre", "address": "1122 Highway 3B", "city": "Montrose", "phone": "250-367-7887", "services": []}}, {"type": "Feature", "geometry": {"type": "Point", "coordinates": ["-119.59407", "49.484513"]}, "properties": {"id": "138", "name": "Learning For Little People Preschool", "address": "120 216 Hastings Ave", "city": "Penticton", "phone": "250-493-2331", "services": []}}, {"type": "Feature", "geometry": {"type": "Point", "coordinates": ["-119.202782", "50.441476"]}, "properties": {"id": "139", "name": "Armstrong Preschool", "address": "3260 Rosedale Ave", "city": "Armstrong", "phone": "250-546-9314", "services": []}}, {"type": "Feature", "geometry": {"type": "Point", "coordinates": ["-120.331441", "50.67388"]}, "properties": {"id": "156", "name": "Kamloops United Church Preschool", "address": "421 St Paul Street", "city": "Kamloops", "phone": "250-372-1043", "services": []}}, {"type": "Feature", "geometry": {"type": "Point", "coordinates": ["-119.471838", "49.858672"]}, "properties": {"id": "206", "name": "Kids Corner Daycare", "address": "3261 Gordon Dr", "city": "Kelowna", "phone": "250-861-5437", "services": []}}, {"type": "Feature", "geometry": {"type": "Point", "coordinates": ["-119.266027", "50.265994"]}, "properties": {"id": "216", "name": "Vernon & District Immigrant & Css Childcare Center", "address": "3205 27 St", "city": "Vernon", "phone": "778-475-9228", "services": []}}, {"type": "Feature", "geometry": {"type": "Point", "coordinates": ["-119.273837", "50.268798"]}, "properties": {"id": "235", "name": "Tiny Tots Recreation", "address": "3300 37Th Ave", "city": "Vernon", "phone": "250-550-3671", "services": []}}, {"type": "Feature", "geometry": {"type": "Point", "coordinates": ["-119.484791", "49.879427"]}, "properties": {"id": "273", "name": "The Clubhouse At Sutherland", "address": "839 Sutherland Ave", "city": "Kelowna", "phone": "250-860-4393", "services": []}}, {"type": "Feature", "geometry": {"type": "Point", "coordinates": ["-119.468018", "49.027992"]}, "properties": {"id": "292", "name": "Osoyoos Child Care Centre", "address": "6609 89Th St", "city": "Osoyoos", "phone": "250-495-5020", "services": [0, 1, 2, 3]}}, {"type": "Feature", "geometry": {"type": "Point", "coordinates": ["-120.349391", "50.68955"]}, "properties": {"id": "303", "name": "Association Francophone De Kamloops", "address": "348 Fortune Dr", "city": "Kamloops", "phone": "250-376-6060", "services": []}}, {"type": "Feature", "geometry": {"type": "Point", "coordinates": ["-119.703111", "50.828796"]}, "properties": {"id": "304", "name": "Sahhaltkum Daycare", "address": "6453 Hillcrest Rd", "city": "Chase", "phone": "250-679-2229", "services": []}}, {"type": "Feature", "geometry": {"type": "Point", "coordinates": ["-119.535221", "49.184263"]}, "properties": {"id": "307", "name": "Inkameep Preschool Day Care Society", "address": "1146 Sen Pok Chin Blvd", "city": "Oliver", "phone": "250-498-3010", "services": []}}, {"type": "Feature", "geometry": {"type": "Point", "coordinates": ["-119.567178", "49.861855"]}, "properties": {"id": "337", "name": "Red Balloon Daycare #1", "address": "2648 Alhambra Dr", "city": "West Kelowna", "phone": "250-769-7052", "services": []}}, {"type": "Feature", "geometry": {"type": "Point", "coordinates": ["-119.441101", "49.923107"]}, "properties": {"id": "354", "name": "Glenmore Recreation After School Program", "address": "239 Snowsell St", "city": "Kelowna", "phone": "250-763-6343", "services": []}}, {"type": "Feature", "geometry": {"type": "Point", "coordinates": ["-119.396387", "49.842817"]}, "properties": {"id": "356", "name": "For The Kids Daycare Centre", "address": "3770 Water Rd", "city": "Kelowna", "phone": "250-762-3661", "services": [0, 1]}}, {"type": "Feature", "geometry": {"type": "Point", "coordinates": ["-119.471613", "49.858471"]}, "properties": {"id": "359", "name": "Kelowna Christian School", "address": "3285 Gordon Dr", "city": "Kelowna", "phone": "250-861-5432", "services": []}}, {"type": "Feature", "geometry": {"type": "Point", "coordinates": ["-119.463375", "49.879823"]}, "properties": {"id": "362", "name": "Cornerstone Early Learning Center", "address": "1920 Dunn St", "city": "Kelowna", "phone": "250-681-6884", "services": []}}, {"type": "Feature", "geometry": {"type": "Point", "coordinates": ["-118.978328", "50.833839"]}, "properties": {"id": "372", "name": "Sicamous Preschool", "address": "1121 Eagle Pass Way", "city": "Sicamous", "phone": "250-836-4573", "services": []}}, {"type": "Feature", "geometry": {"type": "Point", "coordinates": ["-117.370529", "49.992496"]}, "properties": {"id": "374", "name": "New Denver Nursery School", "address": "604 7Th Avenue", "city": "New Denver", "phone": "250-265-0420", "services": []}}, {"type": "Feature", "geometry": {"type": "Point", "coordinates": ["-122.150434", "52.139327"]}, "properties": {"id": "381", "name": "Cariboo Chilcotin Child Development Centre", "address": "690 Second Ave N", "city": "Williams Lake", "phone": "250-392-4481", "services": []}}, {"type": "Feature", "geometry": {"type": "Point", "coordinates": ["-115.754515", "49.5836"]}, "properties": {"id": "387", "name": "?Aq'amnik Daycare", "address": "7470 Mission Rd", "city": "Cranbrook", "phone": "250-426-5717", "services": []}}, {"type": "Feature", "geometry": {"type": "Point", "coordinates": ["-119.481529", "49.886922"]}, "properties": {"id": "409", "name": "Daycare Connection", "address": "934 Bernard Ave", "city": "Kelowna", "phone": "250-860-2721", "services": [0, 1]}}, {"type": "Feature", "geometry": {"type": "Point", "coordinates": ["-117.301453", "49.480608"]}, "properties": {"id": "427", "name": "Rosemont Kidz Klub", "address": "1605 Crease Ave", "city": "Nelson", "phone": "250-354-3004", "services": []}}, {"type": "Feature", "geometry": {"type": "Point", "coordinates": ["-121.294266", "51.644665"]}, "properties": {"id": "431", "name": "Our Place Preschool & Child Care", "address": "240 Cedar Ave", "city": "100 Mile House", "phone": "250-395-1802", "services": []}}, {"type": "Feature", "geometry": {"type": "Point", "coordinates": ["-120.338602", "50.657923"]}, "properties": {"id": "435", "name": "Between Friends Out Of School", "address": "1565 Summit Dr", "city": "Kamloops", "phone": "250-828-0038", "services": []}}, {"type": "Feature", "geometry": {"type": "Point", "coordinates": ["-117.290826", "49.489388"]}, "properties": {"id": "437", "name": "Joey's Out Of School Care", "address": "523 Mill Rd", "city": "Nelson", "phone": "250-762-2905", "services": []}}, {"type": "Feature", "geometry": {"type": "Point", "coordinates": ["-119.371978", "49.889694"]}, "properties": {"id": "438", "name": "Butterfly Kisses", "address": "770 Stearns Rd", "city": "Kelowna", "phone": "250-826-7298", "services": []}}, {"type": "Feature", "geometry": {"type": "Point", "coordinates": ["-120.364063", "50.642859"]}, "properties": {"id": "448", "name": "Kamloops Montessori Academy/Full Day Care", "address": "920 Greystone Cres", "city": "Kamloops", "phone": "778-220-9457", "services": []}}, {"type": "Feature", "geometry": {"type": "Point", "coordinates": ["-121.942934", "50.681137"]}, "properties": {"id": "449", "name": "T'it'q'et Daycare", "address": "44 Retasket Dr", "city": "Lillooet", "phone": "250-256-0033", "services": []}}, {"type": "Feature", "geometry": {"type": "Point", "coordinates": ["-119.252228", "50.276759"]}, "properties": {"id": "454", "name": "Kids Corner Childcare Centre", "address": "4401 Pleasant Valley Rd", "city": "Vernon", "phone": "250-545-7303", "services": []}}, {"type": "Feature", "geometry": {"type": "Point", "coordinates": ["-115.767629", "49.517967"]}, "properties": {"id": "458", "name": "Teddy's Friends Family Day Care", "address": "408 4Th St Nw", "city": "Cranbrook", "phone": "250-489-4668", "services": []}}, {"type": "Feature", "geometry": {"type": "Point", "coordinates": ["-115.986222", "49.694222"]}, "properties": {"id": "459", "name": "Buddies On 7Th", "address": "469 7Th Ave", "city": "Kimberley", "phone": "250-427-3105", "services": [0, 1, 3]}}, {"type": "Feature", "geometry": {"type": "Point", "coordinates": ["-116.980632", "51.320285"]}, "properties": {"id": "460", "name": "Cheryl's Family Daycare", "address": "1429 11 Ave N", "city": "Golden", "phone": "250-344-8147", "services": []}}, {"type": "Feature", "geometry": {"type": "Point", "coordinates": ["-117.287097", "49.490797"]}, "properties": {"id": "461", "name": "Jane Millard's Day Care", "address": "821 Hendryx St", "city": "Nelson", "phone": "250-352-2465", "services": [0, 1, 3]}}, {"type": "Feature", "geometry": {"type": "Point", "coordinates": ["-119.201473", "50.296221"]}, "properties": {"id": "462", "name": "Faerie Grove", "address": "5936 Ranchview Rd", "city": "Vernon", "phone": "250-306-5936", "services": []}}, {"type": "Feature", "geometry": {"type": "Point", "coordinates": ["-119.279889", "50.253167"]}, "properties": {"id": "463", "name": "Mission Mountain Family Daycare", "address": "1502 34A St", "city": "Vernon", "phone": "250-558-1009", "services": []}}, {"type": "Feature", "geometry": {"type": "Point", "coordinates": ["-119.308353", "50.258082"]}, "properties": {"id": "464", "name": "Mother's Touch Daycare", "address": "2812 Lardeau Way", "city": "Vernon", "phone": "250-542-1877", "services": []}}, {"type": "Feature", "geometry": {"type": "Point", "coordinates": ["-119.279782", "50.272027"]}, "properties": {"id": "465", "name": "R.S.K. Playmates Family Day Care", "address": "3510 41St Ave", "city": "Vernon", "phone": "250-542-5978", "services": []}}, {"type": "Feature", "geometry": {"type": "Point", "coordinates": ["-119.49639", "49.821855"]}, "properties": {"id": "467", "name": "Friends Family Day Care", "address": "476 Barkley Rd", "city": "Kelowna", "phone": "250-764-0924", "services": []}}, {"type": "Feature", "geometry": {"type": "Point", "coordinates": ["-119.572958", "49.484075"]}, "properties": {"id": "469", "name": "The Treasure Box Family Daycare", "address": "857 Maccleave Ave", "city": "Penticton", "phone": "250-493-7821", "services": []}}, {"type": "Feature", "geometry": {"type": "Point", "coordinates": ["-119.393087", "49.88594"]}, "properties": {"id": "470", "name": "Dougall Road Daycare", "address": "320 Dougall Rd S", "city": "Kelowna", "phone": "250-765-4340", "services": []}}, {"type": "Feature", "geometry": {"type": "Point", "coordinates": ["-119.457724", "49.893227"]}, "properties": {"id": "471", "name": "Carla's Daycare", "address": "1755 Highland Dr N", "city": "Kelowna", "phone": "250-869-9775", "services": []}}, {"type": "Feature", "geometry": {"type": "Point", "coordinates": ["-120.307878", "50.669396"]}, "properties": {"id": "472", "name": "Sheila's Family Day Care", "address": "1341 Pine Cres", "city": "Kamloops", "phone": "250-374-5181", "services": []}}, {"type": "Feature", "geometry": {"type": "Point", "coordinates": ["-120.354839", "50.691584"]}, "properties": {"id": "473", "name": "Bonnie's Daycare", "address": "471 Linden Ave", "city": "Kamloops", "phone": "250-376-3566", "services": []}}, {"type": "Feature", "geometry": {"type": "Point", "coordinates": ["-120.394644", "50.707307"]}, "properties": {"id": "474", "name": "Brock Kids Care", "address": "1080 Oxford St", "city": "Kamloops", "phone": "250-376-3677", "services": []}}, {"type": "Feature", "geometry": {"type": "Point", "coordinates": ["-120.3223", "50.799609"]}, "properties": {"id": "475", "name": "Kiddy Cottage Daycare", "address": "175 Cahilty Cres", "city": "Kamloops", "phone": "250-578-8539", "services": [0, 1, 3]}}, {"type": "Feature", "geometry": {"type": "Point", "coordinates": ["-120.35558", "50.651167"]}, "properties": {"id": "476", "name": "Gleneagles - Sahali Daycare", "address": "656 Gleneagles Dr", "city": "Kamloops", "phone": "250-371-7201", "services": []}}, {"type": "Feature", "geometry": {"type": "Point", "coordinates": ["-120.346761", "50.649823"]}, "properties": {"id": "477", "name": "Treasure Island Family Childcare", "address": "381 Robson Dr", "city": "Kamloops", "phone": "250-571-5359", "services": []}}, {"type": "Feature", "geometry": {"type": "Point", "coordinates": ["-120.250959", "50.660303"]}, "properties": {"id": "478", "name": "Juniper Joyce's Home Away From Home", "address": "2373 Omineca Dr", "city": "Kamloops", "phone": "250-374-2199", "services": [0, 1, 3]}}, {"type": "Feature", "geometry": {"type": "Point", "coordinates": ["-121.92418", "50.7119"]}, "properties": {"id": "479", "name": "Little Steps Family Daycare", "address": "6-1230 Moha Rd", "city": "Lillooet", "phone": "250-256-9492", "services": []}}, {"type": "Feature", "geometry": {"type": "Point", "coordinates": ["-121.285949", "51.650214"]}, "properties": {"id": "535", "name": "Happy Hearts", "address": "420 Evergreen Cres", "city": "100 Mile House", "phone": "250-706-1114", "services": []}}, {"type": "Feature", "geometry": {"type": "Point", "coordinates": ["-122.144615", "52.148055"]}, "properties": {"id": "536", "name": "Small Fries Daycare", "address": "1260 Resker Pl", "city": "Williams Lake", "phone": "250-302-1370", "services": []}}, {"type": "Feature", "geometry": {"type": "Point", "coordinates": ["-116.062081", "50.538199"]}, "properties": {"id": "597", "name": "The Playhouse", "address": "9244 Water St", "city": "Invermere", "phone": "250-342-9348", "services": [0, 1]}}, {"type": "Feature", "geometry": {"type": "Point", "coordinates": ["-120.361878", "50.705751"]}, "properties": {"id": "598", "name": "Building Blocks Childcare", "address": "1127 Belmont Cres", "city": "Kamloops", "phone": "250-376-9720", "services": []}}, {"type": "Feature", "geometry": {"type": "Point", "coordinates": ["-120.371121", "50.639612"]}, "properties": {"id": "599", "name": "Little Munchkins Family Daycare", "address": "2267 Nairn Pl", "city": "Kamloops", "phone": "778-586-9586", "services": []}}, {"type": "Feature", "geometry": {"type": "Point", "coordinates": ["-120.361834", "50.648899"]}, "properties": {"id": "600", "name": "Magical Moments Childcare", "address": "943 Laurel Pl", "city": "Kamloops", "phone": "250-372-9673", "services": []}}, {"type": "Feature", "geometry": {"type": "Point", "coordinates": ["-120.340876", "50.697297"]}, "properties": {"id": "601", "name": "Puss N' Boots", "address": "855 Kamloopa Rd", "city": "Kamloops", "phone": "250-828-9429", "services": [0, 1]}}, {"type": "Feature", "geometry": {"type": "Point", "coordinates": ["-120.181316", "50.651117"]}, "properties": {"id": "602", "name": "Barnhartvale Multi-Age Childcare", "address": "1350 Crestwood Dr", "city": "Kamloops", "phone": "250-573-4862", "services": [0, 1, 3]}}, {"type": "Feature", "geometry": {"type": "Point", "coordinates": ["-120.801753", "50.105832"]}, "properties": {"id": "604", "name": "Lisa's Family Daycare", "address": "1510 Fir Ave", "city": "Merritt", "phone": "250-315-7348", "services": []}}, {"type": "Feature", "geometry": {"type": "Point", "coordinates": ["-121.294381", "51.644314"]}, "properties": {"id": "631", "name": "Our Place Learning Center", "address": "260 Cedar Ave", "city": "100 Mile House", "phone": "250-395-2048", "services": []}}, {"type": "Feature", "geometry": {"type": "Point", "coordinates": ["-119.480547", "49.853117"]}, "properties": {"id": "636", "name": "The Clubhouse At Casorso", "address": "3675 Casorso Rd", "city": "Kelowna", "phone": "250-860-4393", "services": []}}, {"type": "Feature", "geometry": {"type": "Point", "coordinates": ["-114.888276", "49.733214"]}, "properties": {"id": "637", "name": "A Place To Play", "address": "156 Spruce Ave", "city": "Sparwood", "phone": "250-425-9121", "services": []}}, {"type": "Feature", "geometry": {"type": "Point", "coordinates": ["-119.250283", "50.256841"]}, "properties": {"id": "646", "name": "Kids R Us Childcare", "address": "1404 21 Ave", "city": "Vernon", "phone": "250-549-8809", "services": []}}, {"type": "Feature", "geometry": {"type": "Point", "coordinates": ["-122.157157", "52.149113"]}, "properties": {"id": "655", "name": "Puddle Jumpers Daycare", "address": "538 Midnight Dr", "city": "Williams Lake", "phone": "250-392-1191", "services": []}}, {"type": "Feature", "geometry": {"type": "Point", "coordinates": ["-118.452604", "49.029311"]}, "properties": {"id": "688", "name": "Roots And Wings", "address": "7324 Boundary Dr", "city": "Grand Forks", "phone": "250-444-0758", "services": []}}, {"type": "Feature", "geometry": {"type": "Point", "coordinates": ["-115.062808", "49.49682"]}, "properties": {"id": "691", "name": "Fernie Kids Childcare And Learning", "address": "17 Pine Cres", "city": "Fernie", "phone": "250-423-1928", "services": []}}, {"type": "Feature", "geometry": {"type": "Point", "coordinates": ["-119.369757", "50.108428"]}, "properties": {"id": "692", "name": "Okanagan Boys And Girls Clubs - Oyama", "address": "15525 Greenhow Rd", "city": "Lake Country", "phone": "250-762-3989", "services": []}}, {"type": "Feature", "geometry": {"type": "Point", "coordinates": ["-119.476277", "50.879224"]}, "properties": {"id": "707", "name": "Shuswap Explorers", "address": "1135 Passchendaele Rd", "city": "Sorrento", "phone": "250-803-2996", "services": []}}, {"type": "Feature", "geometry": {"type": "Point", "coordinates": ["-119.440642", "49.914423"]}, "properties": {"id": "708", "name": "Little Owl Academy", "address": "615-1984 Kane Rd", "city": "Kelowna", "phone": "778-898-4544", "services": []}}, {"type": "Feature", "geometry": {"type": "Point", "coordinates": ["-121.29373", "51.643852"]}, "properties": {"id": "740", "name": "Smiles For Miles Childcare", "address": "285 Cedar Ave", "city": "100 Mile House", "phone": "778-482-5439", "services": []}}, {"type": "Feature", "geometry": {"type": "Point", "coordinates": ["-120.340187", "50.700989"]}, "properties": {"id": "812", "name": "Little Jewels Daycare", "address": "120 West Shuswap Rd", "city": "Kamloops", "phone": "250-819-7358", "services": []}}, {"type": "Feature", "geometry": {"type": "Point", "coordinates": ["-119.385616", "49.891352"]}, "properties": {"id": "843", "name": "Happy Kids Day Care", "address": "270 Sadler Rd", "city": "Kelowna", "phone": "778-821-2080", "services": []}}, {"type": "Feature", "geometry": {"type": "Point", "coordinates": ["-119.457066", "49.861276"]}, "properties": {"id": "871", "name": "Creative Advantage Klo", "address": "7-1790 K.L.O. Rd", "city": "Kelowna", "phone": "778-484-3400", "services": []}}, {"type": "Feature", "geometry": {"type": "Point", "coordinates": ["-119.271881", "50.26311"]}, "properties": {"id": "875", "name": "Little Miracles Preschool", "address": "3075 29Th Ave", "city": "Vernon", "phone": "250-503-2220", "services": []}}, {"type": "Feature", "geometry": {"type": "Point", "coordinates": ["-119.667494", "49.837407"]}, "properties": {"id": "882", "name": "Ms Patty's Westside Montessori Children's Centre", "address": "3155 Glenrosa Rd", "city": "West Kelowna", "phone": "250-869-5185", "services": [0, 1, 2]}}, {"type": "Feature", "geometry": {"type": "Point", "coordinates": ["-117.660869", "49.307015"]}, "properties": {"id": "884", "name": "Desiree's Family Daycare", "address": "1480 Selkirk Ave", "city": "Castlegar", "phone": "250-304-9305", "services": []}}, {"type": "Feature", "geometry": {"type": "Point", "coordinates": ["-119.587965", "49.476232"]}, "properties": {"id": "886", "name": "Circle Of Friends Daycare Centre", "address": "187 Wyles Cres", "city": "Penticton", "phone": "250-493-4875", "services": []}}, {"type": "Feature", "geometry": {"type": "Point", "coordinates": ["-119.629762", "49.845603"]}, "properties": {"id": "887", "name": "Sunshine Adventures Family Child Care", "address": "40-3289 Broadview Rd", "city": "West Kelowna", "phone": "778-871-3425", "services": []}}, {"type": "Feature", "geometry": {"type": "Point", "coordinates": ["-119.569702", "49.490913"]}, "properties": {"id": "894", "name": "Societe De La Petite Enfance De L'ecole Entre-Lacs", "address": "1213 Debeck Rd", "city": "Penticton", "phone": "250-809-2510", "services": []}}, {"type": "Feature", "geometry": {"type": "Point", "coordinates": ["-119.488593", "49.873645"]}, "properties": {"id": "896", "name": "Kidz World Childcare", "address": "2248 Richter St", "city": "Kelowna", "phone": "250-575-3680", "services": []}}, {"type": "Feature", "geometry": {"type": "Point", "coordinates": ["-120.33295", "50.675127"]}, "properties": {"id": "900", "name": "Parasol - Early Years Learning", "address": "350 Seymour St", "city": "Kamloops", "phone": "236-425-4545", "services": []}}, {"type": "Feature", "geometry": {"type": "Point", "coordinates": ["-119.258727", "50.278078"]}, "properties": {"id": "905", "name": "Harwood Montessori School", "address": "2001 45 Ave", "city": "Vernon", "phone": "250-306-0454", "services": []}}, {"type": "Feature", "geometry": {"type": "Point", "coordinates": ["-119.380718", "49.902182"]}, "properties": {"id": "909", "name": "Isy's Daycare", "address": "303 Phipps Cres", "city": "Kelowna", "phone": "250-765-1800", "services": []}}, {"type": "Feature", "geometry": {"type": "Point", "coordinates": ["-120.358668", "50.700313"]}, "properties": {"id": "915", "name": "Hugs & Giggles", "address": "673 Regina Ave", "city": "Kamloops", "phone": "778-257-0027", "services": []}}, {"type": "Feature", "geometry": {"type": "Point", "coordinates": ["-122.14664", "52.148691"]}, "properties": {"id": "917", "name": "Jumping Jellybeans Daycare", "address": "1080 Eleventh Ave N", "city": "Williams Lake", "phone": "250-305-7179", "services": []}}, {"type": "Feature", "geometry": {"type": "Point", "coordinates": ["-115.758973", "49.492729"]}, "properties": {"id": "918", "name": "Precious Time Child Care", "address": "1408 17Th St S", "city": "Cranbrook", "phone": "778-963-0472", "services": []}}, {"type": "Feature", "geometry": {"type": "Point", "coordinates": ["-119.287494", "50.267484"]}, "properties": {"id": "921", "name": "Harmonious Holistic Play Childcare", "address": "3805 35 Ave", "city": "Vernon", "phone": "778-475-0876", "services": []}}, {"type": "Feature", "geometry": {"type": "Point", "coordinates": ["-119.457748", "49.906595"]}, "properties": {"id": "930", "name": "Whisker's Daycare", "address": "1772 Spruceglen Dr", "city": "Kelowna", "phone": "250-878-9984", "services": [0, 1, 3]}}, {"type": "Feature", "geometry": {"type": "Point", "coordinates": ["-117.797848", "50.243816"]}, "properties": {"id": "934", "name": "Hibberson's Family Child Care", "address": "408 1St Ave Nw", "city": "Nakusp", "phone": "250-443-9080", "services": []}}, {"type": "Feature", "geometry": {"type": "Point", "coordinates": ["-120.320294", "50.672445"]}, "properties": {"id": "937", "name": "The Nest Early Learning Centre", "address": "838 Nicola St", "city": "Kamloops", "phone": "250-574-4434", "services": []}}, {"type": "Feature", "geometry": {"type": "Point", "coordinates": ["-119.251168", "50.713043"]}, "properties": {"id": "939", "name": "Summit Kids", "address": "1801 30 St Ne", "city": "Salmon Arm", "phone": "250-803-2996", "services": []}}, {"type": "Feature", "geometry": {"type": "Point", "coordinates": ["-119.249712", "50.260025"]}, "properties": {"id": "955", "name": "Little Sprouts Childcare", "address": "2503 14 St", "city": "Vernon", "phone": "250-545-0026", "services": []}}, {"type": "Feature", "geometry": {"type": "Point", "coordinates": ["-119.359125", "49.936219"]}, "properties": {"id": "960", "name": "Learn N' Play Home Daycare", "address": "3530 Weston Rd", "city": "Kelowna", "phone": "250-863-6243", "services": [0, 1, 3]}}, {"type": "Feature", "geometry": {"type": "Point", "coordinates": ["-119.59928", "49.491663"]}, "properties": {"id": "976", "name": "Areakids Daycare Ltd", "address": "550 Eckhardt Ave W", "city": "Penticton", "phone": "250-462-9484", "services": [1]}}, {"type": "Feature", "geometry": {"type": "Point", "coordinates": ["-120.357491", "50.69499"]}, "properties": {"id": "977", "name": "Jd Childcare", "address": "161 Chestnut Ave", "city": "Kamloops", "phone": "250-319-1981", "services": []}}, {"type": "Feature", "geometry": {"type": "Point", "coordinates": ["-119.538911", "49.490317"]}, "properties": {"id": "987", "name": "Dj's Daycare", "address": "1084 Holden Rd", "city": "Penticton", "phone": "604-220-4518", "services": []}}, {"type": "Feature", "geometry": {"type": "Point", "coordinates": ["-119.611617", "49.865462"]}, "properties": {"id": "994", "name": "Gr8 Beginnings Family Daycare", "address": "2518 Tuscany Dr", "city": "West Kelowna", "phone": "250-864-5674", "services": [0, 1]}}, {"type": "Feature", "geometry": {"type": "Point", "coordinates": ["-115.967021", "49.665281"]}, "properties": {"id": "997", "name": "Kimberley Independent School", "address": "73 101 Ave", "city": "Kimberley", "phone": "250-427-1779", "services": []}}, {"type": "Feature", "geometry": {"type": "Point", "coordinates": ["-121.26822", "50.734324"]}, "properties": {"id": "1014", "name": "Ashcroft Early Learning Program", "address": "435 Ranch Rd", "city": "Ashcroft", "phone": "250-457-7408", "services": []}}, {"type": "Feature", "geometry": {"type": "Point", "coordinates": ["-117.658357", "49.298411"]}, "properties": {"id": "1015", "name": "Exploration Station Child Care", "address": "809 Merrycreek Rd", "city": "Castlegar", "phone": "250-608-3511", "services": []}}, {"type": "Feature", "geometry": {"type": "Point", "coordinates": ["-116.949505", "51.292461"]}, "properties": {"id": "1017", "name": "Kellie's Family Daycare", "address": "1515 Fir Cres", "city": "Golden", "phone": "250-344-8292", "services": [0, 1]}}, {"type": "Feature", "geometry": {"type": "Point", "coordinates": ["-115.070768", "49.490262"]}, "properties": {"id": "1020", "name": "Fernie Forest School Society", "address": "44 Mt Washburn St", "city": "Fernie", "phone": "250-423-0407", "services": []}}, {"type": "Feature", "geometry": {"type": "Point", "coordinates": ["-120.3528", "50.763542"]}, "properties": {"id": "1025", "name": "Caterpillar Clubhouse", "address": "889 Serle Rd", "city": "Kamloops", "phone": "250-819-6653", "services": []}}, {"type": "Feature", "geometry": {"type": "Point", "coordinates": ["-120.409219", "50.707663"]}, "properties": {"id": "1028", "name": "Chris' Child Care", "address": "2241 Parkcrest Ave", "city": "Kamloops", "phone": "250-554-1398", "services": []}}, {"type": "Feature", "geometry": {"type": "Point", "coordinates": ["-118.179113", "50.985452"]}, "properties": {"id": "1033", "name": "Caribou Kids Ltd.", "address": "1559 Illecillewaet Rd", "city": "Revelstoke", "phone": "250-805-1323", "services": []}}, {"type": "Feature", "geometry": {"type": "Point", "coordinates": ["-117.279609", "49.507535"]}, "properties": {"id": "1037", "name": "Lakeside Montessori", "address": "903B Nelson Ave", "city": "Nelson", "phone": "250-509-1599", "services": []}}, {"type": "Feature", "geometry": {"type": "Point", "coordinates": ["-120.226633", "50.671061"]}, "properties": {"id": "1040", "name": "Kamloops Kidz (Orchards Walk)", "address": "201-3200 Valleyview Dr", "city": "Kamloops", "phone": "250-319-9044", "services": []}}, {"type": "Feature", "geometry": {"type": "Point", "coordinates": ["-119.270475", "50.704575"]}, "properties": {"id": "1047", "name": "Shuswap Kids Club Osc", "address": "1271 6 Ave Ne", "city": "Salmon Arm", "phone": "250-832-7811", "services": []}}, {"type": "Feature", "geometry": {"type": "Point", "coordinates": ["-119.455908", "49.90383"]}, "properties": {"id": "1057", "name": "The Purple Toad Daycare", "address": "1809 Ivans Ave", "city": "Kelowna", "phone": "250-878-2984", "services": []}}, {"type": "Feature", "geometry": {"type": "Point", "coordinates": ["-119.606877", "49.870494"]}, "properties": {"id": "1065", "name": "Shannon Woods Childcare", "address": "2162 Shannon Woods Way", "city": "West Kelowna", "phone": "250-575-8645", "services": []}}, {"type": "Feature", "geometry": {"type": "Point", "coordinates": ["-121.293785", "51.645818"]}, "properties": {"id": "1066", "name": "Magical Nook Childcare Centre", "address": "1-170 Cedar Ave", "city": "100 Mile House", "phone": "778-233-0875", "services": []}}, {"type": "Feature", "geometry": {"type": "Point", "coordinates": ["-119.406289", "49.879534"]}, "properties": {"id": "1069", "name": "Smiles & Chuckles Family Daycare", "address": "670 Mitchell Rd", "city": "Kelowna", "phone": "250-861-6114", "services": []}}, {"type": "Feature", "geometry": {"type": "Point", "coordinates": ["-119.284828", "50.697502"]}, "properties": {"id": "1072", "name": "Tiny Tykes N Tots", "address": "330 Shuswap St Se", "city": "Salmon Arm", "phone": "250-832-0779", "services": []}}, {"type": "Feature", "geometry": {"type": "Point", "coordinates": ["-119.297559", "50.698096"]}, "properties": {"id": "1077", "name": "Sunny Side Up Childcare", "address": "1015 Lakeshore Dr Sw", "city": "Salmon Arm", "phone": "250-803-6752", "services": []}}, {"type": "Feature", "geometry": {"type": "Point", "coordinates": ["-119.553105", "49.484605"]}, "properties": {"id": "1080", "name": "Sweetpea Daycare", "address": "146 Cleland Dr", "city": "Penticton", "phone": "778-476-3684", "services": [0, 1, 3]}}, {"type": "Feature", "geometry": {"type": "Point", "coordinates": ["-119.570764", "49.4712"]}, "properties": {"id": "1084", "name": "Two Peas In A Pod Childcare Centre", "address": "410 Wiltse Blvd", "city": "Penticton", "phone": "250-493-6236", "services": []}}, {"type": "Feature", "geometry": {"type": "Point", "coordinates": ["-119.604158", "49.850733"]}, "properties": {"id": "1088", "name": "Smileykins", "address": "2125 Ensign Quay Lane", "city": "West Kelowna", "phone": "250-215-7000", "services": []}}, {"type": "Feature", "geometry": {"type": "Point", "coordinates": ["-118.184934", "50.990033"]}, "properties": {"id": "1105", "name": "Curious Cubs", "address": "417 Moss St", "city": "Revelstoke", "phone": "250-814-8919", "services": [0, 1]}}, {"type": "Feature", "geometry": {"type": "Point", "coordinates": ["-119.469003", "49.878959"]}, "properties": {"id": "1114", "name": "The Lil' Cottage Educational Daycare", "address": "1398 Mcinnes Ave", "city": "Kelowna", "phone": "250-681-4474", "services": []}}, {"type": "Feature", "geometry": {"type": "Point", "coordinates": ["-119.402234", "50.033064"]}, "properties": {"id": "1126", "name": "Little Owl Academy", "address": "10303 Bottom Wood Lake Rd", "city": "Lake Country", "phone": "250-766-0399", "services": []}}, {"type": "Feature", "geometry": {"type": "Point", "coordinates": ["-119.761131", "49.761206"]}, "properties": {"id": "1151", "name": "Peachland Childcare Inc", "address": "6140 Turner Ave", "city": "Peachland", "phone": "250-863-6499", "services": []}}, {"type": "Feature", "geometry": {"type": "Point", "coordinates": ["-120.332879", "50.675123"]}, "properties": {"id": "1157", "name": "Parasol - Early Years Learning 2", "address": "352 Seymour St", "city": "Kamloops", "phone": "236-425-4545", "services": []}}, {"type": "Feature", "geometry": {"type": "Point", "coordinates": ["-120.353258", "50.69611"]}, "properties": {"id": "1167", "name": "Cozy Days Childcare", "address": "282 Holly Ave", "city": "Kamloops", "phone": "250-457-1272", "services": []}}, {"type": "Feature", "geometry": {"type": "Point", "coordinates": ["-117.652262", "49.29318"]}, "properties": {"id": "1174", "name": "Les Roudoudous Daycare", "address": "2116 Columbia Ave", "city": "Castlegar", "phone": "604-967-2994", "services": []}}, {"type": "Feature", "geometry": {"type": "Point", "coordinates": ["-120.363967", "50.712971"]}, "properties": {"id": "1189", "name": "Colour My World Childcare", "address": "1579 Collingwood Dr", "city": "Kamloops", "phone": "250-554-4333", "services": []}}, {"type": "Feature", "geometry": {"type": "Point", "coordinates": ["-120.377", "50.6388"]}, "properties": {"id": "1206", "name": "Sprouts And Blossoms", "address": "1304 Dunbar Dr", "city": "Kamloops", "phone": "250-851-6633", "services": []}}, {"type": "Feature", "geometry": {"type": "Point", "coordinates": ["-116.045613", "50.501926"]}, "properties": {"id": "1207", "name": "Beddies Babies", "address": "985 Westridge Dr", "city": "Invermere", "phone": "250-688-0093", "services": [0, 1, 3]}}, {"type": "Feature", "geometry": {"type": "Point", "coordinates": ["-120.341316", "50.773889"]}, "properties": {"id": "1222", "name": "Bumble And Bean Out Of School Program", "address": "3550 Westsyde Rd", "city": "Kamloops", "phone": "250-319-2013", "services": []}}, {"type": "Feature", "geometry": {"type": "Point", "coordinates": ["-120.34136", "50.770954"]}, "properties": {"id": "1223", "name": "Bumble And Bean Out-Of-School Program", "address": "3255 Overlander Dr", "city": "Kamloops", "phone": "250-319-2013", "services": []}}, {"type": "Feature", "geometry": {"type": "Point", "coordinates": ["-119.489585", "49.866775"]}, "properties": {"id": "1234", "name": "Kelowna Kids Co.", "address": "201-2750 Richter St", "city": "Kelowna", "phone": "778-392-8432", "services": []}}, {"type": "Feature", "geometry": {"type": "Point", "coordinates": ["-119.633715", "49.827956"]}, "properties": {"id": "1241", "name": "Angels Academy Childcare Centre", "address": "2547 Herbert Rd", "city": "West Kelowna", "phone": "250-863-0244", "services": []}}, {"type": "Feature", "geometry": {"type": "Point", "coordinates": ["-120.327489", "50.667549"]}, "properties": {"id": "1243", "name": "ymca 6Th Avenue School Age Child Care", "address": "1136 6Th Ave", "city": "Kamloops", "phone": "250-376-4771", "services": []}}, {"type": "Feature", "geometry": {"type": "Point", "coordinates": ["-117.284453", "49.483643"]}, "properties": {"id": "1244", "name": "The Storyhouse", "address": "B-601 Richards St", "city": "Nelson", "phone": "250-354-4401", "services": []}}, {"type": "Feature", "geometry": {"type": "Point", "coordinates": ["-119.191775", "50.447234"]}, "properties": {"id": "1249", "name": "Armstrong Montessori Academy", "address": "B - 2516 Patterson Ave", "city": "Armstrong", "phone": "250-307-4690", "services": []}}, {"type": "Feature", "geometry": {"type": "Point", "coordinates": ["-115.767513", "49.505731"]}, "properties": {"id": "1250", "name": "Cranbrook's Huddles And Cuddles Playcentre Inc.", "address": "308 10Th Ave S", "city": "Cranbrook", "phone": "250-426-3069", "services": []}}, {"type": "Feature", "geometry": {"type": "Point", "coordinates": ["-116.504911", "49.095789"]}, "properties": {"id": "1252", "name": "Jumping Jacks Preschool", "address": "1714 Canyon St", "city": "Creston", "phone": "250-428-6181", "services": [2]}}, {"type": "Feature", "geometry": {"type": "Point", "coordinates": ["-119.474768", "49.813443"]}, "properties": {"id": "1258", "name": "Cozy House Family Daycare", "address": "853 Hammer Ave", "city": "Kelowna", "phone": "250-864-5122", "services": [0, 1]}}, {"type": "Feature", "geometry": {"type": "Point", "coordinates": ["-120.130202", "51.192157"]}, "properties": {"id": "1261", "name": "Wild Hearts Child Care", "address": "588 mclean Rd", "city": "Barriere", "phone": "250-415-0509", "services": []}}, {"type": "Feature", "geometry": {"type": "Point", "coordinates": ["-119.140737", "50.550881"]}, "properties": {"id": "1262", "name": "Thrive Out Of School Care - Enderby", "address": "706 Mill Ave", "city": "Enderby", "phone": "250-803-8402", "services": []}}, {"type": "Feature", "geometry": {"type": "Point", "coordinates": ["-114.887693", "49.732561"]}, "properties": {"id": "1264", "name": "A Place To Play Too", "address": "125 Centennial Square", "city": "Sparwood", "phone": "250-425-9121", "services": []}}, {"type": "Feature", "geometry": {"type": "Point", "coordinates": ["-119.477795", "49.875998"]}, "properties": {"id": "1266", "name": "Okanagan Boys And Girls Clubs - A.S. Matheson", "address": "2090 Gordon Dr", "city": "Kelowna", "phone": "250-762-3989", "services": []}}, {"type": "Feature", "geometry": {"type": "Point", "coordinates": ["-119.412926", "49.881659"]}, "properties": {"id": "1267", "name": "Tiny Treasures", "address": "1 1310 Graham Rd", "city": "Kelowna", "phone": "236-795-8172", "services": [0, 1, 3]}}, {"type": "Feature", "geometry": {"type": "Point", "coordinates": ["-120.312596", "50.672449"]}, "properties": {"id": "1274", "name": "Little Saplings Child Care", "address": "1152 Nicola St", "city": "Kamloops", "phone": "778-694-0733", "services": []}}, {"type": "Feature", "geometry": {"type": "Point", "coordinates": ["-119.388999", "49.890283"]}, "properties": {"id": "1277", "name": "Lil' Bloomers Childcare", "address": "215 Shepherd Rd", "city": "Kelowna", "phone": "250-868-7259", "services": []}}, {"type": "Feature", "geometry": {"type": "Point", "coordinates": ["-120.343497", "50.773072"]}, "properties": {"id": "1284", "name": "Sycamore Child Care Centre", "address": "824 Sicamore Dr", "city": "Kamloops", "phone": "604-819-7646", "services": [0, 1, 3]}}, {"type": "Feature", "geometry": {"type": "Point", "coordinates": ["-120.368694", "50.696747"]}, "properties": {"id": "1287", "name": "Lil Scholars Childcare", "address": "750 Cottonwood Ave", "city": "Kamloops", "phone": "250-320-8391", "services": []}}, {"type": "Feature", "geometry": {"type": "Point", "coordinates": ["-120.368694", "50.696747"]}, "properties": {"id": "1290", "name": "Happy Honeybees Child Care", "address": "750 Cottonwood Ave", "city": "Kamloops", "phone": "250-319-2240", "services": []}}, {"type": "Feature", "geometry": {"type": "Point", "coordinates": ["-119.556441", "49.182455"]}, "properties": {"id": "1326", "name": "Oliver Elementary School Seamless Day Kindergarten", "address": "809 School Ave", "city": "Oliver", "phone": "250-489-3468", "services": [3]}}, {"type": "Feature", "geometry": {"type": "Point", "coordinates": ["-120.352218", "50.66795"]}, "properties": {"id": "1332", "name": "River City Early Learning Centre", "address": "30-945 Columbia St W", "city": "Kamloops", "phone": "778-471-1011", "services": []}}, {"type": "Feature", "geometry": {"type": "Point", "coordinates": ["-119.373268", "50.087523"]}, "properties": {"id": "1335", "name": "Inspirefly Child Care Center", "address": "4510 Allison Rd", "city": "Lake Country", "phone": "604-319-5232", "services": []}}, {"type": "Feature", "geometry": {"type": "Point", "coordinates": ["-119.551393", "49.860205"]}, "properties": {"id": "1338", "name": "Kinderheart Montessori Lakeview", "address": "865 Anders Rd", "city": "West Kelowna", "phone": "604-460-8558", "services": []}}, {"type": "Feature", "geometry": {"type": "Point", "coordinates": ["-119.471116", "49.811273"]}, "properties": {"id": "1355", "name": "Treehouse Forest Preschool", "address": "4711 Raymer Rd", "city": "Kelowna", "phone": "250-860-4393", "services": []}}, {"type": "Feature", "geometry": {"type": "Point", "coordinates": ["-119.689247", "50.815959"]}, "properties": {"id": "1360", "name": "Growing Minds Childcare", "address": "425 Cottonwood St", "city": "Chase", "phone": "778-347-1405", "services": []}}, {"type": "Feature", "geometry": {"type": "Point", "coordinates": ["-119.106832", "50.236081"]}, "properties": {"id": "1364", "name": "Little Cabineers Childcare", "address": "6290 Highway 6", "city": "Coldstream", "phone": "778-318-6000", "services": []}}, {"type": "Feature", "geometry": {"type": "Point", "coordinates": ["-120.785568", "50.108554"]}, "properties": {"id": "1367", "name": "Family Place", "address": "2199 Coutlee Ave", "city": "Merritt", "phone": "250-387-4878", "services": []}}, {"type": "Feature", "geometry": {"type": "Point", "coordinates": ["-120.351025", "50.763055"]}, "properties": {"id": "1385", "name": "Bumble And Bean Daycare", "address": "3125 Serle Ct", "city": "Kamloops", "phone": "250-319-2013", "services": []}}, {"type": "Feature", "geometry": {"type": "Point", "coordinates": ["-119.247799", "50.263469"]}, "properties": {"id": "1390", "name": "Pl Appletree", "address": "1204 30 Ave", "city": "Vernon", "phone": "250-550-4471", "services": []}}, {"type": "Feature", "geometry": {"type": "Point", "coordinates": ["-114.90077", "49.746005"]}, "properties": {"id": "1399", "name": "Sweet Feet Child Care", "address": "1209 Sycamore Rd", "city": "Sparwood", "phone": "778-518-2121", "services": [0, 1, 3]}}, {"type": "Feature", "geometry": {"type": "Point", "coordinates": ["-120.342139", "50.772778"]}, "properties": {"id": "1413", "name": "Creative Corner Early Childhood Learning Centre", "address": "810 Sicamore Dr", "city": "Kamloops", "phone": "250-819-5444", "services": []}}, {"type": "Feature", "geometry": {"type": "Point", "coordinates": ["-120.326219", "50.672982"]}, "properties": {"id": "1439", "name": "Casa Mia Childcare", "address": "629 Battle St", "city": "Kamloops", "phone": "250-828-6675", "services": []}}, {"type": "Feature", "geometry": {"type": "Point", "coordinates": ["-119.391119", "49.906613"]}, "properties": {"id": "1459", "name": "Natural Beginnings Childcare", "address": "310 Hillaby Ave", "city": "Kelowna", "phone": "250-801-2167", "services": [0, 1]}}, {"type": "Feature", "geometry": {"type": "Point", "coordinates": ["-120.360081", "50.699807"]}, "properties": {"id": "1460", "name": "Bloom & Grow Early Learning", "address": "24-750 Fortune Dr", "city": "Kamloops", "phone": "250-376-5437", "services": []}}, {"type": "Feature", "geometry": {"type": "Point", "coordinates": ["-119.463254", "49.89998"]}, "properties": {"id": "1467", "name": "Glenmore Little Bears Early Years Centre", "address": "1603 Sonora Dr", "city": "Kelowna", "phone": "250-808-5216", "services": [1]}}, {"type": "Feature", "geometry": {"type": "Point", "coordinates": ["-119.575732", "49.501995"]}, "properties": {"id": "1468", "name": "Kids Connection Uplands", "address": "145 Middle Bench Rd S", "city": "Penticton", "phone": "250-488-6331", "services": []}}, {"type": "Feature", "geometry": {"type": "Point", "coordinates": ["-120.353541", "50.751018"]}, "properties": {"id": "1473", "name": "Bumble And Bean Daycare And Out-Of-School Program", "address": "779 Franklin Rd", "city": "Kamloops", "phone": "250-319-2013", "services": []}}, {"type": "Feature", "geometry": {"type": "Point", "coordinates": ["-117.296257", "49.481486"]}, "properties": {"id": "1475", "name": "Miles Of Smiles Childcare", "address": "1511 Robertson Ave", "city": "Nelson", "phone": "778-962-5255", "services": []}}, {"type": "Feature", "geometry": {"type": "Point", "coordinates": ["-117.28636", "49.478276"]}, "properties": {"id": "1477", "name": "Maggie's Multi-Age Day Home Ltd", "address": "212 Hart St", "city": "Nelson", "phone": "250-551-3011", "services": []}}, {"type": "Feature", "geometry": {"type": "Point", "coordinates": ["-119.39705", "49.878786"]}, "properties": {"id": "1484", "name": "Rainbow Daycare", "address": "842 Juniper Rd", "city": "Kelowna", "phone": "236-338-0444", "services": []}}, {"type": "Feature", "geometry": {"type": "Point", "coordinates": ["-116.030617", "50.50464"]}, "properties": {"id": "1485", "name": "Dragonfly Discovery Children's Centre", "address": "818 12Th St", "city": "Invermere", "phone": "250-270-0058", "services": []}}, {"type": "Feature", "geometry": {"type": "Point", "coordinates": ["-120.343013", "50.766776"]}, "properties": {"id": "1489", "name": "Holding Hands Childcare", "address": "3230 Bank Rd", "city": "Kamloops", "phone": "250-377-5707", "services": []}}, {"type": "Feature", "geometry": {"type": "Point", "coordinates": ["-122.135529", "52.104756"]}, "properties": {"id": "1491", "name": "Happy Trails Daycare", "address": "818 Dog Creek Rd", "city": "Williams Lake", "phone": "250-267-2299", "services": []}}, {"type": "Feature", "geometry": {"type": "Point", "coordinates": ["-120.336373", "50.675121"]}, "properties": {"id": "1493", "name": "Parasol - Early Years Learning - 4", "address": "110-206 Seymour St", "city": "Kamloops", "phone": "250-819-1390", "services": []}}, {"type": "Feature", "geometry": {"type": "Point", "coordinates": ["-122.147163", "52.146436"]}, "properties": {"id": "1494", "name": "Rascally Rabbits Daycare", "address": "980 Ninth Ave N", "city": "Williams Lake", "phone": "250-302-1087", "services": []}}, {"type": "Feature", "geometry": {"type": "Point", "coordinates": ["-119.67589", "49.58004"]}, "properties": {"id": "1496", "name": "Unisus Early Childhood Learning Centre Inc.", "address": "7808 Pierre Dr", "city": "Summerland", "phone": "250-404-3232", "services": []}}, {"type": "Feature", "geometry": {"type": "Point", "coordinates": ["-120.362988", "50.63628"]}, "properties": {"id": "1503", "name": "Kool Kidz", "address": "817 Regent Cres", "city": "Kamloops", "phone": "250-309-6804", "services": []}}, {"type": "Feature", "geometry": {"type": "Point", "coordinates": ["-119.250358", "50.270966"]}, "properties": {"id": "1504", "name": "Little Cub Daycare", "address": "3906 14 St", "city": "Vernon", "phone": "250-351-4868", "services": []}}, {"type": "Feature", "geometry": {"type": "Point", "coordinates": ["-120.353695", "50.668512"]}, "properties": {"id": "1513", "name": "River City Early Learning Centre (2)", "address": "40-945 Columbia St W", "city": "Kamloops", "phone": "778-929-2596", "services": []}}, {"type": "Feature", "geometry": {"type": "Point", "coordinates": ["-119.453255", "49.883461"]}, "properties": {"id": "1515", "name": "Cefa Early Learning Spall Road", "address": "3-1745 Spall Rd", "city": "Kelowna", "phone": "236-361-5511", "services": []}}, {"type": "Feature", "geometry": {"type": "Point", "coordinates": ["-119.388649", "49.907216"]}, "properties": {"id": "1525", "name": "Big Dreamers Daycare - Mac House", "address": "155 Fitzpatrick Rd", "city": "Kelowna", "phone": "250-765-5777", "services": []}}, {"type": "Feature", "geometry": {"type": "Point", "coordinates": ["-115.940744", "49.692445"]}, "properties": {"id": "1526", "name": "Purcell International Preschool", "address": "8687 Highway 95A", "city": "Kimberley", "phone": "250-427-3969", "services": []}}, {"type": "Feature", "geometry": {"type": "Point", "coordinates": ["-119.477935", "49.8499"]}, "properties": {"id": "1533", "name": "Cloud Nine Kids Childcare Centre", "address": "3714 Gordon Dr", "city": "Kelowna", "phone": "778-392-8555", "services": [3]}}, {"type": "Feature", "geometry": {"type": "Point", "coordinates": ["-119.266868", "50.734413"]}, "properties": {"id": "1536", "name": "Home Sweet Home Child Care Provider", "address": "4750 Lakeshore Rd Ne", "city": "Salmon Arm", "phone": "250-263-7829", "services": [0, 1, 3]}}, {"type": "Feature", "geometry": {"type": "Point", "coordinates": ["-119.375376", "49.88468"]}, "properties": {"id": "1539", "name": "Shaeas Daycare", "address": "420 Brighton Rd", "city": "Kelowna", "phone": "604-226-3367", "services": []}}, {"type": "Feature", "geometry": {"type": "Point", "coordinates": ["-119.229501", "50.234989"]}, "properties": {"id": "1543", "name": "Little Moments Learning Centre", "address": "9308 Aberdeen Rd", "city": "Coldstream", "phone": "250-307-9003", "services": [0, 1, 3]}}, {"type": "Feature", "geometry": {"type": "Point", "coordinates": ["-117.284241", "49.477507"]}, "properties": {"id": "1555", "name": "Enchanted Forest", "address": "2215 Kootenay St", "city": "Nelson", "phone": "250-551-2542", "services": []}}, {"type": "Feature", "geometry": {"type": "Point", "coordinates": ["-119.337808", "50.698948"]}, "properties": {"id": "1561", "name": "Switzmalph Child Care Centre", "address": "4501 1St Ave Sw", "city": "Salmon Arm", "phone": "778-824-0376", "services": []}}, {"type": "Feature", "geometry": {"type": "Point", "coordinates": ["-119.399484", "49.898856"]}, "properties": {"id": "1570", "name": "Ymca-Pearson Out Of School Care", "address": "700 Pearson Rd", "city": "Kelowna", "phone": "250-317-9120", "services": []}}, {"type": "Feature", "geometry": {"type": "Point", "coordinates": ["-119.40607", "50.026243"]}, "properties": {"id": "1583", "name": "Elowyn", "address": "9966 Pollard Rd", "city": "Lake Country", "phone": "250-766-0399", "services": []}}, {"type": "Feature", "geometry": {"type": "Point", "coordinates": ["-119.642478", "49.853919"]}, "properties": {"id": "1586", "name": "Kinder's Cove Early Learning And Discovery Centre", "address": "2680 Copper Ridge Dr", "city": "West Kelowna", "phone": "250-215-9405", "services": [0, 1]}}, {"type": "Feature", "geometry": {"type": "Point", "coordinates": ["-119.457202", "49.887409"]}, "properties": {"id": "1590", "name": "Parkinson Recreation Centre Licensed Preschool", "address": "1800 Parkinson Way", "city": "Kelowna", "phone": "250-470-0639", "services": []}}, {"type": "Feature", "geometry": {"type": "Point", "coordinates": ["-117.26978", "49.503889"]}, "properties": {"id": "1604", "name": "Songbird Early Learning Centre", "address": "614 Ninth St", "city": "Nelson", "phone": "250-352-9292", "services": []}}, {"type": "Feature", "geometry": {"type": "Point", "coordinates": ["-119.686188", "50.825389"]}, "properties": {"id": "1608", "name": "Mighty Munchkins", "address": "519 Arbutus St", "city": "Chase", "phone": "587-988-7021", "services": []}}, {"type": "Feature", "geometry": {"type": "Point", "coordinates": ["-119.2692", "50.26055"]}, "properties": {"id": "1612", "name": "Mighty Mouse Daycare", "address": "8-2601 Highway 6", "city": "Vernon", "phone": "250-503-0851", "services": []}}, {"type": "Feature", "geometry": {"type": "Point", "coordinates": ["-117.370266", "49.99261"]}, "properties": {"id": "1613", "name": "Goat Mountain Kids Centre", "address": "604 7Th Ave", "city": "New Denver", "phone": "250-265-3638", "services": []}}, {"type": "Feature", "geometry": {"type": "Point", "coordinates": ["-119.413462", "50.046037"]}, "properties": {"id": "1615", "name": "Little Minds Childcare", "address": "11250 Pretty Rd", "city": "Lake Country", "phone": "250-317-5014", "services": []}}, {"type": "Feature", "geometry": {"type": "Point", "coordinates": ["-119.487845", "49.874585"]}, "properties": {"id": "1617", "name": "Linda's \"Little People\" Family Daycare", "address": "2197 Richter St", "city": "Kelowna", "phone": "250-301-6547", "services": []}}, {"type": "Feature", "geometry": {"type": "Point", "coordinates": ["-119.262749", "50.276067"]}, "properties": {"id": "1621", "name": "Blue Door Out Of School Care", "address": "2302 44 Ave", "city": "Vernon", "phone": "250-306-8040", "services": []}}, {"type": "Feature", "geometry": {"type": "Point", "coordinates": ["-119.486443", "49.813057"]}, "properties": {"id": "1635", "name": "Auntie's House", "address": "642 Thorneloe Rd", "city": "Kelowna", "phone": "250-864-2304", "services": []}}, {"type": "Feature", "geometry": {"type": "Point", "coordinates": ["-119.202332", "50.660745"]}, "properties": {"id": "1638", "name": "Little Sunshine Child Care", "address": "5371 Mayfair Rd", "city": "Salmon Arm", "phone": "250-263-2080", "services": []}}, {"type": "Feature", "geometry": {"type": "Point", "coordinates": ["-119.662874", "49.832381"]}, "properties": {"id": "1643", "name": "Thrive Out Of School Care - Morning Star", "address": "3031 Mciver Rd", "city": "West Kelowna", "phone": "250-878-2938", "services": []}}, {"type": "Feature", "geometry": {"type": "Point", "coordinates": ["-118.221288", "51.010632"]}, "properties": {"id": "1648", "name": "Begbie Bears Daycare", "address": "1958 Laforme Blvd", "city": "Revelstoke", "phone": "250-200-0391", "services": []}}, {"type": "Feature", "geometry": {"type": "Point", "coordinates": ["-119.556516", "49.184692"]}, "properties": {"id": "1664", "name": "Little Haven Dayhome", "address": "6372 Haven St", "city": "Oliver", "phone": "778-931-0135", "services": []}}, {"type": "Feature", "geometry": {"type": "Point", "coordinates": ["-119.473903", "49.886756"]}, "properties": {"id": "1665", "name": "World Within Early Learning", "address": "1491 D Anjou St", "city": "Kelowna", "phone": "250-864-9946", "services": []}}, {"type": "Feature", "geometry": {"type": "Point", "coordinates": ["-118.980652", "50.829853"]}, "properties": {"id": "1685", "name": "Kids Kingdom", "address": "502 Cedar St", "city": "Sicamous", "phone": "604-217-3086", "services": []}}, {"type": "Feature", "geometry": {"type": "Point", "coordinates": ["-120.322305", "50.674729"]}, "properties": {"id": "1716", "name": "Montessori Infant/Toddler's Cottage", "address": "767 Seymour St", "city": "Kamloops", "phone": "778-220-9457", "services": []}}, {"type": "Feature", "geometry": {"type": "Point", "coordinates": ["-117.278976", "49.500562"]}, "properties": {"id": "1717", "name": "Cornerstone Children's Centre", "address": "310 Nelson Ave", "city": "Nelson", "phone": "250-505-4148", "services": []}}, {"type": "Feature", "geometry": {"type": "Point", "coordinates": ["-120.262448", "50.66189"]}, "properties": {"id": "1728", "name": "Children's Casa Early Learning Center", "address": "101-2049 Highland Pl", "city": "Kamloops", "phone": "250-377-5342", "services": []}}, {"type": "Feature", "geometry": {"type": "Point", "coordinates": ["-115.755993", "49.520912"]}, "properties": {"id": "1732", "name": "Kootenay Street Clubhouse", "address": "918 Kootenay St N", "city": "Cranbrook", "phone": "250-426-3830", "services": []}}, {"type": "Feature", "geometry": {"type": "Point", "coordinates": ["-116.507104", "49.102124"]}, "properties": {"id": "1739", "name": "Love And Laughter Family Child Care", "address": "701 16 Ave N", "city": "Creston", "phone": "250-421-4411", "services": [0, 1, 3]}}, {"type": "Feature", "geometry": {"type": "Point", "coordinates": ["-119.634931", "49.845769"]}, "properties": {"id": "1744", "name": "Friendly Farm Childcare", "address": "3270 Elliott Rd", "city": "West Kelowna", "phone": "778-754-1034", "services": [0, 1]}}, {"type": "Feature", "geometry": {"type": "Point", "coordinates": ["-119.625647", "49.839088"]}, "properties": {"id": "1755", "name": "Living Dreams Daycare", "address": "3440 Old Okanagan Hwy", "city": "West Kelowna", "phone": "778-581-9353", "services": []}}, {"type": "Feature", "geometry": {"type": "Point", "coordinates": ["-120.378214", "50.638772"]}, "properties": {"id": "1762", "name": "Pacific Way After School Care", "address": "1351 Dunbar Dr", "city": "Kamloops", "phone": "250-574-4140", "services": []}}, {"type": "Feature", "geometry": {"type": "Point", "coordinates": ["-119.629749", "49.849701"]}, "properties": {"id": "1763", "name": "Wee Scholars Early Learning Centre", "address": "3193 Saddleback Pl", "city": "West Kelowna", "phone": "250-808-2949", "services": [0, 1]}}, {"type": "Feature", "geometry": {"type": "Point", "coordinates": ["-117.655472", "49.292178"]}, "properties": {"id": "1785", "name": "Puddle Jumper Daycare", "address": "2112 10Th Ave", "city": "Castlegar", "phone": "403-951-0595", "services": []}}, {"type": "Feature", "geometry": {"type": "Point", "coordinates": ["-121.321128", "51.705801"]}, "properties": {"id": "1818", "name": "Small Explorers Family Daycare", "address": "5488 Tatton Station Rd", "city": "100 Mile House", "phone": "250-395-6695", "services": []}}, {"type": "Feature", "geometry": {"type": "Point", "coordinates": ["-119.249913", "50.696355"]}, "properties": {"id": "1825", "name": "Back In Nature Childcare Inc", "address": "480 30Th St Se", "city": "Salmon Arm", "phone": "250-833-3556", "services": []}}, {"type": "Feature", "geometry": {"type": "Point", "coordinates": ["-119.647378", "49.826423"]}, "properties": {"id": "1829", "name": "Little Citizens Early Learning Centre", "address": "3718 Glenway Rd", "city": "West Kelowna", "phone": "250-801-9931", "services": []}}, {"type": "Feature", "geometry": {"type": "Point", "coordinates": ["-118.475601", "49.040148"]}, "properties": {"id": "1830", "name": "Stepping Stones Daycare", "address": "8291 North Fork Rd", "city": "Grand Forks", "phone": "250-443-4517", "services": []}}, {"type": "Feature", "geometry": {"type": "Point", "coordinates": ["-119.466884", "49.029324"]}, "properties": {"id": "1836", "name": "Osoyoos Elementary Seamless Day", "address": "8507 68Th Ave", "city": "Osoyoos", "phone": "250-485-4444", "services": []}}, {"type": "Feature", "geometry": {"type": "Point", "coordinates": ["-120.335039", "50.67444"]}, "properties": {"id": "1840", "name": "Sunny Hills Montessori Ltd.", "address": "259 Seymour St", "city": "Kamloops", "phone": "250-851-1764", "services": []}}, {"type": "Feature", "geometry": {"type": "Point", "coordinates": ["-120.27197", "50.678053"]}, "properties": {"id": "1845", "name": "Gateway Children's Centre", "address": "163 Oriole Rd", "city": "Kamloops", "phone": "250-371-0519", "services": []}}, {"type": "Feature", "geometry": {"type": "Point", "coordinates": ["-119.483837", "49.835442"]}, "properties": {"id": "1853", "name": "Garde Scolaire L'anse-Au-Sable", "address": "675 Lequime Rd", "city": "Kelowna", "phone": "250-764-2771", "services": []}}, {"type": "Feature", "geometry": {"type": "Point", "coordinates": ["-118.196594", "50.997712"]}, "properties": {"id": "1871", "name": "The Revelstoke After School Society - United Church", "address": "314 Mackenzie Ave", "city": "Revelstoke", "phone": "250-683-8663", "services": []}}, {"type": "Feature", "geometry": {"type": "Point", "coordinates": ["-119.483837", "49.835442"]}, "properties": {"id": "1874", "name": "Garderie Les Libellules", "address": "675 Lequime Rd", "city": "Kelowna", "phone": "604-736-5056", "services": []}}, {"type": "Feature", "geometry": {"type": "Point", "coordinates": ["-119.435495", "49.919014"]}, "properties": {"id": "1876", "name": "Knox Kids Co.", "address": "228 Valley Rd", "city": "Kelowna", "phone": "250-470-7858", "services": []}}, {"type": "Feature", "geometry": {"type": "Point", "coordinates": ["-119.008701", "50.537705"]}, "properties": {"id": "1880", "name": "Stem Early Learning Centre", "address": "3702 Trinity Valley Rd", "city": "Enderby", "phone": "250-868-2971", "services": []}}, {"type": "Feature", "geometry": {"type": "Point", "coordinates": ["-115.779171", "49.498546"]}, "properties": {"id": "1886", "name": "Tot's Spot", "address": "121 10Th St S", "city": "Cranbrook", "phone": "250-421-9887", "services": []}}, {"type": "Feature", "geometry": {"type": "Point", "coordinates": ["-119.380324", "49.895068"]}, "properties": {"id": "1888", "name": "Simple Wonders Okanagan Childcare", "address": "410 Hardie Rd", "city": "Kelowna", "phone": "250-718-1922", "services": []}}, {"type": "Feature", "geometry": {"type": "Point", "coordinates": ["-117.79592", "49.078742"]}, "properties": {"id": "1893", "name": "Garderie Les Randonneurs", "address": "2160 St Paul St", "city": "Rossland", "phone": "604-736-5056", "services": []}}, {"type": "Feature", "geometry": {"type": "Point", "coordinates": ["-120.507246", "49.464534"]}, "properties": {"id": "1914", "name": "Little Seeds Early Learning Centre Inc.", "address": "143 Old Hedley Rd", "city": "Princeton", "phone": "250-273-5090", "services": [0, 1, 3]}}, {"type": "Feature", "geometry": {"type": "Point", "coordinates": ["-121.934903", "50.674506"]}, "properties": {"id": "1928", "name": "Lil' Quills Head Start/Daycare", "address": "818 99 South", "city": "Lillooet", "phone": "778-784-2129", "services": [0, 1]}}, {"type": "Feature", "geometry": {"type": "Point", "coordinates": ["-119.36309", "50.591695"]}, "properties": {"id": "1934", "name": "Silver Creek Elementary School", "address": "935 Salmon River Rd", "city": "Salmon Arm", "phone": "250-833-2095", "services": []}}, {"type": "Feature", "geometry": {"type": "Point", "coordinates": ["-117.649772", "49.294636"]}, "properties": {"id": "1937", "name": "Castlegar & District Kids' Club", "address": "2101 6Th Ave", "city": "Castlegar", "phone": "778-460-5239", "services": []}}, {"type": "Feature", "geometry": {"type": "Point", "coordinates": ["-119.471606", "49.891621"]}, "properties": {"id": "1943", "name": "Bankhead Elementary School", "address": "1280 Wilson Ave", "city": "Kelowna", "phone": "250-870-5114", "services": []}}, {"type": "Feature", "geometry": {"type": "Point", "coordinates": ["-120.351587", "50.694934"]}, "properties": {"id": "1955", "name": "Arthur Hatton Elementary", "address": "315 Chestnut Ave", "city": "Kamloops", "phone": "250-376-7217", "services": []}}, {"type": "Feature", "geometry": {"type": "Point", "coordinates": ["-121.939389", "50.692535"]}, "properties": {"id": "1956", "name": "Cayoosh Elementary School", "address": "351 6 Ave", "city": "Lillooet", "phone": "250-256-4212", "services": []}}, {"type": "Feature", "geometry": {"type": "Point", "coordinates": ["-119.344404", "50.238042"]}, "properties": {"id": "1957", "name": "Okanagan Landing Elementary School", "address": "7322 Grant Rd", "city": "Vernon", "phone": "250-260-4490", "services": []}}, {"type": "Feature", "geometry": {"type": "Point", "coordinates": ["-120.423904", "50.704894"]}, "properties": {"id": "1958", "name": "Kamloops Lollipop Kids Centre", "address": "2632 Young Pl", "city": "Kamloops", "phone": "250-819-7893", "services": []}}, {"type": "Feature", "geometry": {"type": "Point", "coordinates": ["-119.384186", "49.905643"]}, "properties": {"id": "1959", "name": "Tnt Family Child Care", "address": "220 Wallace Rd", "city": "Kelowna", "phone": "250-808-3633", "services": []}}, {"type": "Feature", "geometry": {"type": "Point", "coordinates": ["-119.19782", "50.448302"]}, "properties": {"id": "1964", "name": "Bgc-Okanagan Armstrong", "address": "3015 Wood Ave", "city": "Armstrong", "phone": "250-546-9900", "services": []}}, {"type": "Feature", "geometry": {"type": "Point", "coordinates": ["-118.216348", "51.014905"]}, "properties": {"id": "1974", "name": "Revy Rascals", "address": "172 Pearkes Dr", "city": "Revelstoke", "phone": "250-814-3672", "services": []}}, {"type": "Feature", "geometry": {"type": "Point", "coordinates": ["-119.260346", "50.24368"]}, "properties": {"id": "1978", "name": "Wild Childcare Early Learning Centre", "address": "978 Mt Beaven Crt", "city": "Vernon", "phone": "250-870-2670", "services": [0, 1, 3]}}, {"type": "Feature", "geometry": {"type": "Point", "coordinates": ["-117.819391", "49.102379"]}, "properties": {"id": "1980", "name": "Kindercare", "address": "4300 Red Mountain Rd", "city": "Rossland", "phone": "778-457-5006", "services": []}}, {"type": "Feature", "geometry": {"type": "Point", "coordinates": ["-119.551035", "49.881116"]}, "properties": {"id": "1995", "name": "Nurturing Education Through Security And Trust", "address": "1927 Horizon Dr", "city": "West Kelowna", "phone": "250-469-1107", "services": [2]}}, {"type": "Feature", "geometry": {"type": "Point", "coordinates": ["-119.484558", "49.856319"]}, "properties": {"id": "2012", "name": "Playhouse", "address": "3501 Casorso Rd", "city": "Kelowna", "phone": "778-363-9343", "services": []}}, {"type": "Feature", "geometry": {"type": "Point", "coordinates": ["-119.38832", "50.038898"]}, "properties": {"id": "2013", "name": "Serendipity Early Years Centre", "address": "10758 Cheryl Crt", "city": "Lake Country", "phone": "250-718-6674", "services": []}}, {"type": "Feature", "geometry": {"type": "Point", "coordinates": ["-119.379465", "49.888089"]}, "properties": {"id": "2014", "name": "Sparkling Stars Daycare", "address": "171 Molnar Rd", "city": "Kelowna", "phone": "236-795-2498", "services": []}}, {"type": "Feature", "geometry": {"type": "Point", "coordinates": ["-120.320354", "50.663337"]}, "properties": {"id": "2016", "name": "Early Learning Society Of Kamloops - Main Campus", "address": "1500 9 Ave", "city": "Kamloops", "phone": "778-471-9321", "services": []}}, {"type": "Feature", "geometry": {"type": "Point", "coordinates": ["-119.19414", "50.446433"]}, "properties": {"id": "2020", "name": "Kindale Child Care Centre", "address": "2725 Patterson Ave", "city": "Armstrong", "phone": "250-546-3005", "services": []}}, {"type": "Feature", "geometry": {"type": "Point", "coordinates": ["-120.3585", "50.70198"]}, "properties": {"id": "2036", "name": "T.J.'S Daycare", "address": "646 Duncan Ave", "city": "Kamloops", "phone": "250-371-2625", "services": []}}, {"type": "Feature", "geometry": {"type": "Point", "coordinates": ["-120.78216", "50.109916"]}, "properties": {"id": "2044", "name": "Helew'u' Child Care Society", "address": "2190 Blair St", "city": "Merritt", "phone": "250-315-7579", "services": []}}, {"type": "Feature", "geometry": {"type": "Point", "coordinates": ["-119.267494", "50.264837"]}, "properties": {"id": "2050", "name": "Cocomelon Learning Center", "address": "3011 28 St", "city": "Vernon", "phone": "306-471-4567", "services": []}}, {"type": "Feature", "geometry": {"type": "Point", "coordinates": ["-119.614825", "49.830247"]}, "properties": {"id": "2053", "name": "Featherstone Early Development Centre", "address": "2209 Majoros Rd", "city": "West Kelowna", "phone": "250-861-0669", "services": [0, 1]}}, {"type": "Feature", "geometry": {"type": "Point", "coordinates": ["-119.424481", "49.884659"]}, "properties": {"id": "2066", "name": "Dynamic After School Care", "address": "1880A Baron Rd", "city": "Kelowna", "phone": "250-763-8584", "services": [1, 3]}}, {"type": "Feature", "geometry": {"type": "Point", "coordinates": ["-122.141754", "52.138521"]}, "properties": {"id": "2071", "name": "The Pigeon Nest", "address": "632 Johnson St", "city": "Williams Lake", "phone": "250-392-7749", "services": []}}, {"type": "Feature", "geometry": {"type": "Point", "coordinates": ["-120.247658", "50.67479"]}, "properties": {"id": "2072", "name": "Fun And Learning Out Of School", "address": "2481 Sunset Dr", "city": "Kamloops", "phone": "250-571-5464", "services": []}}, {"type": "Feature", "geometry": {"type": "Point", "coordinates": ["-121.203389", "51.614662"]}, "properties": {"id": "2078", "name": "Little Homestead Family Daycare", "address": "6001 Valleyview Dr", "city": "100 Mile House", "phone": "250-589-0798", "services": []}}, {"type": "Feature", "geometry": {"type": "Point", "coordinates": ["-119.492024", "49.884526"]}, "properties": {"id": "2079", "name": "Produckidvity Academy - Leon", "address": "538 Leon Ave", "city": "Kelowna", "phone": "778-214-7406", "services": []}}, {"type": "Feature", "geometry": {"type": "Point", "coordinates": ["-119.512033", "49.794345"]}, "properties": {"id": "2086", "name": "Elowyn - Kettle Valley", "address": "103-5309 Main St", "city": "Kelowna", "phone": "778-477-3095", "services": []}}, {"type": "Feature", "geometry": {"type": "Point", "coordinates": ["-118.182092", "50.990123"]}, "properties": {"id": "2088", "name": "New Cubs On The Block", "address": "403 Leach St", "city": "Revelstoke", "phone": "250-814-8616", "services": []}}, {"type": "Feature", "geometry": {"type": "Point", "coordinates": ["-119.375892", "49.904319"]}, "properties": {"id": "2098", "name": "Discovery Years Childcare", "address": "585 Patrick Rd", "city": "Kelowna", "phone": "250-878-5715", "services": []}}, {"type": "Feature", "geometry": {"type": "Point", "coordinates": ["-119.557539", "49.485871"]}, "properties": {"id": "2101", "name": "Just B4 Preschool", "address": "1437 Allison St", "city": "Penticton", "phone": "250-770-7677", "services": []}}, {"type": "Feature", "geometry": {"type": "Point", "coordinates": ["-115.752061", "49.51411"]}, "properties": {"id": "2104", "name": "Little Stubbies Learning Centre", "address": "2020 2Nd St N", "city": "Cranbrook", "phone": "250-919-3810", "services": []}}, {"type": "Feature", "geometry": {"type": "Point", "coordinates": ["-119.44763", "49.915723"]}, "properties": {"id": "2107", "name": "Coronation Montessori Preschool", "address": "422 Ballou Pl", "city": "Kelowna", "phone": "778-484-3121", "services": [2]}}, {"type": "Feature", "geometry": {"type": "Point", "coordinates": ["-120.353788", "50.647592"]}, "properties": {"id": "2111", "name": "Toddler World Early Learning Centre", "address": "664 Robson Dr", "city": "Kamloops", "phone": "250-879-1436", "services": []}}, {"type": "Feature", "geometry": {"type": "Point", "coordinates": ["-119.444233", "49.876824"]}, "properties": {"id": "2112", "name": "Ohana Academy Inc.", "address": "2091 Springfield Rd", "city": "Kelowna", "phone": "250-317-6406", "services": []}}, {"type": "Feature", "geometry": {"type": "Point", "coordinates": ["-120.815878", "50.492882"]}, "properties": {"id": "2117", "name": "Logan Lake Laugh And Learn Daycare", "address": "130B Chartrand Ave", "city": "Logan Lake", "phone": "250-523-3044", "services": [0, 1]}}, {"type": "Feature", "geometry": {"type": "Point", "coordinates": ["-119.397316", "49.873374"]}, "properties": {"id": "2120", "name": "Starseeds", "address": "580 Peck Rd", "city": "Kelowna", "phone": "250-584-4961", "services": []}}, {"type": "Feature", "geometry": {"type": "Point", "coordinates": ["-120.359842", "50.694488"]}, "properties": {"id": "2123", "name": "Parasol - Early Years Learning - 5", "address": "604 Tranquille Rd", "city": "Kamloops", "phone": "250-819-1390", "services": []}}, {"type": "Feature", "geometry": {"type": "Point", "coordinates": ["-119.267475", "50.261848"]}, "properties": {"id": "2125", "name": "St. James Early Learning Centre", "address": "2700 28Th Ave", "city": "Vernon", "phone": "250-542-4081", "services": []}}, {"type": "Feature", "geometry": {"type": "Point", "coordinates": ["-120.385629", "50.70345"]}, "properties": {"id": "2141", "name": "Mighty Learners Day Home", "address": "1631 Spartan Pl", "city": "Kamloops", "phone": "780-446-5729", "services": []}}, {"type": "Feature", "geometry": {"type": "Point", "coordinates": ["-119.415973", "49.886684"]}, "properties": {"id": "2149", "name": "Little Leaps And Bounds Day Center", "address": "265 Terai Court", "city": "Kelowna", "phone": "250-575-4492", "services": [1]}}, {"type": "Feature", "geometry": {"type": "Point", "coordinates": ["-120.185807", "50.668575"]}, "properties": {"id": "2163", "name": "Wonderful Beginnings Early Years", "address": "101-5170 Dallas Dr", "city": "Kamloops", "phone": "306-471-4567", "services": []}}, {"type": "Feature", "geometry": {"type": "Point", "coordinates": ["-120.808125", "50.481037"]}, "properties": {"id": "2185", "name": "Whimsical Woods Childcare Ltd.", "address": "408 Daladon Dr", "city": "Logan Lake", "phone": "604-614-3358", "services": []}}, {"type": "Feature", "geometry": {"type": "Point", "coordinates": ["-119.15472", "50.326698"]}, "properties": {"id": "2193", "name": "Wild Roots Early Learning", "address": "8263 Rogers Rd", "city": "Vernon", "phone": "604-309-6408", "services": []}}, {"type": "Feature", "geometry": {"type": "Point", "coordinates": ["-120.373103", "50.671036"]}, "properties": {"id": "2198", "name": "Cariboo Child Care", "address": "1274 mcgill Rd", "city": "Kamloops", "phone": "250-828-5160", "services": []}}, {"type": "Feature", "geometry": {"type": "Point", "coordinates": ["-120.322532", "50.674731"]}, "properties": {"id": "2201", "name": "Montessori Children's Centre", "address": "759 Seymour St", "city": "Kamloops", "phone": "778-220-9457", "services": [0, 1]}}, {"type": "Feature", "geometry": {"type": "Point", "coordinates": ["-118.213524", "51.018567"]}, "properties": {"id": "2216", "name": "The Revelstoke After School Society - Columbia Park", "address": "1806 Colbeck Rd", "city": "Revelstoke", "phone": "250-683-8663", "services": []}}, {"type": "Feature", "geometry": {"type": "Point", "coordinates": ["-119.67648", "49.583136"]}, "properties": {"id": "2230", "name": "Little Bear Daycare", "address": "8611 Pierre Dr", "city": "Summerland", "phone": "250-486-3256", "services": []}}, {"type": "Feature", "geometry": {"type": "Point", "coordinates": ["-119.26336", "50.267139"]}, "properties": {"id": "2236", "name": "Raising Stars Preschool", "address": "3404 24 St", "city": "Vernon", "phone": "250-938-7264", "services": [1, 2]}}, {"type": "Feature", "geometry": {"type": "Point", "coordinates": ["-119.406039", "50.030512"]}, "properties": {"id": "2255", "name": "Lake Country Bloom Academy", "address": "10162 Newene Rd", "city": "Lake Country", "phone": "780-265-1654", "services": []}}, {"type": "Feature", "geometry": {"type": "Point", "coordinates": ["-119.625509", "49.508694"]}, "properties": {"id": "2263", "name": "Susie's Daycare", "address": "513 Hyslop Dr", "city": "Penticton", "phone": "250-462-5377", "services": []}}, {"type": "Feature", "geometry": {"type": "Point", "coordinates": ["-119.466087", "49.03168"]}, "properties": {"id": "2284", "name": "Dharma Kids Centre", "address": "8507 74 Ave", "city": "Osoyoos", "phone": "250-502-8889", "services": []}}, {"type": "Feature", "geometry": {"type": "Point", "coordinates": ["-119.655914", "49.839497"]}, "properties": {"id": "2303", "name": "Bgc Okanagan-Glenrosa", "address": "3430 Webber Rd", "city": "West Kelowna", "phone": "250-258-0569", "services": []}}, {"type": "Feature", "geometry": {"type": "Point", "coordinates": ["-116.041306", "50.496374"]}, "properties": {"id": "2310", "name": "Wvccs After School Program Eileen Madison Elementary", "address": "2001 15 Ave", "city": "Invermere", "phone": "250-341-7613", "services": []}}, {"type": "Feature", "geometry": {"type": "Point", "coordinates": ["-120.345832", "50.767216"]}, "properties": {"id": "2313", "name": "Bear Bears", "address": "3262 Westsyde Rd", "city": "Kamloops", "phone": "250-879-1651", "services": [0, 1]}}, {"type": "Feature", "geometry": {"type": "Point", "coordinates": ["-120.184249", "50.667782"]}, "properties": {"id": "2327", "name": "Little Mangos Childcare Centre", "address": "5201 Dallas Dr", "city": "Kamloops", "phone": "250-634-8219", "services": []}}, {"type": "Feature", "geometry": {"type": "Point", "coordinates": ["-120.370472", "50.65105"]}, "properties": {"id": "2328", "name": "Hillside Montessori", "address": "1205 Rogers Way", "city": "Kamloops", "phone": "250-299-1324", "services": []}}, {"type": "Feature", "geometry": {"type": "Point", "coordinates": ["-115.983116", "49.692719"]}, "properties": {"id": "2347", "name": "Lindsay Park Afterschool Program", "address": "602 Salmo St", "city": "Kimberley", "phone": "250-427-1779", "services": []}}, {"type": "Feature", "geometry": {"type": "Point", "coordinates": ["-119.233453", "50.302828"]}, "properties": {"id": "2352", "name": "Little Arrows Vernon In-Home Multi-Age Child Care", "address": "6650 L & A Rd", "city": "Vernon", "phone": "250-307-5636", "services": []}}, {"type": "Feature", "geometry": {"type": "Point", "coordinates": ["-117.66458", "49.326451"]}, "properties": {"id": "2358", "name": "Sweet Beginnings Childcare Center", "address": "1102 3Rd St", "city": "Castlegar", "phone": "778-460-0123", "services": [1, 2]}}, {"type": "Feature", "geometry": {"type": "Point", "coordinates": ["-115.777188", "49.566267"]}, "properties": {"id": "2359", "name": "Miss B's Family Daycare", "address": "5372 Hwy 95A", "city": "Cranbrook", "phone": "250-417-9501", "services": [0, 1]}}, {"type": "Feature", "geometry": {"type": "Point", "coordinates": ["-114.926666", "50.005627"]}, "properties": {"id": "2364", "name": "Curious Cubs Early Learning Centre", "address": "2-2200 Balmer Dr", "city": "Elkford", "phone": "705-205-0822", "services": [0, 1]}}, {"type": "Feature", "geometry": {"type": "Point", "coordinates": ["-119.689688", "50.819283"]}, "properties": {"id": "2365", "name": "Growing Minds Before & After School Care", "address": "642 A Shuswap Ave", "city": "Chase", "phone": "778-347-1405", "services": []}}, {"type": "Feature", "geometry": {"type": "Point", "coordinates": ["-122.145449", "52.142094"]}, "properties": {"id": "2366", "name": "Inez's Daycare", "address": "782 mcdougal St", "city": "Williams Lake", "phone": "778-961-0263", "services": []}}, {"type": "Feature", "geometry": {"type": "Point", "coordinates": ["-117.804619", "50.243903"]}, "properties": {"id": "2367", "name": "Nakusp Early Learning And Child Care Centre", "address": "619A 4Th St Nw", "city": "Nakusp", "phone": "250-265-3638", "services": []}}, {"type": "Feature", "geometry": {"type": "Point", "coordinates": ["-114.89365", "49.746695"]}, "properties": {"id": "2368", "name": "Megan's Ll Sparwood Kid's Corp", "address": "102-1290 Ponderosa Dr", "city": "Sparwood", "phone": "778-518-2033", "services": []}}, {"type": "Feature", "geometry": {"type": "Point", "coordinates": ["-119.45191", "49.86049"]}, "properties": {"id": "2369", "name": "Village Childcare", "address": "1959 K. L. O. Rd", "city": "Kelowna", "phone": "250-300-5498", "services": []}}, {"type": "Feature", "geometry": {"type": "Point", "coordinates": ["-119.394222", "49.875255"]}, "properties": {"id": "2375", "name": "Icando Child Care Centre", "address": "435 Monterey Rd", "city": "Kelowna", "phone": "604-600-2784", "services": [0, 1]}}, {"type": "Feature", "geometry": {"type": "Point", "coordinates": ["-119.609279", "49.827801"]}, "properties": {"id": "2376", "name": "Love Bugs Childcare Centre", "address": "3775 Carrall Rd", "city": "West Kelowna", "phone": "604-328-0125", "services": []}}, {"type": "Feature", "geometry": {"type": "Point", "coordinates": ["-116.041049", "50.499239"]}, "properties": {"id": "2377", "name": "Little Walkers Dayhome", "address": "1490 18Th St", "city": "Invermere", "phone": "867-444-1365", "services": [0, 1, 3]}}, {"type": "Feature", "geometry": {"type": "Point", "coordinates": ["-119.638676", "49.85275"]}, "properties": {"id": "2382", "name": "Essential Learning Center", "address": "2628 Wild Horse Dr", "city": "West Kelowna", "phone": "250-681-2138", "services": [0, 1, 3]}}, {"type": "Feature", "geometry": {"type": "Point", "coordinates": ["-116.077242", "50.61954"]}, "properties": {"id": "2390", "name": "Rural Roots Early Learning Centre", "address": "7511 Columbia Ave", "city": "Radium Hot Springs", "phone": "250-427-5560", "services": [0, 1]}}, {"type": "Feature", "geometry": {"type": "Point", "coordinates": ["-119.238608", "50.25868"]}, "properties": {"id": "2402", "name": "Kinderfarm Daycare", "address": "2220 Francis St", "city": "Vernon", "phone": "250-503-7775", "services": []}}, {"type": "Feature", "geometry": {"type": "Point", "coordinates": ["-119.6024", "49.496021"]}, "properties": {"id": "2403", "name": "Queen's Park Elementary School", "address": "330 Power St", "city": "Penticton", "phone": "250-770-7680", "services": []}}, {"type": "Feature", "geometry": {"type": "Point", "coordinates": ["-115.054541", "49.457681"]}, "properties": {"id": "2405", "name": "Sweet Peas Daycare", "address": "4707 Cokato Rd", "city": "Fernie", "phone": "250-278-0098", "services": []}}, {"type": "Feature", "geometry": {"type": "Point", "coordinates": ["-119.263918", "50.267273"]}, "properties": {"id": "2411", "name": "Mi Otra Casa Family Daycare", "address": "2-2404 35 Ave", "city": "Vernon", "phone": "250-540-2283", "services": []}}, {"type": "Feature", "geometry": {"type": "Point", "coordinates": ["-119.132963", "50.558028"]}, "properties": {"id": "2414", "name": "Wings & Roots Daycare", "address": "210 Larsen Ave", "city": "Enderby", "phone": "778-215-2547", "services": []}}, {"type": "Feature", "geometry": {"type": "Point", "coordinates": ["-120.381716", "50.702468"]}, "properties": {"id": "2418", "name": "Noah's Ark Daycare", "address": "1550 Tranquille Rd", "city": "Kamloops", "phone": "250-571-2414", "services": []}}, {"type": "Feature", "geometry": {"type": "Point", "coordinates": ["-116.069958", "50.617807"]}, "properties": {"id": "2446", "name": "Tiny Titans Childcare", "address": "3-7585 Main St W", "city": "Radium Hot Springs", "phone": "250-341-5671", "services": [0, 1, 3]}}, {"type": "Feature", "geometry": {"type": "Point", "coordinates": ["-119.655914", "49.839497"]}, "properties": {"id": "2449", "name": "Le Petit Hibou Preschool Society", "address": "3430 Webber Rd", "city": "West Kelowna", "phone": "250-768-7123", "services": []}}, {"type": "Feature", "geometry": {"type": "Point", "coordinates": ["-119.340336", "50.242742"]}, "properties": {"id": "2476", "name": "Okanagan Boys And Girls Club - Lakers Club", "address": "6990 Cummins Rd", "city": "Vernon", "phone": "250-542-3121", "services": []}}, {"type": "Feature", "geometry": {"type": "Point", "coordinates": ["-117.286123", "49.489562"]}, "properties": {"id": "2479", "name": "South Nelson Kidz Klub", "address": "814 Latimer St", "city": "Nelson", "phone": "250-777-3710", "services": []}}, {"type": "Feature", "geometry": {"type": "Point", "coordinates": ["-115.767988", "49.508986"]}, "properties": {"id": "2485", "name": "Kids Club After School Program", "address": "100-125 10Th Ave S", "city": "Cranbrook", "phone": "250-417-9049", "services": []}}, {"type": "Feature", "geometry": {"type": "Point", "coordinates": ["-119.624752", "49.863296"]}, "properties": {"id": "2492", "name": "Patty-Cake Family Childcare", "address": "2572 Crown Crest Dr", "city": "West Kelowna", "phone": "604-961-0785", "services": []}}, {"type": "Feature", "geometry": {"type": "Point", "coordinates": ["-119.285134", "50.229946"]}, "properties": {"id": "2509", "name": "Bright Beginnings", "address": "8703 Lakeview Dr", "city": "Coldstream", "phone": "250-550-6340", "services": []}}, {"type": "Feature", "geometry": {"type": "Point", "coordinates": ["-119.68003", "49.600205"]}, "properties": {"id": "2512", "name": "Making Waves Childcare", "address": "119-12809 Kelly Ave", "city": "Summerland", "phone": "250-328-4083", "services": []}}, {"type": "Feature", "geometry": {"type": "Point", "coordinates": ["-118.196439", "50.986191"]}, "properties": {"id": "2519", "name": "Revelstoke Sunnyside Daycare", "address": "9A-1306 Downie St", "city": "Revelstoke", "phone": "250-534-9321", "services": []}}, {"type": "Feature", "geometry": {"type": "Point", "coordinates": ["-119.48135", "49.898732"]}, "properties": {"id": "2522", "name": "Grasshoppers Childcare Centre", "address": "907 Ethel St", "city": "Kelowna", "phone": "250-717-7631", "services": []}}, {"type": "Feature", "geometry": {"type": "Point", "coordinates": ["-119.231142", "50.22402"]}, "properties": {"id": "2528", "name": "Maven Lane Coldstream", "address": "9909 Kalamalka Rd", "city": "Coldstream", "phone": "250-558-9963", "services": [0, 1, 3]}}, {"type": "Feature", "geometry": {"type": "Point", "coordinates": ["-119.652928", "49.598524"]}, "properties": {"id": "2530", "name": "The Learning Cove", "address": "5505 Butler St", "city": "Summerland", "phone": "647-677-7739", "services": [1]}}, {"type": "Feature", "geometry": {"type": "Point", "coordinates": ["-118.973347", "50.836984"]}, "properties": {"id": "2536", "name": "Nurture And Grow Childcare", "address": "710 Whitehead St", "city": "Sicamous", "phone": "403-598-2982", "services": []}}, {"type": "Feature", "geometry": {"type": "Point", "coordinates": ["-119.299119", "50.261123"]}, "properties": {"id": "2542", "name": "Cocomelon Learning Centre 27Th Ave", "address": "4405 27 Ave", "city": "Vernon", "phone": "306-471-4567", "services": []}}, {"type": "Feature", "geometry": {"type": "Point", "coordinates": ["-114.923445", "50.024759"]}, "properties": {"id": "2549", "name": "Elkford Childcare Centre", "address": "816A Michel Rd", "city": "Elkford", "phone": "250-425-5125", "services": [0, 1, 3]}}, {"type": "Feature", "geometry": {"type": "Point", "coordinates": ["-115.063776", "49.504521"]}, "properties": {"id": "2550", "name": "Wild Wapiti Playschool Society", "address": "521 4Th Ave", "city": "Fernie", "phone": "250-278-9200", "services": [0, 1]}}, {"type": "Feature", "geometry": {"type": "Point", "coordinates": ["-119.582994", "49.842691"]}, "properties": {"id": "2561", "name": "Presidential Kids Academy Childcare Centre Inc.", "address": "1602 Vineyard Dr", "city": "West Kelowna", "phone": "250-308-7722", "services": [0, 1, 3]}}, {"type": "Feature", "geometry": {"type": "Point", "coordinates": ["-119.560965", "49.179698"]}, "properties": {"id": "2564", "name": "Modern Day Mommy Daycare", "address": "842 Stemwinder Ave", "city": "Oliver", "phone": "250-689-2013", "services": []}}, {"type": "Feature", "geometry": {"type": "Point", "coordinates": ["-119.475833", "49.877308"]}, "properties": {"id": "2570", "name": "Precious Jewels Childcare Infant Toddler Program", "address": "1130 Springfield Rd", "city": "Kelowna", "phone": "250-899-7671", "services": []}}, {"type": "Feature", "geometry": {"type": "Point", "coordinates": ["-116.512525", "49.102751"]}, "properties": {"id": "2572", "name": "Adorable Smile Family Childcare", "address": "1017 Ibbitson St", "city": "Creston", "phone": "250-254-7163", "services": [0, 1]}}, {"type": "Feature", "geometry": {"type": "Point", "coordinates": ["-115.788902", "49.51125"]}, "properties": {"id": "2578", "name": "Sweet Pea Dayhome", "address": "39-700 Patterson St W", "city": "Cranbrook", "phone": "250-421-4281", "services": [0, 1, 3]}}, {"type": "Feature", "geometry": {"type": "Point", "coordinates": ["-120.409889", "50.708445"]}, "properties": {"id": "2580", "name": "Toddler Town Family Daycare", "address": "2265 Bonnie Pl", "city": "Kamloops", "phone": "604-360-5643", "services": [0, 1, 3]}}, {"type": "Feature", "geometry": {"type": "Point", "coordinates": ["-118.189344", "50.991623"]}, "properties": {"id": "2582", "name": "Toon Town", "address": "727 Fourth St E", "city": "Revelstoke", "phone": "204-485-3062", "services": []}}, {"type": "Feature", "geometry": {"type": "Point", "coordinates": ["-119.400416", "49.941961"]}, "properties": {"id": "2583", "name": "ubc Okanagan Campus Child Care - Heritage Site", "address": "1262 Discovery Ave", "city": "Kelowna", "phone": "250-807-9703", "services": []}}, {"type": "Feature", "geometry": {"type": "Point", "coordinates": ["-115.765198", "49.511239"]}, "properties": {"id": "2588", "name": "Momentum Childcare", "address": "21 12Th Ave S", "city": "Cranbrook", "phone": "250-417-7708", "services": []}}, {"type": "Feature", "geometry": {"type": "Point", "coordinates": ["-119.475046", "49.864546"]}, "properties": {"id": "2598", "name": "Creative Play And Pre K Raymer", "address": "1195 Raymer Ave", "city": "Kelowna", "phone": "778-484-3400", "services": []}}, {"type": "Feature", "geometry": {"type": "Point", "coordinates": ["-116.51309", "49.089684"]}, "properties": {"id": "2608", "name": "Berry Patch Daycare", "address": "617 11 Ave S", "city": "Creston", "phone": "250-254-3015", "services": [1]}}, {"type": "Feature", "geometry": {"type": "Point", "coordinates": ["-120.775529", "50.10357"]}, "properties": {"id": "2614", "name": "Diamond Vale Elementary School", "address": "2675 Coldwater Ave", "city": "Merritt", "phone": "250-378-2514", "services": []}}, {"type": "Feature", "geometry": {"type": "Point", "coordinates": ["-119.477485", "49.803301"]}, "properties": {"id": "2627", "name": "Babies 'N' Tots Daycare", "address": "5031 Windsong Cres", "city": "Kelowna", "phone": "306-502-5222", "services": []}}, {"type": "Feature", "geometry": {"type": "Point", "coordinates": ["-117.290471", "49.48034"]}, "properties": {"id": "2631", "name": "Little Kootenay Sprouts Daycare", "address": "1721 Creek St", "city": "Nelson", "phone": "250-505-5512", "services": []}}, {"type": "Feature", "geometry": {"type": "Point", "coordinates": ["-119.24778", "50.273598"]}, "properties": {"id": "2644", "name": "Happy Days Dayhome", "address": "4105 12 St", "city": "Vernon", "phone": "250-549-0693", "services": []}}, {"type": "Feature", "geometry": {"type": "Point", "coordinates": ["-119.827296", "49.199667"]}, "properties": {"id": "2649", "name": "Little Lambs Playhouse Day Care", "address": "1224 Sykes Cres", "city": "Keremeos", "phone": "778-836-2894", "services": []}}, {"type": "Feature", "geometry": {"type": "Point", "coordinates": ["-119.483957", "49.818851"]}, "properties": {"id": "2650", "name": "Okanagan Mission ymca Child Care", "address": "4548 Gordon Dr", "city": "Kelowna", "phone": "250-491-8674", "services": []}}, {"type": "Feature", "geometry": {"type": "Point", "coordinates": ["-119.201485", "50.44999"]}, "properties": {"id": "2652", "name": "Highland Park Elementary - Just B4", "address": "3200 Wood Ave", "city": "Armstrong", "phone": "778-898-8179", "services": []}}, {"type": "Feature", "geometry": {"type": "Point", "coordinates": ["-119.266865", "50.266415"]}, "properties": {"id": "2654", "name": "Ecole Bearisto Elementary", "address": "3302 27 St", "city": "Vernon", "phone": "250-260-4490", "services": []}}, {"type": "Feature", "geometry": {"type": "Point", "coordinates": ["-119.683643", "49.600379"]}, "properties": {"id": "2658", "name": "Sbc Kids Preschool", "address": "Room 27-10318 Elliott St", "city": "Summerland", "phone": "250-494-3881", "services": []}}, {"type": "Feature", "geometry": {"type": "Point", "coordinates": ["-119.675598", "49.605156"]}, "properties": {"id": "2670", "name": "Little Chicks Early Learning Society", "address": "9105 Peach Orchard Rd", "city": "Summerland", "phone": "250-494-1200", "services": []}}, {"type": "Feature", "geometry": {"type": "Point", "coordinates": ["-120.313184", "50.800563"]}, "properties": {"id": "2678", "name": "Strawberry Lane Family Childcare", "address": "4697 Strawberry Lane", "city": "Kamloops", "phone": "780-394-1329", "services": []}}, {"type": "Feature", "geometry": {"type": "Point", "coordinates": ["-118.200599", "50.997295"]}, "properties": {"id": "2683", "name": "Rass 600 Campbell Ave", "address": "600 Campbell Ave", "city": "Revelstoke", "phone": "250-683-8663", "services": []}}, {"type": "Feature", "geometry": {"type": "Point", "coordinates": ["-119.264491", "50.275821"]}, "properties": {"id": "2686", "name": "Tiny Adventures Daycare Center", "address": "4310 25 St", "city": "Vernon", "phone": "250-540-7990", "services": [0]}}, {"type": "Feature", "geometry": {"type": "Point", "coordinates": ["-122.123447", "52.099864"]}, "properties": {"id": "2690", "name": "Mama Bear's After School Care", "address": "1222 Dog Creek Rd", "city": "Williams Lake", "phone": "250-267-2012", "services": [2, 3]}}, {"type": "Feature", "geometry": {"type": "Point", "coordinates": ["-120.33389", "50.773855"]}, "properties": {"id": "2692", "name": "Blooming Butterflies", "address": "628 Sun Valley Dr", "city": "Kamloops", "phone": "250-572-6853", "services": []}}, {"type": "Feature", "geometry": {"type": "Point", "coordinates": ["-118.44107", "49.023543"]}, "properties": {"id": "2694", "name": "Cowlicks & Pigtails Family Daycare", "address": "6550 Como St", "city": "Grand Forks", "phone": "604-798-0590", "services": []}}, {"type": "Feature", "geometry": {"type": "Point", "coordinates": ["-119.566606", "49.470736"]}, "properties": {"id": "2701", "name": "Onesky Wiltse Childcare Center", "address": "640 Wiltse Blvd", "city": "Penticton", "phone": "250-485-8969", "services": []}}, {"type": "Feature", "geometry": {"type": "Point", "coordinates": ["-119.476026", "50.878407"]}, "properties": {"id": "2709", "name": "Sorrento Preschool", "address": "1148 Passchendaele Rd", "city": "Sorrento", "phone": "250-515-4682", "services": []}}, {"type": "Feature", "geometry": {"type": "Point", "coordinates": ["-119.196292", "50.448389"]}, "properties": {"id": "2720", "name": "Kidspace Learning Centres Armstrong Inc. Wood Ave", "address": "2905 Wood Ave", "city": "Armstrong", "phone": "604-380-4060", "services": []}}, {"type": "Feature", "geometry": {"type": "Point", "coordinates": ["-119.37046", "50.110215"]}, "properties": {"id": "2724", "name": "Joc\u2019S House", "address": "4643 Young Rd", "city": "Lake Country", "phone": "250-548-4011", "services": []}}, {"type": "Feature", "geometry": {"type": "Point", "coordinates": ["-119.733629", "49.787697"]}, "properties": {"id": "2731", "name": "Tiny Peach Learning Center Inc.", "address": "4637 Ponderosa Dr", "city": "Peachland", "phone": "780-678-5526", "services": []}}, {"type": "Feature", "geometry": {"type": "Point", "coordinates": ["-119.585934", "49.838756"]}, "properties": {"id": "2733", "name": "New Horizons Childcare", "address": "3488 Ridge Blvd", "city": "West Kelowna", "phone": "250-488-1246", "services": []}}, {"type": "Feature", "geometry": {"type": "Point", "coordinates": ["-119.222974", "50.289374"]}, "properties": {"id": "2738", "name": "Bx Elementary School", "address": "5849 Silver Star Rd", "city": "Vernon", "phone": "250-260-4490", "services": []}}, {"type": "Feature", "geometry": {"type": "Point", "coordinates": ["-117.722025", "49.097207"]}, "properties": {"id": "2748", "name": "Austad Early Learning", "address": "476 Austad Lane", "city": "Trail", "phone": "250-727-5657", "services": []}}, {"type": "Feature", "geometry": {"type": "Point", "coordinates": ["-118.961239", "50.251592"]}, "properties": {"id": "2749", "name": "Little Critters", "address": "2250 Shields Ave", "city": "Lumby", "phone": "250-547-0005", "services": []}}, {"type": "Feature", "geometry": {"type": "Point", "coordinates": ["-119.633632", "49.827951"]}, "properties": {"id": "2752", "name": "Presidential Kids Academy Childcare Centre - Hebert", "address": "2547 Hebert Rd", "city": "West Kelowna", "phone": "778-721-8162", "services": [0, 1]}}, {"type": "Feature", "geometry": {"type": "Point", "coordinates": ["-119.476317", "49.891415"]}, "properties": {"id": "2776", "name": "Thrive Out Of School Care - Glenmore", "address": "1305 Gordon Dr", "city": "Kelowna", "phone": "250-826-5436", "services": []}}, {"type": "Feature", "geometry": {"type": "Point", "coordinates": ["-119.404531", "49.890536"]}, "properties": {"id": "2782", "name": "Flex Academy Early Learning Center", "address": "905 Badke Rd", "city": "Kelowna", "phone": "250-862-2377", "services": []}}, {"type": "Feature", "geometry": {"type": "Point", "coordinates": ["-116.005122", "49.689238"]}, "properties": {"id": "2783", "name": "Small Batch Family Care", "address": "500 Stemwinder Dr", "city": "Kimberley", "phone": "825-823-5017", "services": [1]}}, {"type": "Feature", "geometry": {"type": "Point", "coordinates": ["-122.117907", "52.125935"]}, "properties": {"id": "2785", "name": "Maranatha Minis Daycare", "address": "1278 Lakeview Cres", "city": "Williams Lake", "phone": "250-302-9202", "services": [1, 3]}}, {"type": "Feature", "geometry": {"type": "Point", "coordinates": ["-117.652055", "49.267091"]}, "properties": {"id": "2786", "name": "Wee Folk Early Learning", "address": "3600 9Th Ave", "city": "Castlegar", "phone": "250-608-8525", "services": []}}, {"type": "Feature", "geometry": {"type": "Point", "coordinates": ["-120.355559", "50.7534"]}, "properties": {"id": "2804", "name": "Inside Outside Upside Down Before And After School Care", "address": "886 Morven Pl", "city": "Kamloops", "phone": "250-299-7730", "services": [3]}}, {"type": "Feature", "geometry": {"type": "Point", "coordinates": ["-119.258687", "50.276459"]}, "properties": {"id": "2817", "name": "Harwood Elementary School", "address": "4320 20 St", "city": "Vernon", "phone": "250-260-4490", "services": []}}, {"type": "Feature", "geometry": {"type": "Point", "coordinates": ["-119.31447", "50.250599"]}, "properties": {"id": "2818", "name": "Ellison Elementary School", "address": "2400 Fulton Rd", "city": "Vernon", "phone": "250-260-4490", "services": []}}, {"type": "Feature", "geometry": {"type": "Point", "coordinates": ["-119.282755", "50.253942"]}, "properties": {"id": "2819", "name": "Mission Hill Elementary School", "address": "1510 36 St", "city": "Vernon", "phone": "250-260-4490", "services": []}}, {"type": "Feature", "geometry": {"type": "Point", "coordinates": ["-119.279216", "50.273967"]}, "properties": {"id": "2820", "name": "Alexis Park Elementary", "address": "4205 35 St", "city": "Vernon", "phone": "250-260-4490", "services": [2]}}, {"type": "Feature", "geometry": {"type": "Point", "coordinates": ["-119.105124", "50.231206"]}, "properties": {"id": "2821", "name": "Lavington Elementary School", "address": "9715 School Rd", "city": "Coldstream", "phone": "250-260-4490", "services": []}}, {"type": "Feature", "geometry": {"type": "Point", "coordinates": ["-119.279216", "50.273967"]}, "properties": {"id": "2823", "name": "Okanagan Boys And Girls Clubs- Alexis Park", "address": "4205 35 St", "city": "Vernon", "phone": "250-542-3121", "services": []}}, {"type": "Feature", "geometry": {"type": "Point", "coordinates": ["-119.282755", "50.253942"]}, "properties": {"id": "2824", "name": "Okanagan Boys And Girls Clubs - Mission Hill", "address": "1510 36 St", "city": "Vernon", "phone": "250-542-3121", "services": []}}, {"type": "Feature", "geometry": {"type": "Point", "coordinates": ["-119.258687", "50.276459"]}, "properties": {"id": "2825", "name": "Okanagan Boys And Girls Clubs - Harwood", "address": "4320 20 St", "city": "Vernon", "phone": "250-542-3121", "services": []}}, {"type": "Feature", "geometry": {"type": "Point", "coordinates": ["-119.62939", "49.829862"]}, "properties": {"id": "2826", "name": "Bgco - Lions Hall", "address": "2466 Main St", "city": "West Kelowna", "phone": "250-762-3914", "services": []}}, {"type": "Feature", "geometry": {"type": "Point", "coordinates": ["-119.31447", "50.250599"]}, "properties": {"id": "2827", "name": "Okanagan Boys And Girls Clubs - Ellison", "address": "2400 Fulton Rd", "city": "Vernon", "phone": "250-542-3121", "services": []}}, {"type": "Feature", "geometry": {"type": "Point", "coordinates": ["-119.384717", "49.954305"]}, "properties": {"id": "2836", "name": "Kelowna Airport ymca Child Care Centre", "address": "190 Convair Pl", "city": "Kelowna", "phone": "250-491-8674", "services": []}}, {"type": "Feature", "geometry": {"type": "Point", "coordinates": ["-119.562703", "49.862869"]}, "properties": {"id": "2857", "name": "Ohana Academy Inc. West Kelowna", "address": "1162 Hudson Rd", "city": "West Kelowna", "phone": "250-469-4266", "services": [1]}}, {"type": "Feature", "geometry": {"type": "Point", "coordinates": ["-119.538403", "49.186397"]}, "properties": {"id": "2858", "name": "Rosemary's Garden Childcare", "address": "915 Eastside Ave", "city": "Oliver", "phone": "250-870-6340", "services": []}}, {"type": "Feature", "geometry": {"type": "Point", "coordinates": ["-120.312429", "50.805039"]}, "properties": {"id": "2860", "name": "Tiny Stars Early Learning", "address": "4960 Pinantan Pl", "city": "Kamloops", "phone": "250-320-9803", "services": [0, 1]}}, {"type": "Feature", "geometry": {"type": "Point", "coordinates": ["-120.287934", "50.675503"]}, "properties": {"id": "2863", "name": "Ilm - Ralph Bell", "address": "1780 Valleyview Dr", "city": "Kamloops", "phone": "250-585-7898", "services": []}}, {"type": "Feature", "geometry": {"type": "Point", "coordinates": ["-119.397288", "50.045283"]}, "properties": {"id": "2864", "name": "Bright Lights Child Care Center", "address": "11220 Reiswig Rd", "city": "Lake Country", "phone": "250-859-9641", "services": [1]}}, {"type": "Feature", "geometry": {"type": "Point", "coordinates": ["-119.58855", "49.846666"]}, "properties": {"id": "2885", "name": "Hello Mellow Daycare", "address": "3170 Riesling Way", "city": "West Kelowna", "phone": "250-826-2291", "services": []}}, {"type": "Feature", "geometry": {"type": "Point", "coordinates": ["-119.556509", "49.185631"]}, "properties": {"id": "2894", "name": "Little Sprouts Daycare", "address": "841 Bing Ave", "city": "Oliver", "phone": "250-485-2053", "services": [0, 1, 3]}}, {"type": "Feature", "geometry": {"type": "Point", "coordinates": ["-116.51309", "49.089684"]}, "properties": {"id": "2896", "name": "Grizzly Bear Out Of School Care", "address": "617 11 Ave S", "city": "Creston", "phone": "250-402-0068", "services": []}}, {"type": "Feature", "geometry": {"type": "Point", "coordinates": ["-118.450441", "49.03046"]}, "properties": {"id": "2900", "name": "Seamless Day K Before And After School Childcare Program", "address": "1200 Central Ave", "city": "Grand Forks", "phone": "250-442-2135", "services": []}}, {"type": "Feature", "geometry": {"type": "Point", "coordinates": ["-118.961239", "50.251592"]}, "properties": {"id": "2902", "name": "Kids Space After School Program", "address": "2250 Shields Ave", "city": "Lumby", "phone": "250-547-8866", "services": []}}, {"type": "Feature", "geometry": {"type": "Point", "coordinates": ["-120.35474", "50.637213"]}, "properties": {"id": "2913", "name": "Ideal Learning Centre - Ideal Kids", "address": "2329 Drummond Court", "city": "Kamloops", "phone": "250-879-3001", "services": []}}, {"type": "Feature", "geometry": {"type": "Point", "coordinates": ["-120.129281", "51.177966"]}, "properties": {"id": "2940", "name": "Barriere Elementary Childcare", "address": "4475 Airfield Rd", "city": "Barriere", "phone": "250-376-2266", "services": []}}, {"type": "Feature", "geometry": {"type": "Point", "coordinates": ["-120.352417", "50.670087"]}, "properties": {"id": "2941", "name": "Beattie Just B4 Preschool", "address": "492 mcgill Rd", "city": "Kamloops", "phone": "250-376-2266", "services": []}}, {"type": "Feature", "geometry": {"type": "Point", "coordinates": ["-120.256406", "50.676134"]}, "properties": {"id": "2942", "name": "Marion Schilling Childcare", "address": "2200 Park Dr", "city": "Kamloops", "phone": "250-376-2266", "services": []}}, {"type": "Feature", "geometry": {"type": "Point", "coordinates": ["-120.009369", "51.649"]}, "properties": {"id": "2943", "name": "Raft River Childcare", "address": "801 Clearwater Village Rd", "city": "Clearwater", "phone": "250-376-2266", "services": []}}, {"type": "Feature", "geometry": {"type": "Point", "coordinates": ["-119.483507", "49.824351"]}, "properties": {"id": "2949", "name": "Jungle Explorers", "address": "4372 Gordon Dr", "city": "Kelowna", "phone": "250-575-8070", "services": []}}, {"type": "Feature", "geometry": {"type": "Point", "coordinates": ["-119.829075", "49.205742"]}, "properties": {"id": "2957", "name": "Maples Academy Keremeos", "address": "1-607 4Th St", "city": "Keremeos", "phone": "604-445-8975", "services": [0, 1]}}, {"type": "Feature", "geometry": {"type": "Point", "coordinates": ["-119.351991", "50.943025"]}, "properties": {"id": "2972", "name": "North Shuswap Child Care", "address": "5295 Squilax-Anglemont Rd", "city": "Celista", "phone": "250-265-8597", "services": [2, 3]}}, {"type": "Feature", "geometry": {"type": "Point", "coordinates": ["-117.695599", "49.0975"]}, "properties": {"id": "2980", "name": "Noke Childcare", "address": "1958 Fourth Ave", "city": "Trail", "phone": "250-921-6440", "services": []}}, {"type": "Feature", "geometry": {"type": "Point", "coordinates": ["-119.5543", "49.860179"]}, "properties": {"id": "2982", "name": "Sofia\u2019S Academy", "address": "951 Anders Rd", "city": "West Kelowna", "phone": "250-864-4842", "services": [0, 1, 3]}}, {"type": "Feature", "geometry": {"type": "Point", "coordinates": ["-119.867791", "50.883183"]}, "properties": {"id": "2990", "name": "Sun Peaks Community Daycare", "address": "5036 Valley Dr", "city": "Sun Peaks", "phone": "250-318-1641", "services": []}}, {"type": "Feature", "geometry": {"type": "Point", "coordinates": ["-119.766284", "49.758964"]}, "properties": {"id": "2993", "name": "Presidential Kids Academy Childcare Centre - Haker", "address": "6208 Haker Pl", "city": "Peachland", "phone": "778-721-8162", "services": [0, 1]}}, {"type": "Feature", "geometry": {"type": "Point", "coordinates": ["-119.399941", "49.852905"]}, "properties": {"id": "3003", "name": "Mama Bear Family Daycare", "address": "3680 Reekie Rd", "city": "Kelowna", "phone": "778-598-8689", "services": [0, 1, 3]}}, {"type": "Feature", "geometry": {"type": "Point", "coordinates": ["-115.76527", "49.5018"]}, "properties": {"id": "3007", "name": "Lil Bloomers Daycare", "address": "517 12Th Ave S", "city": "Cranbrook", "phone": "250-421-7750", "services": []}}, {"type": "Feature", "geometry": {"type": "Point", "coordinates": ["-116.97638", "51.296419"]}, "properties": {"id": "3019", "name": "Tracey's Family Day Care", "address": "507 9Th St S", "city": "Golden", "phone": "250-344-6866", "services": []}}, {"type": "Feature", "geometry": {"type": "Point", "coordinates": ["-119.364143", "49.905321"]}, "properties": {"id": "3028", "name": "Mother's Care", "address": "1290 Gibson Rd", "city": "Kelowna", "phone": "250-801-6380", "services": [1]}}, {"type": "Feature", "geometry": {"type": "Point", "coordinates": ["-120.090537", "51.644794"]}, "properties": {"id": "3039", "name": "Apple Garden Daycare", "address": "156 Wadlegger Rd", "city": "Clearwater", "phone": "250-674-1392", "services": []}}, {"type": "Feature", "geometry": {"type": "Point", "coordinates": ["-119.291952", "50.26223"]}, "properties": {"id": "3052", "name": "Okanagan Sunshower Academy", "address": "2702 41 St", "city": "Vernon", "phone": "250-540-3376", "services": [0, 1, 3]}}, {"type": "Feature", "geometry": {"type": "Point", "coordinates": ["-119.436812", "49.860231"]}, "properties": {"id": "3060", "name": "Creative Play And Pre K Hall Rd", "address": "3466 Hall Rd", "city": "Kelowna", "phone": "250-681-7116", "services": []}}, {"type": "Feature", "geometry": {"type": "Point", "coordinates": ["-119.432071", "49.900169"]}, "properties": {"id": "3062", "name": "Garderie Les Petits Dauphins", "address": "2305 Lillooet Cres", "city": "Kelowna", "phone": "250-864-1510", "services": [0]}}, {"type": "Feature", "geometry": {"type": "Point", "coordinates": ["-116.032873", "50.510252"]}, "properties": {"id": "3066", "name": "Bright New Minds Child Care Society", "address": "320 10Th Ave", "city": "Invermere", "phone": "250-341-6224", "services": [0, 1]}}, {"type": "Feature", "geometry": {"type": "Point", "coordinates": ["-117.546667", "49.108735"]}, "properties": {"id": "3074", "name": "Beaver Valley Childcare Centre", "address": "1792 Columbia Gardens", "city": "Fruitvale", "phone": "778-459-3300", "services": []}}, {"type": "Feature", "geometry": {"type": "Point", "coordinates": ["-119.351163", "49.860973"]}, "properties": {"id": "3083", "name": "Capable Kids Preschool", "address": "2151 Verde Vista Rd", "city": "Kelowna", "phone": "604-441-4419", "services": [2]}}, {"type": "Feature", "geometry": {"type": "Point", "coordinates": ["-119.273197", "50.699443"]}, "properties": {"id": "3087", "name": "Dayhome Friends Care", "address": "60 10 St Se", "city": "Salmon Arm", "phone": "250-803-2282", "services": []}}, {"type": "Feature", "geometry": {"type": "Point", "coordinates": ["-114.925964", "50.005492"]}, "properties": {"id": "3090", "name": "Alpine Childcare Solutions Ltd.", "address": "2100 Balmer Dr", "city": "Elkford", "phone": "250-433-1336", "services": [3]}}, {"type": "Feature", "geometry": {"type": "Point", "coordinates": ["-119.390014", "49.877782"]}, "properties": {"id": "3095", "name": "Little Treasures Daycare", "address": "3048 Springfield Rd", "city": "Kelowna", "phone": "250-317-3671", "services": [0, 1, 3]}}, {"type": "Feature", "geometry": {"type": "Point", "coordinates": ["-119.492536", "49.817981"]}, "properties": {"id": "3099", "name": "Bloom Early Learning", "address": "559 Mcclure Rd", "city": "Kelowna", "phone": "587-580-8044", "services": [1]}}, {"type": "Feature", "geometry": {"type": "Point", "coordinates": ["-119.650306", "49.830955"]}, "properties": {"id": "3103", "name": "Gateway Early Learning Centre", "address": "2829 Inverness Rd", "city": "West Kelowna", "phone": "250-768-3614", "services": [3]}}, {"type": "Feature", "geometry": {"type": "Point", "coordinates": ["-119.467551", "49.878077"]}, "properties": {"id": "3108", "name": "Occa Child Care Centre", "address": "1460 Inkar Rd", "city": "Kelowna", "phone": "778-484-6222", "services": [2, 3]}}, {"type": "Feature", "geometry": {"type": "Point", "coordinates": ["-119.648518", "49.835582"]}, "properties": {"id": "3109", "name": "Ms Sue's Daycare", "address": "3545 Dunbarton Rd", "city": "West Kelowna", "phone": "250-863-4616", "services": [0, 1, 3]}}, {"type": "Feature", "geometry": {"type": "Point", "coordinates": ["-119.357814", "49.870165"]}, "properties": {"id": "3113", "name": "Little Explorer's Learning Centre", "address": "1470 Feedham Ave", "city": "Kelowna", "phone": "778-220-8000", "services": [0, 1]}}, {"type": "Feature", "geometry": {"type": "Point", "coordinates": ["-119.432903", "49.886339"]}, "properties": {"id": "3134", "name": "Vista Academy", "address": "201-2333 Hunter Rd", "city": "Kelowna", "phone": "250-300-0763", "services": [3]}}, {"type": "Feature", "geometry": {"type": "Point", "coordinates": ["-119.364994", "49.9575"]}, "properties": {"id": "3136", "name": "Willow Acre Daycare", "address": "5191 Whelan Rd", "city": "Kelowna", "phone": "250-808-0037", "services": [0, 1]}}, {"type": "Feature", "geometry": {"type": "Point", "coordinates": ["-119.665067", "49.830955"]}, "properties": {"id": "3139", "name": "Presidential Kids Academy Childcare Centre - Mciver", "address": "3660 Mciver Rd", "city": "West Kelowna", "phone": "778-721-8162", "services": [0]}}, {"type": "Feature", "geometry": {"type": "Point", "coordinates": ["-120.386288", "50.698762"]}, "properties": {"id": "3146", "name": "Ilm - Happyvale", "address": "1640A & 1640B Happyvale Ave", "city": "Kamloops", "phone": "250-585-7898", "services": []}}, {"type": "Feature", "geometry": {"type": "Point", "coordinates": ["-120.403074", "50.699858"]}, "properties": {"id": "3147", "name": "Ilm - Windbreakers", "address": "2060 Pala Mesa Pl", "city": "Kamloops", "phone": "250-585-7898", "services": []}}, {"type": "Feature", "geometry": {"type": "Point", "coordinates": ["-119.489996", "49.861754"]}, "properties": {"id": "3176", "name": "Coast To Coast Educare - Klo Campus", "address": "205-595 K.L.O. Rd", "city": "Kelowna", "phone": "250-808-5007", "services": []}}, {"type": "Feature", "geometry": {"type": "Point", "coordinates": ["-120.39474", "50.700142"]}, "properties": {"id": "3178", "name": "Parasol - Early Years Learning - 6", "address": "1800 Tranquille Rd", "city": "Kamloops", "phone": "250-299-3682", "services": []}}, {"type": "Feature", "geometry": {"type": "Point", "coordinates": ["-119.379898", "49.900705"]}, "properties": {"id": "3192", "name": "Jumping Jack Childcare Limited", "address": "399 Fizet Ave", "city": "Kelowna", "phone": "236-338-0451", "services": [0, 1, 3]}}, {"type": "Feature", "geometry": {"type": "Point", "coordinates": ["-119.403675", "49.884659"]}, "properties": {"id": "3200", "name": "The Gathering Place Early Years Center Ltd.", "address": "875 Hollydell Rd", "city": "Kelowna", "phone": "250-863-6565", "services": []}}, {"type": "Feature", "geometry": {"type": "Point", "coordinates": ["-119.562425", "49.879991"]}, "properties": {"id": "3207", "name": "Sunview Early Learning Centre", "address": "2058 Sunview Dr", "city": "West Kelowna", "phone": "250-299-4587", "services": []}}, {"type": "Feature", "geometry": {"type": "Point", "coordinates": ["-120.48889", "49.46806"]}, "properties": {"id": "3214", "name": "Little Seeds Early Learning Centre Inc.", "address": "201 Old Merrit Rd", "city": "Princeton", "phone": "250-273-0432", "services": []}}, {"type": "Feature", "geometry": {"type": "Point", "coordinates": ["-120.335465", "50.674444"]}, "properties": {"id": "3219", "name": "Sunny Hills Montessori Infant And Toddlers", "address": "249 Seymour Street", "city": "Kamloops", "phone": "250-377-0775", "services": []}}, {"type": "Feature", "geometry": {"type": "Point", "coordinates": ["-119.556612", "49.485274"]}, "properties": {"id": "3222", "name": "Leapin Lizard's Daycares Inc. Camelot", "address": "1471 Allison Street", "city": "Penticton", "phone": "250-460-2383", "services": []}}, {"type": "Feature", "geometry": {"type": "Point", "coordinates": ["-120.191449", "50.662083"]}, "properties": {"id": "3227", "name": "Dynamic Kids Centre School Age", "address": "715 Uplands Crt", "city": "Kamloops", "phone": "236-313-4746", "services": [3]}}, {"type": "Feature", "geometry": {"type": "Point", "coordinates": ["-119.273354", "50.240322"]}, "properties": {"id": "3231", "name": "Country Estate Childcare", "address": "246 Country Estate Pl", "city": "Vernon", "phone": "250-641-0421", "services": [0, 1, 3]}}, {"type": "Feature", "geometry": {"type": "Point", "coordinates": ["-119.252309", "50.699153"]}, "properties": {"id": "3233", "name": "Abc Lilypad Kids", "address": "2960 Okanagan Avenue Se", "city": "Salmon Arm", "phone": "250-832-0779", "services": []}}, {"type": "Feature", "geometry": {"type": "Point", "coordinates": ["-117.289544", "49.51125"]}, "properties": {"id": "3239", "name": "Nelson Community Preschool", "address": "570 Johnstone Rd", "city": "Nelson", "phone": "250-352-0526", "services": []}}, {"type": "Feature", "geometry": {"type": "Point", "coordinates": ["-119.35965", "49.860451"]}, "properties": {"id": "3256", "name": "Young Stars Childcare (Kelowna)", "address": "2-2180 Cortina Dr", "city": "Kelowna", "phone": "604-889-0795", "services": [0, 1]}}, {"type": "Feature", "geometry": {"type": "Point", "coordinates": ["-120.34836", "50.68912"]}, "properties": {"id": "3258", "name": "Little Desert Dinos Early Learning Centre", "address": "225 Cypress Ave", "city": "Kamloops", "phone": "778-257-9604", "services": [0, 1]}}, {"type": "Feature", "geometry": {"type": "Point", "coordinates": ["-119.491656", "49.88665"]}, "properties": {"id": "3270", "name": "Produckidvity Academy - Bernard", "address": "1499 St. Paul St", "city": "Kelowna", "phone": "778-214-7406", "services": []}}, {"type": "Feature", "geometry": {"type": "Point", "coordinates": ["-119.490613", "49.821687"]}, "properties": {"id": "3278", "name": "Jasmine Early Learning", "address": "4456 Lakeshore Rd", "city": "Kelowna", "phone": "780-340-5805", "services": []}}, {"type": "Feature", "geometry": {"type": "Point", "coordinates": ["-119.435154", "49.831169"]}, "properties": {"id": "3297", "name": "The Farmhouse Family Childcare", "address": "2500 Saucier Rd", "city": "Kelowna", "phone": "604-721-4794", "services": [0, 1]}}, {"type": "Feature", "geometry": {"type": "Point", "coordinates": ["-120.772109", "50.105391"]}, "properties": {"id": "3314", "name": "Bright Beginnings With Sophia", "address": "1875 Menzies St", "city": "Merritt", "phone": "250-819-4408", "services": []}}, {"type": "Feature", "geometry": {"type": "Point", "coordinates": ["-119.40083", "50.031246"]}, "properties": {"id": "3318", "name": "George Elliot ymca Child Care", "address": "10241 Bottom Wood Lake Rd", "city": "Lake Country", "phone": "250-491-8678", "services": []}}, {"type": "Feature", "geometry": {"type": "Point", "coordinates": ["-120.322745", "50.674733"]}, "properties": {"id": "3326", "name": "Seymour Montessori Academy", "address": "753 Seymour St", "city": "Kamloops", "phone": "778-220-9457", "services": []}}, {"type": "Feature", "geometry": {"type": "Point", "coordinates": ["-119.644757", "49.852391"]}, "properties": {"id": "3344", "name": "Little Boho Daycare", "address": "1-2730 Sugosa Pl", "city": "West Kelowna", "phone": "236-785-1734", "services": [0, 1, 3]}}, {"type": "Feature", "geometry": {"type": "Point", "coordinates": ["-119.464784", "49.906351"]}, "properties": {"id": "3354", "name": "Little Jungle Child Care", "address": "11 Caramillo Rd", "city": "Kelowna", "phone": "416-886-1466", "services": [0, 1]}}, {"type": "Feature", "geometry": {"type": "Point", "coordinates": ["-115.781623", "49.501806"]}, "properties": {"id": "3365", "name": "Flourish Childcare", "address": "36 724 Innes Ave S", "city": "Cranbrook", "phone": "250-581-1101", "services": [0, 1, 3]}}, {"type": "Feature", "geometry": {"type": "Point", "coordinates": ["-119.609308", "49.855224"]}, "properties": {"id": "3375", "name": "Possibilities Child Care Center", "address": "2242 Shannon Ridge Dr", "city": "West Kelowna", "phone": "250-768-3841", "services": [0, 1]}}, {"type": "Feature", "geometry": {"type": "Point", "coordinates": ["-119.497101", "49.821974"]}, "properties": {"id": "3380", "name": "Kidzz Early Learning Center-Kelc", "address": "454 Eldorado Rd", "city": "Kelowna", "phone": "778-215-8940", "services": [0, 1, 3]}}, {"type": "Feature", "geometry": {"type": "Point", "coordinates": ["-119.493352", "49.864564"]}, "properties": {"id": "3390", "name": "Kelowna Kids Co.", "address": "439 West Ave", "city": "Kelowna", "phone": "778-392-8432", "services": []}}, {"type": "Feature", "geometry": {"type": "Point", "coordinates": ["-119.417603", "50.048525"]}, "properties": {"id": "3391", "name": "Kelowna Kids Co: Lakewood", "address": "11414 Lakewood Rd", "city": "Lake Country", "phone": "778-392-8432", "services": []}}, {"type": "Feature", "geometry": {"type": "Point", "coordinates": ["-120.376426", "50.70431"]}, "properties": {"id": "3406", "name": "Ae Perry Childcare", "address": "1380 Sherbrooke Ave", "city": "Kamloops", "phone": "250-376-2266", "services": []}}, {"type": "Feature", "geometry": {"type": "Point", "coordinates": ["-119.412073", "50.028726"]}, "properties": {"id": "3409", "name": "Rainbow Kids Learning Playhouse", "address": "10071 Kel-Win Road", "city": "Lake Country", "phone": "250-215-4366", "services": [0, 1, 3]}}, {"type": "Feature", "geometry": {"type": "Point", "coordinates": ["-119.442047", "49.876774"]}, "properties": {"id": "3416", "name": "Coast To Coast Educare Springfield Ltd.", "address": "2139 Springfield Rd", "city": "Kelowna", "phone": "778-940-3040", "services": []}}, {"type": "Feature", "geometry": {"type": "Point", "coordinates": ["-119.58933", "49.493189"]}, "properties": {"id": "3423", "name": "Presidential Kids Academy - Main Street", "address": "696 Main St", "city": "Penticton", "phone": "250-863-0244", "services": [0, 1]}}, {"type": "Feature", "geometry": {"type": "Point", "coordinates": ["-116.960995", "51.296343"]}, "properties": {"id": "3431", "name": "Garderie Les Pagayeurs", "address": "820 11Th Ave S", "city": "Golden", "phone": "604-736-5056", "services": []}}, {"type": "Feature", "geometry": {"type": "Point", "coordinates": ["-119.68843", "50.815381"]}, "properties": {"id": "3432", "name": "Haldane Just B4 Preschool", "address": "530 Cottonwood St", "city": "Chase", "phone": "250-376-2266", "services": []}}, {"type": "Feature", "geometry": {"type": "Point", "coordinates": ["-120.407041", "50.708032"]}, "properties": {"id": "3433", "name": "Parkcrest Elementary Childcare", "address": "2170 Parkcrest Ave", "city": "Kamloops", "phone": "250-376-2266", "services": []}}, {"type": "Feature", "geometry": {"type": "Point", "coordinates": ["-120.368946", "50.727072"]}, "properties": {"id": "3437", "name": "Bloom & Grow Early Learning - Batchelor", "address": "2055 Saddleback Dr", "city": "Kamloops", "phone": "778-220-2636", "services": []}}, {"type": "Feature", "geometry": {"type": "Point", "coordinates": ["-119.44251", "49.876757"]}, "properties": {"id": "3440", "name": "Ohana Academy Inc. Springfield East", "address": "3-2121 Springfield Road", "city": "Kelowna", "phone": "250-317-6406", "services": [0, 1, 2]}}, {"type": "Feature", "geometry": {"type": "Point", "coordinates": ["-119.353247", "49.937199"]}, "properties": {"id": "3441", "name": "The Clubhouse At Ellison - Esquire", "address": "3601 Esquire Rd", "city": "Kelowna", "phone": "250-863-1488", "services": []}}, {"type": "Feature", "geometry": {"type": "Point", "coordinates": ["-115.772785", "49.497177"]}, "properties": {"id": "3454", "name": "Cranbrook's Stay 'N Play Program Association", "address": "1200 5Th Ave S", "city": "Cranbrook", "phone": "250-426-3069", "services": []}}, {"type": "Feature", "geometry": {"type": "Point", "coordinates": ["-120.374535", "50.699457"]}, "properties": {"id": "3456", "name": "Amy's Growing Garden Daycare", "address": "1265 Barrie Dr", "city": "Kamloops", "phone": "778-257-1800", "services": [0, 1]}}, {"type": "Feature", "geometry": {"type": "Point", "coordinates": ["-120.315101", "50.669377"]}, "properties": {"id": "3458", "name": "Bumble And Bean Out-Of-School Program-Dt", "address": "1051 Pine Spring Road", "city": "Kamloops", "phone": "250-319-2013", "services": []}}, {"type": "Feature", "geometry": {"type": "Point", "coordinates": ["-117.787117", "50.239169"]}, "properties": {"id": "3464", "name": "Nurturing Roots Child Care", "address": "372 Hwy 6 S", "city": "Nakusp", "phone": "250-864-8694", "services": [0, 1, 3]}}, {"type": "Feature", "geometry": {"type": "Point", "coordinates": ["-122.144507", "52.101639"]}, "properties": {"id": "3467", "name": "Peas In The Pod Daycare", "address": "114 Gibbon Rd", "city": "Williams Lake", "phone": "604-378-2200", "services": []}}, {"type": "Feature", "geometry": {"type": "Point", "coordinates": ["-119.477593", "49.892268"]}, "properties": {"id": "3477", "name": "Happy Place After-School Care", "address": "1091 Coronation Ave", "city": "Kelowna", "phone": "250-258-1018", "services": [3]}}, {"type": "Feature", "geometry": {"type": "Point", "coordinates": ["-119.38158", "49.88544"]}, "properties": {"id": "3483", "name": "All About Kids Childcare", "address": "346 Holbrook Rd E", "city": "Kelowna", "phone": "250-469-4866", "services": []}}, {"type": "Feature", "geometry": {"type": "Point", "coordinates": ["-119.376876", "49.88609"]}, "properties": {"id": "3488", "name": "Fun And Learn Daycare", "address": "509 Harrop Ave", "city": "Kelowna", "phone": "778-960-7264", "services": []}}, {"type": "Feature", "geometry": {"type": "Point", "coordinates": ["-119.28138", "50.234366"]}, "properties": {"id": "3510", "name": "Sunflower Child Care Centre", "address": "7000 College Way", "city": "Coldstream", "phone": "250-558-9963", "services": [0, 1]}}, {"type": "Feature", "geometry": {"type": "Point", "coordinates": ["-119.232901", "50.222612"]}, "properties": {"id": "3511", "name": "Maven Lane - Creekside", "address": "10104 Kalamalka Rd", "city": "Coldstream", "phone": "250-558-9963", "services": [3]}}, {"type": "Feature", "geometry": {"type": "Point", "coordinates": ["-119.470955", "49.893244"]}, "properties": {"id": "3512", "name": "Babies 'N' Tots Daycare Inc.", "address": "1236 Cerise Dr", "city": "Kelowna", "phone": "306-502-5222", "services": []}}, {"type": "Feature", "geometry": {"type": "Point", "coordinates": ["-119.546987", "49.230323"]}, "properties": {"id": "3524", "name": "Little Red Childcare Centre", "address": "7961 Highway 97", "city": "Oliver", "phone": "778-583-4580", "services": []}}, {"type": "Feature", "geometry": {"type": "Point", "coordinates": ["-119.567142", "49.862291"]}, "properties": {"id": "3537", "name": "Sofia's Academy 2630 Alhambra Drive", "address": "2630 Alhambra Dr", "city": "West Kelowna", "phone": "250-864-4842", "services": []}}, {"type": "Feature", "geometry": {"type": "Point", "coordinates": ["-115.736016", "49.502492"]}, "properties": {"id": "3566", "name": "Just 4 Kids", "address": "3300 7Th St S", "city": "Cranbrook", "phone": "250-464-0527", "services": []}}, {"type": "Feature", "geometry": {"type": "Point", "coordinates": ["-118.223791", "50.971852"]}, "properties": {"id": "3578", "name": "Revelstoke Neverland Childcare", "address": "1627 Mt Begbie Rd", "city": "Revelstoke", "phone": "250-837-8851", "services": [0, 1]}}, {"type": "Feature", "geometry": {"type": "Point", "coordinates": ["-119.263557", "50.699582"]}, "properties": {"id": "3587", "name": "Okanagan Kids", "address": "1870 Okanagan Ave Se", "city": "Salmon Arm", "phone": "250-515-3030", "services": [1, 3]}}, {"type": "Feature", "geometry": {"type": "Point", "coordinates": ["-117.658903", "49.335807"]}, "properties": {"id": "3605", "name": "Wild Rose Child Care", "address": "1057 Wildrose Rd", "city": "Castlegar", "phone": "250-304-0361", "services": []}}, {"type": "Feature", "geometry": {"type": "Point", "coordinates": ["-118.173106", "50.976615"]}, "properties": {"id": "3608", "name": "Ray Of Sunshine Child Care And Drop In Center Inc.", "address": "4108 Coursier Ave", "city": "Revelstoke", "phone": "250-683-8663", "services": []}}, {"type": "Feature", "geometry": {"type": "Point", "coordinates": ["-118.2004", "50.997251"]}, "properties": {"id": "3618", "name": "Revelstoke Community Centre", "address": "600 Campbell Ave", "city": "Revelstoke", "phone": "250-837-9351", "services": []}}, {"type": "Feature", "geometry": {"type": "Point", "coordinates": ["-122.138374", "52.131397"]}, "properties": {"id": "3638", "name": "Cariboo Memorial Recreation Complex", "address": "525 Proctor St", "city": "Williams Lake", "phone": "250-392-1799", "services": []}}, {"type": "Feature", "geometry": {"type": "Point", "coordinates": ["-120.359824", "50.64208"]}, "properties": {"id": "3641", "name": "Aberdeen Hills Montessori Preschool / Kindergarten", "address": "2191 Van Horne Dr", "city": "Kamloops", "phone": "250-372-9940", "services": []}}, {"type": "Feature", "geometry": {"type": "Point", "coordinates": ["-119.471606", "49.891621"]}, "properties": {"id": "3660", "name": "Bankhead Out Of School Care Program", "address": "1280 Wilson Ave", "city": "Kelowna", "phone": "250-762-0766", "services": []}}, {"type": "Feature", "geometry": {"type": "Point", "coordinates": ["-121.942973", "50.681161"]}, "properties": {"id": "3673", "name": "T'it'q'et Preschool", "address": "42 Retasket Dr", "city": "Lillooet", "phone": "250-256-0033", "services": []}}, {"type": "Feature", "geometry": {"type": "Point", "coordinates": ["-119.683727", "49.597142"]}, "properties": {"id": "3702", "name": "Summerland Early Learning Centre", "address": "10317 Prairie Valley Rd", "city": "Summerland", "phone": "250-494-7266", "services": []}}, {"type": "Feature", "geometry": {"type": "Point", "coordinates": ["-119.558205", "49.475869"]}, "properties": {"id": "3706", "name": "Cinzia's Day Care", "address": "170 Rogers Pl", "city": "Penticton", "phone": "250-493-6203", "services": []}}, {"type": "Feature", "geometry": {"type": "Point", "coordinates": ["-115.752014", "49.515895"]}, "properties": {"id": "3723", "name": "Agape Daycare", "address": "2100 4Th St N", "city": "Cranbrook", "phone": "250-489-4071", "services": []}}, {"type": "Feature", "geometry": {"type": "Point", "coordinates": ["-117.284787", "49.460263"]}, "properties": {"id": "3728", "name": "Nelson Waldorf Childcare", "address": "3648 Silver King Ski Hill Rd", "city": "Nelson", "phone": "250-352-6919", "services": [0, 1, 3]}}, {"type": "Feature", "geometry": {"type": "Point", "coordinates": ["-119.253687", "50.699543"]}, "properties": {"id": "3750", "name": "Ladybug Landing Child Care Centre", "address": "140 27 St Se", "city": "Salmon Arm", "phone": "250-832-5553", "services": []}}, {"type": "Feature", "geometry": {"type": "Point", "coordinates": ["-119.375501", "49.898641"]}, "properties": {"id": "3775", "name": "Rutland Community School Children's Centre", "address": "620 Webster Rd", "city": "Kelowna", "phone": "250-765-4052", "services": []}}, {"type": "Feature", "geometry": {"type": "Point", "coordinates": ["-119.588594", "49.84237"]}, "properties": {"id": "3776", "name": "Okanagan Boys And Girls Clubs - Chief Tomat Preschool", "address": "3365 East Boundary Rd", "city": "West Kelowna", "phone": "250-762-3914", "services": []}}, {"type": "Feature", "geometry": {"type": "Point", "coordinates": ["-119.389744", "50.032816"]}, "properties": {"id": "3778", "name": "My Friends Family Daycare", "address": "10376 Sherman Dr", "city": "Lake Country", "phone": "250-878-5555", "services": [0, 1]}}, {"type": "Feature", "geometry": {"type": "Point", "coordinates": ["-120.781077", "50.10685"]}, "properties": {"id": "3779", "name": "Little Skipper Daycare", "address": "2402 Coutlee Ave", "city": "Merritt", "phone": "250-378-4849", "services": []}}, {"type": "Feature", "geometry": {"type": "Point", "coordinates": ["-120.345613", "50.652903"]}, "properties": {"id": "3780", "name": "Puddles And Mud Childcare", "address": "319 Gleneagles Dr", "city": "Kamloops", "phone": "250-851-2999", "services": [0, 1, 3]}}, {"type": "Feature", "geometry": {"type": "Point", "coordinates": ["-120.763444", "50.105131"]}, "properties": {"id": "3784", "name": "White Bear Daycare", "address": "3191 Nicola Ave", "city": "Merritt", "phone": "250-378-0151", "services": [0, 1, 2, 3]}}, {"type": "Feature", "geometry": {"type": "Point", "coordinates": ["-116.952956", "51.295178"]}, "properties": {"id": "3786", "name": "Mountain Child Early Learning & Care Centre", "address": "1000 14 Ave S", "city": "Golden", "phone": "250-439-9324", "services": []}}, {"type": "Feature", "geometry": {"type": "Point", "coordinates": ["-117.657489", "49.244718"]}, "properties": {"id": "3789", "name": "Blueberry Creek Early Learning & Care Centre", "address": "200 Centre Ave", "city": "Castlegar", "phone": "250-365-7201", "services": []}}, {"type": "Feature", "geometry": {"type": "Point", "coordinates": ["-119.588483", "49.4758"]}, "properties": {"id": "3801", "name": "Pam's Family Daycare", "address": "164 Wyles Cres", "city": "Penticton", "phone": "250-492-0113", "services": []}}, {"type": "Feature", "geometry": {"type": "Point", "coordinates": ["-120.359959", "50.709234"]}, "properties": {"id": "3815", "name": "Pitter Patter Daycare", "address": "1317 Sitka St", "city": "Kamloops", "phone": "250-554-1064", "services": []}}, {"type": "Feature", "geometry": {"type": "Point", "coordinates": ["-119.369065", "49.894738"]}, "properties": {"id": "3818", "name": "Green Gables Glenmore", "address": "510 El Camino Rd", "city": "Kelowna", "phone": "250-863-8931", "services": []}}, {"type": "Feature", "geometry": {"type": "Point", "coordinates": ["-119.267503", "50.699566"]}, "properties": {"id": "3836", "name": "Playcare Early Childhood Centre", "address": "1590 Okanagan Ave", "city": "Salmon Arm", "phone": "250-832-3050", "services": []}}, {"type": "Feature", "geometry": {"type": "Point", "coordinates": ["-119.499192", "49.817186"]}, "properties": {"id": "3851", "name": "Lakeside Kinderhaus", "address": "429 Collett Rd", "city": "Kelowna", "phone": "250-764-4130", "services": [1, 2, 3]}}, {"type": "Feature", "geometry": {"type": "Point", "coordinates": ["-119.387558", "49.906724"]}, "properties": {"id": "3863", "name": "Big Dreamers Daycare Limited", "address": "1370 Rutland Rd North", "city": "Kelowna", "phone": "250-765-5777", "services": []}}, {"type": "Feature", "geometry": {"type": "Point", "coordinates": ["-119.400019", "49.880756"]}, "properties": {"id": "3864", "name": "ymca - Quigley", "address": "705 Kitch Rd", "city": "Kelowna", "phone": "250-764-9621", "services": []}}, {"type": "Feature", "geometry": {"type": "Point", "coordinates": ["-122.140017", "52.132967"]}, "properties": {"id": "3877", "name": "Little Moccasins Learning Centre", "address": "228 5 Ave N", "city": "Williams Lake", "phone": "250-398-6831", "services": [2]}}, {"type": "Feature", "geometry": {"type": "Point", "coordinates": ["-119.405507", "49.866742"]}, "properties": {"id": "3897", "name": "Okanagan Montessori East Kelowna", "address": "3439 Kelowna Rd E", "city": "Kelowna", "phone": "250-860-1165", "services": [0, 1, 2, 3]}}, {"type": "Feature", "geometry": {"type": "Point", "coordinates": ["-117.660404", "49.245735"]}, "properties": {"id": "3916", "name": "Blueberry Patch", "address": "202B Beresford", "city": "Castlegar", "phone": "250-365-7201", "services": []}}, {"type": "Feature", "geometry": {"type": "Point", "coordinates": ["-119.389917", "50.031636"]}, "properties": {"id": "3923", "name": "Blossom Progressive Montessori", "address": "10300 Sherman Dr", "city": "Winfield", "phone": "250-808-4769", "services": []}}, {"type": "Feature", "geometry": {"type": "Point", "coordinates": ["-118.194017", "50.992956"]}, "properties": {"id": "3927", "name": "Conin's Family Daycare", "address": "502 6Th St E", "city": "Revelstoke", "phone": "250-814-1900", "services": []}}, {"type": "Feature", "geometry": {"type": "Point", "coordinates": ["-119.582472", "49.485745"]}, "properties": {"id": "3937", "name": "Okanagan Boys And Girls Club Of Penticton", "address": "1295 Manitoba St", "city": "Penticton", "phone": "250-762-3914", "services": []}}, {"type": "Feature", "geometry": {"type": "Point", "coordinates": ["-119.572731", "49.876864"]}, "properties": {"id": "3939", "name": "T.L.C. For Kids", "address": "2081 mcdougal Rd Room 104", "city": "Kelowna", "phone": "250-769-4855", "services": []}}, {"type": "Feature", "geometry": {"type": "Point", "coordinates": ["-119.410821", "50.055443"]}, "properties": {"id": "3946", "name": "New Beginnings Early Years Center (Lake Country) Ltd.", "address": "12008 Pretty Rd", "city": "Lake Country", "phone": "250-766-3788", "services": []}}, {"type": "Feature", "geometry": {"type": "Point", "coordinates": ["-122.14716", "52.136793"]}, "properties": {"id": "3948", "name": "Sacred Heart Preschool & Daycare", "address": "455 Pigeon Ave", "city": "Williams Lake", "phone": "250-398-5852", "services": []}}, {"type": "Feature", "geometry": {"type": "Point", "coordinates": ["-119.550279", "49.882714"]}, "properties": {"id": "3961", "name": "Kids' Kingdom Family Daycare", "address": "1869 Horizon Dr", "city": "West Kelowna", "phone": "778-363-5200", "services": [0, 1]}}, {"type": "Feature", "geometry": {"type": "Point", "coordinates": ["-120.358035", "50.713924"]}, "properties": {"id": "3981", "name": "Small Blessings Family Childcare", "address": "529 Collingwood Dr", "city": "Kamloops", "phone": "250-376-4676", "services": []}}, {"type": "Feature", "geometry": {"type": "Point", "coordinates": ["-120.361707", "50.694785"]}, "properties": {"id": "3992", "name": "Our Lady Of Perpetual Help Childcare Centre", "address": "235 Poplar St", "city": "Kamloops", "phone": "250-376-2343", "services": []}}, {"type": "Feature", "geometry": {"type": "Point", "coordinates": ["-122.14595", "52.134134"]}, "properties": {"id": "3995", "name": "Rec & Roll", "address": "260 Cameron St", "city": "Williams Lake", "phone": "250-398-7665", "services": []}}, {"type": "Feature", "geometry": {"type": "Point", "coordinates": ["-119.562517", "49.874066"]}, "properties": {"id": "4002", "name": "Backyardigans Licensed Family Daycare", "address": "1175 Caledonia Way", "city": "West Kelowna", "phone": "250-769-7902", "services": []}}, {"type": "Feature", "geometry": {"type": "Point", "coordinates": ["-119.50243", "49.795985"]}, "properties": {"id": "4027", "name": "Okanagan Boys And Girls Clubs - Cedar Creek", "address": "5160 Chute Lake Rd", "city": "Kelowna", "phone": "250-762-3914", "services": []}}, {"type": "Feature", "geometry": {"type": "Point", "coordinates": ["-122.141022", "52.127986"]}, "properties": {"id": "4032", "name": "Bgc Williams Lake Club", "address": "17 Fourth Ave S", "city": "Williams Lake", "phone": "250-392-5730", "services": []}}, {"type": "Feature", "geometry": {"type": "Point", "coordinates": ["-117.285791", "49.482132"]}, "properties": {"id": "4047", "name": "Starseed Kindercottage", "address": "419 Delbruck St", "city": "Nelson", "phone": "250-509-0865", "services": [0, 1]}}, {"type": "Feature", "geometry": {"type": "Point", "coordinates": ["-120.368065", "50.64403"]}, "properties": {"id": "4048", "name": "Parasol (Aberdeen)", "address": "2090 Pacific Way", "city": "Kamloops", "phone": "250-828-6603", "services": []}}, {"type": "Feature", "geometry": {"type": "Point", "coordinates": ["-119.490576", "49.011617"]}, "properties": {"id": "4051", "name": "Tammy's Childcare", "address": "3808 Fairwinds Dr", "city": "Osoyoos", "phone": "250-689-0069", "services": []}}, {"type": "Feature", "geometry": {"type": "Point", "coordinates": ["-120.353099", "50.645701"]}, "properties": {"id": "4057", "name": "Sa-Hali Early Care And Learning Center", "address": "720 Robson Dr", "city": "Kamloops", "phone": "250-372-1637", "services": []}}, {"type": "Feature", "geometry": {"type": "Point", "coordinates": ["-119.676105", "49.604411"]}, "properties": {"id": "4061", "name": "Okanagan Boys And Girls Clubs - Summerland", "address": "9111 Peach Orchard Rd", "city": "Summerland", "phone": "250-762-3914", "services": []}}, {"type": "Feature", "geometry": {"type": "Point", "coordinates": ["-119.418344", "49.88381"]}, "properties": {"id": "4062", "name": "Springvalley Elementary Out Of School Care", "address": "470 Ziprick Rd", "city": "Kelowna", "phone": "250-762-3914", "services": []}}, {"type": "Feature", "geometry": {"type": "Point", "coordinates": ["-119.581551", "49.49027"]}, "properties": {"id": "4068", "name": "Little Triumphs Early Childhood Centre", "address": "500 Edmonton Ave", "city": "Penticton", "phone": "250-492-5814", "services": []}}, {"type": "Feature", "geometry": {"type": "Point", "coordinates": ["-119.624816", "49.571274"]}, "properties": {"id": "4074", "name": "Trout Creek Kids Club", "address": "5 5811 Nixon Rd", "city": "Summerland", "phone": "250-492-1194", "services": [1, 3]}}, {"type": "Feature", "geometry": {"type": "Point", "coordinates": ["-120.815124", "50.49495"]}, "properties": {"id": "4100", "name": "Logan Lake Little Learners Preschool", "address": "4 Galena", "city": "Logan Lake", "phone": "250-523-6229", "services": [2]}}, {"type": "Feature", "geometry": {"type": "Point", "coordinates": ["-115.951189", "49.635052"]}, "properties": {"id": "4104", "name": "Beehive Afterschool Program", "address": "546 309Th Ave", "city": "Kimberley", "phone": "250-489-3114", "services": []}}, {"type": "Feature", "geometry": {"type": "Point", "coordinates": ["-119.488975", "49.864371"]}, "properties": {"id": "4120", "name": "Luna Park Preschool", "address": "657 Raymer Rd", "city": "Kelowna", "phone": "250-762-7505", "services": []}}, {"type": "Feature", "geometry": {"type": "Point", "coordinates": ["-119.200368", "50.450325"]}, "properties": {"id": "4129", "name": "Little Seedlings Daycare", "address": "3130 Wood Ave", "city": "Armstrong", "phone": "250-546-3600", "services": []}}, {"type": "Feature", "geometry": {"type": "Point", "coordinates": ["-119.355188", "49.871159"]}, "properties": {"id": "4144", "name": "Mountain View Modified Montessori Preschool", "address": "1375 Loseth Dr", "city": "Kelowna", "phone": "250-765-7791", "services": []}}, {"type": "Feature", "geometry": {"type": "Point", "coordinates": ["-119.477172", "49.875364"]}, "properties": {"id": "4180", "name": "Bridge Kids", "address": "2100 Gordon Dr", "city": "Kelowna", "phone": "778-214-3949", "services": []}}, {"type": "Feature", "geometry": {"type": "Point", "coordinates": ["-119.433659", "49.925324"]}, "properties": {"id": "4191", "name": "Miss Melissa's Preschool", "address": "108 Naito Crt", "city": "Kelowna", "phone": "250-763-5909", "services": []}}, {"type": "Feature", "geometry": {"type": "Point", "coordinates": ["-121.322716", "50.812265"]}, "properties": {"id": "4202", "name": "Foothills Daycare", "address": "1259 Stage Rd", "city": "Cache Creek", "phone": "250-457-7168", "services": []}}, {"type": "Feature", "geometry": {"type": "Point", "coordinates": ["-117.801613", "49.077682"]}, "properties": {"id": "4216", "name": "Golden Bear Children's Centre", "address": "2058 Spokane St", "city": "Rossland", "phone": "250-362-5856", "services": [0, 1, 3]}}, {"type": "Feature", "geometry": {"type": "Point", "coordinates": ["-119.207521", "50.443981"]}, "properties": {"id": "4220", "name": "Jeanie's Playhouse", "address": "3685 Warner Ave Rr 2", "city": "Armstrong", "phone": "250-546-2499", "services": []}}, {"type": "Feature", "geometry": {"type": "Point", "coordinates": ["-119.564777", "49.866348"]}, "properties": {"id": "4230", "name": "Sunridge Out Of School Care", "address": "1190 Stevens Rd", "city": "Kelowna", "phone": "604-853-6959", "services": []}}, {"type": "Feature", "geometry": {"type": "Point", "coordinates": ["-120.8564", "50.137109"]}, "properties": {"id": "4242", "name": "Lower Nicola Band Little Stars Head Start", "address": "201 Horn Rd", "city": "Merritt", "phone": "250-378-5527", "services": []}}, {"type": "Feature", "geometry": {"type": "Point", "coordinates": ["-117.795432", "49.078134"]}, "properties": {"id": "4249", "name": "The Four Winds Daycare", "address": "2294 First Ave", "city": "Rossland", "phone": "250-362-5233", "services": []}}, {"type": "Feature", "geometry": {"type": "Point", "coordinates": ["-119.266966", "50.270354"]}, "properties": {"id": "4256", "name": "Mis Amiguitos Family Daycare", "address": "3900 27 St", "city": "Vernon", "phone": "250-542-5971", "services": []}}, {"type": "Feature", "geometry": {"type": "Point", "coordinates": ["-119.489033", "49.865183"]}, "properties": {"id": "4292", "name": "The Clubhouse At Raymer", "address": "657 Raymer Ave", "city": "Kelowna", "phone": "250-860-4393", "services": []}}, {"type": "Feature", "geometry": {"type": "Point", "coordinates": ["-120.358674", "50.659385"]}, "properties": {"id": "4296", "name": "Lil' Foot Childcare", "address": "1642 Springhaven Plc", "city": "Kamloops", "phone": "250-828-2955", "services": []}}, {"type": "Feature", "geometry": {"type": "Point", "coordinates": ["-117.278976", "49.500562"]}, "properties": {"id": "4309", "name": "Mountain Montessori Early Learning Centre", "address": "310 Nelson Ave", "city": "Nelson", "phone": "250-509-1235", "services": [1]}}, {"type": "Feature", "geometry": {"type": "Point", "coordinates": ["-119.381847", "49.887466"]}, "properties": {"id": "4317", "name": "South Rutland Afterschool Program", "address": "200 Mallach Rd", "city": "Kelowna", "phone": "250-762-3914", "services": []}}, {"type": "Feature", "geometry": {"type": "Point", "coordinates": ["-119.60098", "49.495112"]}, "properties": {"id": "4318", "name": "Children's Universe Montessori Ltd", "address": "645 Wade Ave W", "city": "Penticton", "phone": "250-770-8368", "services": []}}, {"type": "Feature", "geometry": {"type": "Point", "coordinates": ["-116.973081", "51.293985"]}, "properties": {"id": "4327", "name": "Beate's Playcorner", "address": "602 11 St S", "city": "Golden", "phone": "250-344-2685", "services": [0, 1, 3]}}, {"type": "Feature", "geometry": {"type": "Point", "coordinates": ["-119.087156", "50.239588"]}, "properties": {"id": "4328", "name": "Park Lane Licensed Child Care", "address": "9972 Park Lane", "city": "Coldstream", "phone": "250-545-4589", "services": []}}, {"type": "Feature", "geometry": {"type": "Point", "coordinates": ["-119.449375", "49.912658"]}, "properties": {"id": "4335", "name": "Watson Road Licensed Care", "address": "475 Yates Rd", "city": "Kelowna", "phone": "250-762-4495", "services": []}}, {"type": "Feature", "geometry": {"type": "Point", "coordinates": ["-119.482952", "49.828783"]}, "properties": {"id": "4343", "name": "Little Gems Daycare", "address": "700 Young Rd", "city": "Kelowna", "phone": "250-764-3031", "services": [0, 1]}}, {"type": "Feature", "geometry": {"type": "Point", "coordinates": ["-119.465857", "49.018127"]}, "properties": {"id": "4347", "name": "Di's Daycare", "address": "14 Heather Pl", "city": "Osoyoos", "phone": "250-495-5058", "services": []}}, {"type": "Feature", "geometry": {"type": "Point", "coordinates": ["-118.194887", "50.991364"]}, "properties": {"id": "4353", "name": "Bev's House", "address": "602 8Th St E", "city": "Revelstoke", "phone": "250-837-7139", "services": []}}, {"type": "Feature", "geometry": {"type": "Point", "coordinates": ["-117.69863", "49.097393"]}, "properties": {"id": "4355", "name": "Happy Planet Child Care", "address": "1765 Third Ave", "city": "Trail", "phone": "250-368-3010", "services": []}}, {"type": "Feature", "geometry": {"type": "Point", "coordinates": ["-119.564832", "49.878381"]}, "properties": {"id": "4358", "name": "Sunny Bunny Preschool", "address": "2090 Sunview Dr", "city": "West Kelowna", "phone": "250-769-2665", "services": []}}, {"type": "Feature", "geometry": {"type": "Point", "coordinates": ["-116.898779", "49.907598"]}, "properties": {"id": "4377", "name": "Periwinkle Children's Centre", "address": "503 First St", "city": "Kaslo", "phone": "250-353-8197", "services": []}}, {"type": "Feature", "geometry": {"type": "Point", "coordinates": ["-119.408161", "49.92725"]}, "properties": {"id": "4408", "name": "Aberdeen Hall Preparatory School", "address": "950 Academy Way", "city": "Kelowna", "phone": "250-491-1270", "services": []}}, {"type": "Feature", "geometry": {"type": "Point", "coordinates": ["-117.290555", "49.489494"]}, "properties": {"id": "4422", "name": "Kootenay Kinderschool", "address": "523 Mill St", "city": "Nelson", "phone": "250-352-5018", "services": []}}, {"type": "Feature", "geometry": {"type": "Point", "coordinates": ["-116.958262", "51.292067"]}, "properties": {"id": "4424", "name": "Jenn's Playhouse", "address": "1203 Alexander Dr", "city": "Golden", "phone": "250-272-5366", "services": [0, 1, 3]}}, {"type": "Feature", "geometry": {"type": "Point", "coordinates": ["-119.480773", "49.811614"]}, "properties": {"id": "4429", "name": "Stepping Stones Early Learning Centre", "address": "4713 Gordon Dr", "city": "Kelowna", "phone": "604-317-7084", "services": [0, 1, 2]}}, {"type": "Feature", "geometry": {"type": "Point", "coordinates": ["-119.210343", "50.449361"]}, "properties": {"id": "4435", "name": "Kare-A-Lot Early Learning Centre", "address": "3779 Glover Ave Rr 4", "city": "Armstrong", "phone": "250-546-0500", "services": []}}, {"type": "Feature", "geometry": {"type": "Point", "coordinates": ["-119.63116", "49.501105"]}, "properties": {"id": "4446", "name": "Leapin Lizard's Daycares Inc. West Bench", "address": "1604 West Bench Dr", "city": "Penticton", "phone": "250-496-0081", "services": [3]}}, {"type": "Feature", "geometry": {"type": "Point", "coordinates": ["-119.556505", "49.486036"]}, "properties": {"id": "4447", "name": "Leapin Lizard's Daycares Inc. Columbia", "address": "1437 Allison St", "city": "Penticton", "phone": "250-496-0081", "services": []}}, {"type": "Feature", "geometry": {"type": "Point", "coordinates": ["-119.565692", "49.862468"]}, "properties": {"id": "4459", "name": "Okanagan Boys And Girls Clubs - Hudson Road", "address": "1221 Hudson Rd", "city": "Kelowna", "phone": "250-762-3914", "services": []}}, {"type": "Feature", "geometry": {"type": "Point", "coordinates": ["-117.704283", "49.09289"]}, "properties": {"id": "4478", "name": "Sanctuary Pre-Teen Drop In Centre", "address": "1705 Bay Ave", "city": "Trail", "phone": "250-368-6142", "services": []}}, {"type": "Feature", "geometry": {"type": "Point", "coordinates": ["-119.247584", "50.309043"]}, "properties": {"id": "4480", "name": "Vernon Christian Preschool", "address": "6890 Pleasant Valley Rd", "city": "Vernon", "phone": "250-545-7345", "services": []}}, {"type": "Feature", "geometry": {"type": "Point", "coordinates": ["-120.394039", "50.706935"]}, "properties": {"id": "4512", "name": "Cuddle Bear Family Daycare", "address": "1055 Oxford St", "city": "Kamloops", "phone": "250-319-0625", "services": []}}, {"type": "Feature", "geometry": {"type": "Point", "coordinates": ["-119.349879", "49.867289"]}, "properties": {"id": "4515", "name": "ymca - Black Mountain", "address": "1650 Gallagher Rd", "city": "Kelowna", "phone": "250-764-9621", "services": []}}, {"type": "Feature", "geometry": {"type": "Point", "coordinates": ["-120.165866", "50.649153"]}, "properties": {"id": "4516", "name": "Barnhartvale Neighbourhood Boys & Girls Club", "address": "5990 Todd Rd", "city": "Kamloops", "phone": "250-554-5437", "services": []}}, {"type": "Feature", "geometry": {"type": "Point", "coordinates": ["-121.293856", "51.643113"]}, "properties": {"id": "4536", "name": "Play And Learn Childcare", "address": "365 Cedar St", "city": "100 Mile House", "phone": "250-395-3837", "services": []}}, {"type": "Feature", "geometry": {"type": "Point", "coordinates": ["-119.256788", "50.694431"]}, "properties": {"id": "4539", "name": "Discovery Kids Club", "address": "2460 Auto Road Se", "city": "Salmon Arm", "phone": "250-832-0779", "services": []}}, {"type": "Feature", "geometry": {"type": "Point", "coordinates": ["-119.716326", "49.785459"]}, "properties": {"id": "4554", "name": "Peachland Preschool", "address": "5486 Clements Cres", "city": "Peachland", "phone": "250-762-3914", "services": []}}, {"type": "Feature", "geometry": {"type": "Point", "coordinates": ["-119.479296", "49.817129"]}, "properties": {"id": "4557", "name": "The Clubhouse At Bellevue Creek", "address": "4574 Raymer Rd", "city": "Kelowna", "phone": "250-860-4393", "services": []}}, {"type": "Feature", "geometry": {"type": "Point", "coordinates": ["-120.106174", "50.65619"]}, "properties": {"id": "4559", "name": "Parasol - Early Years Learning 3", "address": "8205 Dallas Dr", "city": "Kamloops", "phone": "236-996-4545", "services": []}}, {"type": "Feature", "geometry": {"type": "Point", "coordinates": ["-120.349202", "50.759362"]}, "properties": {"id": "4560", "name": "Westsyde Country Day Montessori Preschool & Kindergarten", "address": "2990 Westsyde Rd", "city": "Kamloops", "phone": "250-579-2465", "services": []}}, {"type": "Feature", "geometry": {"type": "Point", "coordinates": ["-120.377866", "50.651853"]}, "properties": {"id": "4562", "name": "Creative Beginnings Preschool", "address": "C - 1440 Hugh Allan Drive", "city": "Kamloops", "phone": "250-319-8586", "services": []}}, {"type": "Feature", "geometry": {"type": "Point", "coordinates": ["-119.481557", "49.874498"]}, "properties": {"id": "4564", "name": "The Clubhouse At Cottonwoods", "address": "2255 Ethel St", "city": "Kelowna", "phone": "250-860-4393", "services": []}}, {"type": "Feature", "geometry": {"type": "Point", "coordinates": ["-117.722685", "49.098881"]}, "properties": {"id": "4565", "name": "Webster Kindercare", "address": "395 Hwy 3B", "city": "Trail", "phone": "250-368-3166", "services": [3]}}, {"type": "Feature", "geometry": {"type": "Point", "coordinates": ["-120.134287", "51.188983"]}, "properties": {"id": "4586", "name": "Ntacs After School Program", "address": "4936 Barriere Town Rd", "city": "Barriere", "phone": "250-672-0033", "services": []}}, {"type": "Feature", "geometry": {"type": "Point", "coordinates": ["-121.409864", "51.712523"]}, "properties": {"id": "4604", "name": "Small Explorers Family Daycare", "address": "5488 Tatton Stn Rd", "city": "100 Mile House", "phone": "250-395-6695", "services": []}}, {"type": "Feature", "geometry": {"type": "Point", "coordinates": ["-119.381399", "49.902538"]}, "properties": {"id": "4605", "name": "Cat & Mouse Playhouse", "address": "395 Phipps Cres", "city": "Kelowna", "phone": "250-870-3486", "services": []}}, {"type": "Feature", "geometry": {"type": "Point", "coordinates": ["-119.225979", "50.752678"]}, "properties": {"id": "4614", "name": "Kinder Play Child Care Canoe Centre", "address": "7210 51 St Ne", "city": "Salmon Arm", "phone": "250-803-1104", "services": []}}, {"type": "Feature", "geometry": {"type": "Point", "coordinates": ["-120.370355", "50.718953"]}, "properties": {"id": "4637", "name": "Leandra's Lil' Explorers", "address": "1883 Grouse Crt", "city": "Kamloops", "phone": "250-320-9392", "services": [0, 1]}}, {"type": "Feature", "geometry": {"type": "Point", "coordinates": ["-119.511865", "49.794539"]}, "properties": {"id": "4653", "name": "Little Owl Academy", "address": "205 5315 Main St", "city": "Kelowna", "phone": "250-764-0122", "services": []}}, {"type": "Feature", "geometry": {"type": "Point", "coordinates": ["-119.483638", "49.828399"]}, "properties": {"id": "4654", "name": "Ruki's Day Care", "address": "4330 Gordon Dr", "city": "Kelowna", "phone": "250-764-3664", "services": []}}, {"type": "Feature", "geometry": {"type": "Point", "coordinates": ["-120.357178", "50.646259"]}, "properties": {"id": "4672", "name": "Kamloops Village Garden Montessori Early Learning Center", "address": "700 Hugh Allan Dr", "city": "Kamloops", "phone": "250-299-6644", "services": []}}, {"type": "Feature", "geometry": {"type": "Point", "coordinates": ["-119.249368", "50.704687"]}, "properties": {"id": "4680", "name": "King's Christian Preschool", "address": "3151 6 Ave Ne", "city": "Salmon Arm", "phone": "250-463-5200", "services": []}}, {"type": "Feature", "geometry": {"type": "Point", "coordinates": ["-117.695349", "49.09753"]}, "properties": {"id": "4682", "name": "Kaleidoscope Early Learning Centre", "address": "1555 mclean St", "city": "Trail", "phone": "250-512-7492", "services": [0, 1]}}, {"type": "Feature", "geometry": {"type": "Point", "coordinates": ["-119.593615", "49.501113"]}, "properties": {"id": "4699", "name": "Kiddie Hall Childcare Inc.", "address": "104 166 Main St", "city": "Penticton", "phone": "778-476-5963", "services": [0, 1, 3]}}, {"type": "Feature", "geometry": {"type": "Point", "coordinates": ["-120.009369", "51.649"]}, "properties": {"id": "4719", "name": "Wells Gray After School Program", "address": "801 Clearwater Village Rd", "city": "Clearwater", "phone": "250-674-2600", "services": [3]}}, {"type": "Feature", "geometry": {"type": "Point", "coordinates": ["-119.453877", "49.876293"]}, "properties": {"id": "4720", "name": "Grins And Giggles Child Care Centre", "address": "1905 Springfield Rd", "city": "Kelowna", "phone": "250-860-8685", "services": []}}, {"type": "Feature", "geometry": {"type": "Point", "coordinates": ["-121.294264", "51.641914"]}, "properties": {"id": "4736", "name": "Cariboo Family Enrichment Centre Child Care", "address": "429 Cedar Ave", "city": "100 Mile House", "phone": "250-395-5155", "services": []}}, {"type": "Feature", "geometry": {"type": "Point", "coordinates": ["-115.772663", "49.507605"]}, "properties": {"id": "4739", "name": "Young Parents Education Program Day Care", "address": "2700 College Way Mt Fisher Building", "city": "Cranbrook", "phone": "250-512-1249", "services": []}}, {"type": "Feature", "geometry": {"type": "Point", "coordinates": ["-120.818354", "50.496287"]}, "properties": {"id": "4740", "name": "Kiddie Korner Daycare", "address": "33 Amber Dr", "city": "Logan Lake", "phone": "250-819-5013", "services": [1, 3]}}, {"type": "Feature", "geometry": {"type": "Point", "coordinates": ["-115.071003", "49.490622"]}, "properties": {"id": "4741", "name": "Fernie School Aged Care Ltd.", "address": "44 Mt Washburn St", "city": "Fernie", "phone": "250-430-3155", "services": []}}, {"type": "Feature", "geometry": {"type": "Point", "coordinates": ["-115.756691", "49.503004"]}, "properties": {"id": "4753", "name": "St. Mary's Daycare And After School Program", "address": "1701 5Th Ave", "city": "Cranbrook", "phone": "250-762-2905", "services": []}}, {"type": "Feature", "geometry": {"type": "Point", "coordinates": ["-117.743935", "49.095411"]}, "properties": {"id": "4758", "name": "Warfield Preschool - Webster", "address": "395 Schofield Highway", "city": "Trail", "phone": "250-368-8202", "services": []}}, {"type": "Feature", "geometry": {"type": "Point", "coordinates": ["-120.339261", "50.656758"]}, "properties": {"id": "4762", "name": "Kamloops Kidz Early Learning Center (Sahali Campus)", "address": "1585 Summit Dr", "city": "Kamloops", "phone": "250-319-9044", "services": []}}, {"type": "Feature", "geometry": {"type": "Point", "coordinates": ["-119.464731", "49.880408"]}, "properties": {"id": "4766", "name": "Produckidvity Academy - Sutherland", "address": "1521 Sutherland Ave", "city": "Kelowna", "phone": "778-214-7406", "services": []}}, {"type": "Feature", "geometry": {"type": "Point", "coordinates": ["-114.895314", "49.729009"]}, "properties": {"id": "4768", "name": "Sparwood Treehouse Daycare Centre", "address": "421 Pine Ave", "city": "Sparwood", "phone": "250-425-4443", "services": []}}, {"type": "Feature", "geometry": {"type": "Point", "coordinates": ["-119.626585", "49.840028"]}, "properties": {"id": "4775", "name": "Giggle Wiggle Bugs", "address": "3413 Logan Rd", "city": "West Kelowna", "phone": "250-768-1311", "services": []}}, {"type": "Feature", "geometry": {"type": "Point", "coordinates": ["-119.379765", "49.899861"]}, "properties": {"id": "4777", "name": "ymca Preschool & Out Of School Care Program", "address": "375 Hartman Rd", "city": "Kelowna", "phone": "250-764-9621", "services": []}}, {"type": "Feature", "geometry": {"type": "Point", "coordinates": ["-115.052848", "49.51165"]}, "properties": {"id": "4806", "name": "Early Learning Centre", "address": "1602 2Nd Ave", "city": "Fernie", "phone": "250-423-8653", "services": []}}, {"type": "Feature", "geometry": {"type": "Point", "coordinates": ["-119.468571", "49.885588"]}, "properties": {"id": "4813", "name": "Brightpath Lawrence Avenue", "address": "1370 Lawrence Ave", "city": "Kelowna", "phone": "250-860-9788", "services": []}}, {"type": "Feature", "geometry": {"type": "Point", "coordinates": ["-119.589259", "49.468646"]}, "properties": {"id": "4819", "name": "Little Monkeys Daycare", "address": "2497 mcgraw St", "city": "Penticton", "phone": "250-492-8979", "services": []}}, {"type": "Feature", "geometry": {"type": "Point", "coordinates": ["-115.974637", "49.669214"]}, "properties": {"id": "4820", "name": "Lil Tykes Daycare", "address": "350 Banks St", "city": "Kimberley", "phone": "250-427-1991", "services": []}}, {"type": "Feature", "geometry": {"type": "Point", "coordinates": ["-119.566804", "49.47074"]}, "properties": {"id": "4829", "name": "Pitter Patter Learning Centres At Wiltse", "address": "Room 31 640 Wiltse Blvd", "city": "Penticton", "phone": "250-770-7642", "services": []}}, {"type": "Feature", "geometry": {"type": "Point", "coordinates": ["-120.398084", "50.653633"]}, "properties": {"id": "4833", "name": "Kamloops Kidz Early Learning Center (Pineview Campus)", "address": "1711 Copperhead Dr", "city": "Kamloops", "phone": "250-319-9044", "services": []}}, {"type": "Feature", "geometry": {"type": "Point", "coordinates": ["-119.382065", "49.891263"]}, "properties": {"id": "4838", "name": "Mamma Bears Cub House Daycare Ltd.", "address": "250 Gibbs Road W", "city": "Kelowna", "phone": "250-681-4845", "services": []}}, {"type": "Feature", "geometry": {"type": "Point", "coordinates": ["-119.250128", "50.265123"]}, "properties": {"id": "4845", "name": "Fb Appletree", "address": "1406 32Nd Ave", "city": "Vernon", "phone": "250-550-4471", "services": []}}, {"type": "Feature", "geometry": {"type": "Point", "coordinates": ["-121.33006", "50.816907"]}, "properties": {"id": "4863", "name": "Teacher Tracy's Cache Creek Preschool", "address": "1260 Cariboo Highway", "city": "Cache Creek", "phone": "250-457-7168", "services": []}}, {"type": "Feature", "geometry": {"type": "Point", "coordinates": ["-115.756691", "49.503004"]}, "properties": {"id": "4866", "name": "Cranbrook Montessori School", "address": "1701 5Th St S", "city": "Cranbrook", "phone": "250-426-2024", "services": [2]}}, {"type": "Feature", "geometry": {"type": "Point", "coordinates": ["-119.268109", "50.270417"]}, "properties": {"id": "4868", "name": "Angel Rhef Family Daycare", "address": "2709 39 Ave", "city": "Vernon", "phone": "250-307-9253", "services": []}}, {"type": "Feature", "geometry": {"type": "Point", "coordinates": ["-120.365898", "50.726918"]}, "properties": {"id": "4870", "name": "Bright Beginnings Learning Centre", "address": "2006 Stagecoach Dr", "city": "Kamloops", "phone": "778-220-0949", "services": []}}, {"type": "Feature", "geometry": {"type": "Point", "coordinates": ["-117.072914", "49.615387"]}, "properties": {"id": "4882", "name": "School Of Little Fish Daycare", "address": "5799 Longbeach Rd", "city": "Nelson", "phone": "250-777-1601", "services": []}}, {"type": "Feature", "geometry": {"type": "Point", "coordinates": ["-121.993482", "52.108878"]}, "properties": {"id": "4892", "name": "Little Chiefs Day Care", "address": "2659 Indian Dr", "city": "Williams Lake", "phone": "250-296-3507", "services": []}}, {"type": "Feature", "geometry": {"type": "Point", "coordinates": ["-119.456201", "49.861683"]}, "properties": {"id": "4895", "name": "Kelowna Creative Advantage Childcare", "address": "3070 Benvoulin Rd", "city": "Kelowna", "phone": "778-484-3400", "services": [0, 1]}}, {"type": "Feature", "geometry": {"type": "Point", "coordinates": ["-119.265436", "50.284618"]}, "properties": {"id": "4900", "name": "House Of Dwarfs Daycare", "address": "5145 26 St", "city": "Vernon", "phone": "250-542-3736", "services": []}}, {"type": "Feature", "geometry": {"type": "Point", "coordinates": ["-119.454858", "49.898641"]}, "properties": {"id": "4905", "name": "Lil' Dancing Owls Educational Daycare", "address": "1896 Tronson Dr", "city": "Kelowna", "phone": "250-868-6018", "services": []}}, {"type": "Feature", "geometry": {"type": "Point", "coordinates": ["-122.145401", "52.132454"]}, "properties": {"id": "4907", "name": "Bgc Williams Lake Club Kidzone Afterschool/Summer", "address": "291 Second Ave N", "city": "Williams Lake", "phone": "250-392-5730", "services": []}}, {"type": "Feature", "geometry": {"type": "Point", "coordinates": ["-118.204254", "51.002798"]}, "properties": {"id": "4908", "name": "Chatterbugs Daycare", "address": "815 2 St W", "city": "Revelstoke", "phone": "250-837-3494", "services": []}}, {"type": "Feature", "geometry": {"type": "Point", "coordinates": ["-120.301201", "50.674839"]}, "properties": {"id": "4910", "name": "Little Fawn Nursery - Head Start Program", "address": "360 Chief Alex Thomas Way", "city": "Kamloops", "phone": "250-828-9700", "services": []}}, {"type": "Feature", "geometry": {"type": "Point", "coordinates": ["-114.922805", "50.024166"]}, "properties": {"id": "4912", "name": "Elkford Play School", "address": "750 Fording Dr", "city": "Elkford", "phone": "250-865-2031", "services": [2]}}, {"type": "Feature", "geometry": {"type": "Point", "coordinates": ["-122.154364", "52.14644"]}, "properties": {"id": "4914", "name": "Sunny Side Up Afterschool Program", "address": "1180 Moon Ave", "city": "Williams Lake", "phone": "250-303-0904", "services": []}}, {"type": "Feature", "geometry": {"type": "Point", "coordinates": ["-117.718337", "49.117175"]}, "properties": {"id": "4916", "name": "Sunningdale Children's Centre", "address": "625 Isabella Cres", "city": "Trail", "phone": "250-551-5011", "services": []}}, {"type": "Feature", "geometry": {"type": "Point", "coordinates": ["-119.109041", "50.229675"]}, "properties": {"id": "4932", "name": "Monkeytree Daycare", "address": "6454 Wilmar Way", "city": "Coldstream", "phone": "250-542-2942", "services": []}}, {"type": "Feature", "geometry": {"type": "Point", "coordinates": ["-122.143961", "52.132737"]}, "properties": {"id": "4938", "name": "Exploring The Puddle", "address": "279 3 Ave N", "city": "Williams Lake", "phone": "250-398-8410", "services": []}}, {"type": "Feature", "geometry": {"type": "Point", "coordinates": ["-120.358166", "50.707897"]}, "properties": {"id": "4939", "name": "A World Of Wonder Preschool", "address": "645 Clearwater Ave", "city": "Kamloops", "phone": "250-571-7101", "services": []}}, {"type": "Feature", "geometry": {"type": "Point", "coordinates": ["-119.378934", "49.882781"]}, "properties": {"id": "4947", "name": "Echo Early Learning Center", "address": "535 Molnar Rd", "city": "Kelowna", "phone": "250-765-8685", "services": []}}, {"type": "Feature", "geometry": {"type": "Point", "coordinates": ["-120.401469", "50.706358"]}, "properties": {"id": "4953", "name": "Little Bear Licensed Child Care", "address": "1076 Calmar Pl", "city": "Kamloops", "phone": "250-572-0381", "services": []}}, {"type": "Feature", "geometry": {"type": "Point", "coordinates": ["-119.586852", "49.485521"]}, "properties": {"id": "4957", "name": "Brighter Beginnings Childcare", "address": "1203 Main St", "city": "Penticton", "phone": "250-493-2223", "services": []}}, {"type": "Feature", "geometry": {"type": "Point", "coordinates": ["-117.659945", "49.281732"]}, "properties": {"id": "4967", "name": "Silly Monkeys Childcare", "address": "1250 26Th St", "city": "Castlegar", "phone": "250-687-0198", "services": []}}, {"type": "Feature", "geometry": {"type": "Point", "coordinates": ["-118.188973", "50.991942"]}, "properties": {"id": "4971", "name": "Lucky Penny Garderie", "address": "722 4 St E", "city": "Revelstoke", "phone": "250-814-3787", "services": [0, 1]}}, {"type": "Feature", "geometry": {"type": "Point", "coordinates": ["-119.271052", "50.693032"]}, "properties": {"id": "4989", "name": "Maple Tree Montessori", "address": "931 12 St Se", "city": "Salmon Arm", "phone": "250-804-9008", "services": []}}, {"type": "Feature", "geometry": {"type": "Point", "coordinates": ["-122.146783", "52.150807"]}, "properties": {"id": "4991", "name": "Mom And Me Daycare", "address": "1275 Pigeon Ave", "city": "Williams Lake", "phone": "250-302-2065", "services": []}}, {"type": "Feature", "geometry": {"type": "Point", "coordinates": ["-119.397215", "49.877261"]}, "properties": {"id": "5001", "name": "Okanagan Christian School Preschool", "address": "1035 Hollywood Rd S", "city": "Kelowna", "phone": "604-853-5451", "services": []}}, {"type": "Feature", "geometry": {"type": "Point", "coordinates": ["-119.402036", "49.886075"]}, "properties": {"id": "5024", "name": "Little Bunny", "address": "800 Dundee Rd", "city": "Kelowna", "phone": "250-212-1870", "services": []}}, {"type": "Feature", "geometry": {"type": "Point", "coordinates": ["-119.437893", "49.928784"]}, "properties": {"id": "5045", "name": "Adventure Junction Early Learning Centre", "address": "102 Snowsell St N", "city": "Kelowna", "phone": "250-878-2326", "services": []}}, {"type": "Feature", "geometry": {"type": "Point", "coordinates": ["-119.441833", "49.921522"]}, "properties": {"id": "5056", "name": "Thrive Out Of School Care - Mountainview", "address": "271 Snowsell St", "city": "Kelowna", "phone": "250-826-5436", "services": []}}, {"type": "Feature", "geometry": {"type": "Point", "coordinates": ["-120.366741", "50.652591"]}, "properties": {"id": "5076", "name": "Kids And Company Kamloops", "address": "702 1801 Princeton Kamloops Hwy", "city": "Kamloops", "phone": "416-938-8024", "services": []}}, {"type": "Feature", "geometry": {"type": "Point", "coordinates": ["-119.39769", "49.874842"]}, "properties": {"id": "5113", "name": "Precious Jewels Childcare Center", "address": "1097 Hollywood Rd", "city": "Kelowna", "phone": "250-899-7671", "services": []}}, {"type": "Feature", "geometry": {"type": "Point", "coordinates": ["-120.34863", "50.757956"]}, "properties": {"id": "5119", "name": "Curious Minds Montessori Daycare", "address": "2955 Westsyde Rd", "city": "Kamloops", "phone": "604-720-2694", "services": []}}, {"type": "Feature", "geometry": {"type": "Point", "coordinates": ["-119.576952", "49.860192"]}, "properties": {"id": "5120", "name": "Little Fish Early Learning Center", "address": "1510 Ponderosa Rd", "city": "West Kelowna", "phone": "250-826-0903", "services": [1]}}, {"type": "Feature", "geometry": {"type": "Point", "coordinates": ["-119.734307", "49.777205"]}, "properties": {"id": "5149", "name": "Okanagan Boys And Girls Clubs - Peachland", "address": "5684 Beach Ave", "city": "Peachland", "phone": "250-762-3914", "services": []}}, {"type": "Feature", "geometry": {"type": "Point", "coordinates": ["-120.347724", "50.754363"]}, "properties": {"id": "5155", "name": "The Growing Tree Early Learning Centre", "address": "2826 Bank Rd", "city": "Kamloops", "phone": "778-472-3303", "services": []}}, {"type": "Feature", "geometry": {"type": "Point", "coordinates": ["-120.316222", "50.79751"]}, "properties": {"id": "5157", "name": "ymca Rayleigh Elementary School Age Child Care", "address": "306 Puette Ranch Rd", "city": "Kamloops", "phone": "250-376-4771", "services": []}}, {"type": "Feature", "geometry": {"type": "Point", "coordinates": ["-120.34028", "50.657335"]}, "properties": {"id": "5160", "name": "Beyond The Bell Out Of School Care", "address": "34-1580 Summit Dr", "city": "Kamloops", "phone": "250-828-5160", "services": []}}, {"type": "Feature", "geometry": {"type": "Point", "coordinates": ["-119.260012", "50.262946"]}, "properties": {"id": "5161", "name": "Elements Early Learning Centre", "address": "2102 29Th Cres", "city": "Vernon", "phone": "250-351-9021", "services": [1]}}, {"type": "Feature", "geometry": {"type": "Point", "coordinates": ["-115.744421", "49.522723"]}, "properties": {"id": "5165", "name": "Kootenay Christian Academy Preschool", "address": "1200 Kootenay St N", "city": "Cranbrook", "phone": "250-489-3426", "services": []}}, {"type": "Feature", "geometry": {"type": "Point", "coordinates": ["-119.252171", "50.270351"]}, "properties": {"id": "5180", "name": "Small Wonders", "address": "1507 39 Ave", "city": "Vernon", "phone": "250-540-4861", "services": []}}, {"type": "Feature", "geometry": {"type": "Point", "coordinates": ["-116.973916", "51.305665"]}, "properties": {"id": "5181", "name": "Golden Child Daycare", "address": "818 9Th St N", "city": "Golden", "phone": "250-344-5585", "services": []}}, {"type": "Feature", "geometry": {"type": "Point", "coordinates": ["-119.556799", "49.88693"]}, "properties": {"id": "5196", "name": "ymca - Rose Valley Out Of School Care", "address": "1680 Westlake Rd", "city": "West Kelowna", "phone": "250-764-9621", "services": []}}, {"type": "Feature", "geometry": {"type": "Point", "coordinates": ["-120.355132", "50.690062"]}, "properties": {"id": "5204", "name": "Boys & Girls Club John Tod Centre", "address": "150 Wood St", "city": "Kamloops", "phone": "250-554-5437", "services": []}}, {"type": "Feature", "geometry": {"type": "Point", "coordinates": ["-117.79875", "49.080898"]}, "properties": {"id": "5221", "name": "Four Winds Rss After School Program", "address": "2390 Jubilee St", "city": "Rossland", "phone": "250-362-5233", "services": []}}, {"type": "Feature", "geometry": {"type": "Point", "coordinates": ["-119.400019", "49.880756"]}, "properties": {"id": "5223", "name": "Rutland Parent Participation Preschool", "address": "705 Kitch Rd", "city": "Kelowna", "phone": "250-448-1758", "services": [2, 3]}}, {"type": "Feature", "geometry": {"type": "Point", "coordinates": ["-119.243972", "50.245721"]}, "properties": {"id": "5229", "name": "Gramma Loops Day Care", "address": "182 Fenwick Rd", "city": "Vernon", "phone": "250-545-7215", "services": []}}, {"type": "Feature", "geometry": {"type": "Point", "coordinates": ["-119.230506", "50.223345"]}, "properties": {"id": "5237", "name": "Coldstream Appletree", "address": "9904 Kalamalka Rd", "city": "Coldstream", "phone": "250-550-4471", "services": []}}, {"type": "Feature", "geometry": {"type": "Point", "coordinates": ["-119.540178", "49.192246"]}, "properties": {"id": "5238", "name": "Little Wonders Childcare", "address": "750 Merlot Ave", "city": "Oliver", "phone": "250-689-2135", "services": []}}, {"type": "Feature", "geometry": {"type": "Point", "coordinates": ["-119.235045", "50.3078"]}, "properties": {"id": "5249", "name": "Browne Bears", "address": "6817 Bryden Rd", "city": "Vernon", "phone": "250-938-2396", "services": []}}, {"type": "Feature", "geometry": {"type": "Point", "coordinates": ["-120.795618", "50.112894"]}, "properties": {"id": "5265", "name": "Savannah's Little Explorers Child Care", "address": "1733 Granite Ave", "city": "Merritt", "phone": "250-378-3513", "services": []}}, {"type": "Feature", "geometry": {"type": "Point", "coordinates": ["-119.400489", "49.875062"]}, "properties": {"id": "5279", "name": "Lil Wildlings Daycare", "address": "725 Wayne Rd", "city": "Kelowna", "phone": "778-581-7228", "services": []}}, {"type": "Feature", "geometry": {"type": "Point", "coordinates": ["-119.5898", "49.471157"]}, "properties": {"id": "5302", "name": "Leapin Lizard's Daycare Parkway", "address": "265 Kinney Ave", "city": "Penticton", "phone": "250-496-0081", "services": []}}, {"type": "Feature", "geometry": {"type": "Point", "coordinates": ["-119.389871", "50.031804"]}, "properties": {"id": "5315", "name": "Okanagan Boys & Girls Clubs-Peter Greer Afterschool Program", "address": "10300 Sherman Dr", "city": "Lake Country", "phone": "250-762-3914", "services": []}}, {"type": "Feature", "geometry": {"type": "Point", "coordinates": ["-122.151737", "52.151272"]}, "properties": {"id": "5326", "name": "Kids \"R\" Kids After School Care", "address": "1175 Blair St", "city": "Williams Lake", "phone": "250-267-3748", "services": []}}, {"type": "Feature", "geometry": {"type": "Point", "coordinates": ["-119.585784", "49.861362"]}, "properties": {"id": "5327", "name": "For The Kids Daycare (West Kelowna)", "address": "101-1680 Ross Rd", "city": "West Kelowna", "phone": "250-769-1601", "services": [0, 1]}}, {"type": "Feature", "geometry": {"type": "Point", "coordinates": ["-119.580906", "49.45632"]}, "properties": {"id": "5330", "name": "Pitter Patter Learning Centres At Yorkton", "address": "96 Yorkton Ave", "city": "Penticton", "phone": "236-422-2229", "services": []}}, {"type": "Feature", "geometry": {"type": "Point", "coordinates": ["-118.17717", "50.976852"]}, "properties": {"id": "5331", "name": "Red Wagon Revelstoke", "address": "1950 Park Dr", "city": "Revelstoke", "phone": "250-837-1623", "services": []}}, {"type": "Feature", "geometry": {"type": "Point", "coordinates": ["-119.246816", "50.268544"]}, "properties": {"id": "5340", "name": "East Hill Appletree", "address": "3605 12 St", "city": "Vernon", "phone": "250-550-4471", "services": []}}, {"type": "Feature", "geometry": {"type": "Point", "coordinates": ["-119.258719", "50.708535"]}, "properties": {"id": "5365", "name": "Kinder Play Child Care", "address": "1170 22 St Ne", "city": "Salmon Arm", "phone": "250-803-1104", "services": []}}, {"type": "Feature", "geometry": {"type": "Point", "coordinates": ["-120.770815", "50.101182"]}, "properties": {"id": "5367", "name": "Tumbleweed Playschool", "address": "2975A Clapperton Ave", "city": "Merritt", "phone": "250-378-8885", "services": [2]}}, {"type": "Feature", "geometry": {"type": "Point", "coordinates": ["-119.455683", "49.90365"]}, "properties": {"id": "5369", "name": "Glenmore Educational Daycare", "address": "1823 Ivans Ave", "city": "Kelowna", "phone": "250-801-9586", "services": []}}, {"type": "Feature", "geometry": {"type": "Point", "coordinates": ["-119.354043", "49.938532"]}, "properties": {"id": "5386", "name": "The Clubhouse At Ellison - Parkdale", "address": "3735 Parkdale Rd", "city": "Kelowna", "phone": "250-860-4393", "services": []}}, {"type": "Feature", "geometry": {"type": "Point", "coordinates": ["-119.68787", "49.601864"]}, "properties": {"id": "5387", "name": "Little Blossom's Family Daycare", "address": "11104 Young St", "city": "Summerland", "phone": "778-516-1161", "services": [0, 1]}}, {"type": "Feature", "geometry": {"type": "Point", "coordinates": ["-119.558558", "49.486631"]}, "properties": {"id": "5397", "name": "Breanne's Family Daycare", "address": "1508 Duncan Ave E", "city": "Penticton", "phone": "250-770-8735", "services": []}}, {"type": "Feature", "geometry": {"type": "Point", "coordinates": ["-117.807518", "49.073593"]}, "properties": {"id": "5402", "name": "Little Friends Habitat", "address": "1590 Victoria Ave", "city": "Rossland", "phone": "250-364-3923", "services": []}}, {"type": "Feature", "geometry": {"type": "Point", "coordinates": ["-119.911289", "50.877567"]}, "properties": {"id": "5406", "name": "Sundance Playschool", "address": "1280 Alpine Rd", "city": "Sun Peaks", "phone": "250-371-1227", "services": [0, 1, 3]}}, {"type": "Feature", "geometry": {"type": "Point", "coordinates": ["-117.295707", "49.480894"]}, "properties": {"id": "5409", "name": "Pip Squeaks Playhouse", "address": "1602 Vancouver St", "city": "Nelson", "phone": "250-354-8725", "services": []}}, {"type": "Feature", "geometry": {"type": "Point", "coordinates": ["-119.689561", "49.60439"]}, "properties": {"id": "5424", "name": "Jodi's House Family Child Care Centre", "address": "2-11310 Dunsdon Cres", "city": "Summerland", "phone": "250-494-1787", "services": [0, 1, 3]}}, {"type": "Feature", "geometry": {"type": "Point", "coordinates": ["-119.490197", "49.8668"]}, "properties": {"id": "5440", "name": "Cefa Early Learning mckay Ave", "address": "100-590 mckay Ave", "city": "Kelowna", "phone": "236-420-3868", "services": []}}, {"type": "Feature", "geometry": {"type": "Point", "coordinates": ["-119.319941", "50.224029"]}, "properties": {"id": "5443", "name": "Secret Garden Daycare", "address": "651 Commonage Rd", "city": "Vernon", "phone": "778-212-1788", "services": []}}, {"type": "Feature", "geometry": {"type": "Point", "coordinates": ["-120.376229", "50.637509"]}, "properties": {"id": "5447", "name": "All Aboard Childcare Ltd.", "address": "3-1325 Aberdeen Dr", "city": "Kamloops", "phone": "250-851-0205", "services": []}}, {"type": "Feature", "geometry": {"type": "Point", "coordinates": ["-118.181644", "50.97618"]}, "properties": {"id": "5463", "name": "The Owls Nest", "address": "1518 Nichol Rd", "city": "Revelstoke", "phone": "250-683-9153", "services": []}}, {"type": "Feature", "geometry": {"type": "Point", "coordinates": ["-119.625661", "49.844328"]}, "properties": {"id": "5472", "name": "Little Duck Family Child Care", "address": "2410 Reece Rd", "city": "West Kelowna", "phone": "250-859-0957", "services": [0, 1, 3]}}, {"type": "Feature", "geometry": {"type": "Point", "coordinates": ["-120.337643", "50.671179"]}, "properties": {"id": "5481", "name": "St. Ann's Academy Childcare", "address": "205 Columbia St", "city": "Kamloops", "phone": "250-372-5452", "services": []}}, {"type": "Feature", "geometry": {"type": "Point", "coordinates": ["-122.153177", "52.148992"]}, "properties": {"id": "5487", "name": "Kidcare Daycare 2", "address": "1115 Western Ave", "city": "Williams Lake", "phone": "250-398-8109", "services": []}}, {"type": "Feature", "geometry": {"type": "Point", "coordinates": ["-120.263159", "50.661414"]}, "properties": {"id": "5495", "name": "Juniper Early Learning Center", "address": "2049 Highland Pl", "city": "Kamloops", "phone": "250-374-9565", "services": [0, 1, 3]}}, {"type": "Feature", "geometry": {"type": "Point", "coordinates": ["-119.48813", "49.822344"]}, "properties": {"id": "5500", "name": "Lakeshore Out Of School Care", "address": "4409 Lakeshore Rd", "city": "Kelowna", "phone": "250-808-1780", "services": []}}, {"type": "Feature", "geometry": {"type": "Point", "coordinates": ["-119.55629", "49.182259"]}, "properties": {"id": "5502", "name": "Oes Childcare", "address": "809 School Ave", "city": "Oliver", "phone": "250-689-4099", "services": []}}, {"type": "Feature", "geometry": {"type": "Point", "coordinates": ["-119.638161", "49.506995"]}, "properties": {"id": "5508", "name": "Kellie N Kids Daycare", "address": "1705 Estates Pl", "city": "Penticton", "phone": "236-422-4494", "services": []}}, {"type": "Feature", "geometry": {"type": "Point", "coordinates": ["-115.73209", "49.524785"]}, "properties": {"id": "5510", "name": "Fits & Giggles", "address": "1509 Mount Royal Ridge", "city": "Cranbrook", "phone": "250-464-1338", "services": []}}, {"type": "Feature", "geometry": {"type": "Point", "coordinates": ["-119.201021", "50.76549"]}, "properties": {"id": "5522", "name": "Xplore Kidz Zone", "address": "2250 Trans Canada Hwy", "city": "Salmon Arm", "phone": "250-515-0048", "services": []}}, {"type": "Feature", "geometry": {"type": "Point", "coordinates": ["-119.46302", "49.881328"]}, "properties": {"id": "5536", "name": "Echo Academy", "address": "1605 Sutherland Ave", "city": "Kelowna", "phone": "778-581-3246", "services": []}}, {"type": "Feature", "geometry": {"type": "Point", "coordinates": ["-115.063832", "49.504461"]}, "properties": {"id": "5547", "name": "Little Me", "address": "521 4Th Ave", "city": "Fernie", "phone": "250-430-7474", "services": []}}, {"type": "Feature", "geometry": {"type": "Point", "coordinates": ["-120.356279", "50.634041"]}, "properties": {"id": "5550", "name": "Desert Palms", "address": "2623 Willowbrae Dr", "city": "Kamloops", "phone": "250-372-0673", "services": []}}, {"type": "Feature", "geometry": {"type": "Point", "coordinates": ["-119.567293", "49.860919"]}, "properties": {"id": "5561", "name": "Little Giggles Family Daycare", "address": "2668 Alhambra Dr", "city": "West Kelowna", "phone": "250-869-6505", "services": []}}, {"type": "Feature", "geometry": {"type": "Point", "coordinates": ["-117.641096", "49.320397"]}, "properties": {"id": "5562", "name": "Uscc Children's Orchard Preschool", "address": "1876 Brilliant Rd", "city": "Castlegar", "phone": "250-365-3613", "services": [2]}}, {"type": "Feature", "geometry": {"type": "Point", "coordinates": ["-119.411382", "49.892449"]}, "properties": {"id": "5563", "name": "Blossoming Butterflies Day School", "address": "1270 Houghton Rd", "city": "Kelowna", "phone": "778-484-4116", "services": [0, 1, 3]}}, {"type": "Feature", "geometry": {"type": "Point", "coordinates": ["-119.193612", "50.441878"]}, "properties": {"id": "5598", "name": "Kidspace Learning Centres Armstrong Inc.", "address": "2720 Rosedale Ave", "city": "Armstrong", "phone": "604-380-4060", "services": []}}]}