{"type": "FeatureCollection", "features": [{"type": "Feature", "geometry": {"type": "Point", "coordinates": ["-122.748834", "53.916107"]}, "properties": {"id": "69", "name": "Tyke Town Early Learning", "address": "1448 - 5Th Ave", "city": "Prince George", "phone": "250-899-4546", "services": []}}, {"type": "Feature", "geometry": {"type": "Point", "coordinates": ["-120.224682", "55.746978"]}, "properties": {"id": "71", "name": "Campus Kids Daycare", "address": "11401 8 St", "city": "Dawson Creek", "phone": "250-784-7523", "services": []}}, {"type": "Feature", "geometry": {"type": "Point", "coordinates": ["-120.818001", "56.244729"]}, "properties": {"id": "107", "name": "Totem Nursery Preschool", "address": "9908 84 St", "city": "Fort St. John", "phone": "250-785-7227", "services": []}}, {"type": "Feature", "geometry": {"type": "Point", "coordinates": ["-128.660047", "54.050304"]}, "properties": {"id": "117", "name": "Kildala Nursery And Out Of School Care", "address": "803 Columbia Ave E", "city": "Kitimat", "phone": "250-632-8745", "services": []}}, {"type": "Feature", "geometry": {"type": "Point", "coordinates": ["-120.851885", "56.241708"]}, "properties": {"id": "126", "name": "Keeginaw Preschool / Keeginaw Kids", "address": "10208 95 Ave", "city": "Fort St. John", "phone": "250-785-8566", "services": []}}, {"type": "Feature", "geometry": {"type": "Point", "coordinates": ["-120.821883", "56.239882"]}, "properties": {"id": "161", "name": "Northern Baby Bear Daycare Inc.", "address": "9304  86 St", "city": "Fort St. John", "phone": "250-785-0257", "services": []}}, {"type": "Feature", "geometry": {"type": "Point", "coordinates": ["-130.327895", "54.309938"]}, "properties": {"id": "234", "name": "Friendship House Preschool", "address": "744 Fraser St", "city": "Prince Rupert", "phone": "250-627-1717", "services": []}}, {"type": "Feature", "geometry": {"type": "Point", "coordinates": ["-122.783626", "53.903804"]}, "properties": {"id": "287", "name": "Caledonia Early Care And Learning Centre", "address": "3330 22Nd Avenue", "city": "Prince George", "phone": "250-561-5834", "services": []}}, {"type": "Feature", "geometry": {"type": "Point", "coordinates": ["-122.755565", "53.898233"]}, "properties": {"id": "306", "name": "Carney Hill Neighbourhood Centre", "address": "2579 Victoria St", "city": "Prince George", "phone": "250-563-0858", "services": [1, 3]}}, {"type": "Feature", "geometry": {"type": "Point", "coordinates": ["-122.632331", "53.841907"]}, "properties": {"id": "318", "name": "Teddy Bear Preschool", "address": "6355 Bendixon Rd", "city": "Prince George", "phone": "250-963-8214", "services": [2]}}, {"type": "Feature", "geometry": {"type": "Point", "coordinates": ["-122.813939", "53.887586"]}, "properties": {"id": "333", "name": "U.N.B.C. Child Care", "address": "3333 University Way", "city": "Prince George", "phone": "250-960-5720", "services": []}}, {"type": "Feature", "geometry": {"type": "Point", "coordinates": ["-128.627212", "54.062569"]}, "properties": {"id": "360", "name": "Kid's Place Preschool", "address": "1515 Kingfisher Ave N", "city": "Kitimat", "phone": "250-632-3144", "services": []}}, {"type": "Feature", "geometry": {"type": "Point", "coordinates": ["-122.76746", "53.860541"]}, "properties": {"id": "367", "name": "Teeter Tots Early Learning Centre", "address": "7201 Domano Blvd", "city": "Prince George", "phone": "250-964-2744", "services": []}}, {"type": "Feature", "geometry": {"type": "Point", "coordinates": ["-124.114911", "53.944141"]}, "properties": {"id": "368", "name": "Saik'uz Daycare", "address": "133 Joseph St", "city": "Vanderhoof", "phone": "250-567-2122", "services": []}}, {"type": "Feature", "geometry": {"type": "Point", "coordinates": ["-124.245796", "54.442501"]}, "properties": {"id": "376", "name": "Sum Yaz Daycare", "address": "4708 Tl'azl'en Main", "city": "Fort St. James", "phone": "250-648-3236", "services": []}}, {"type": "Feature", "geometry": {"type": "Point", "coordinates": ["-130.301323", "54.311853"]}, "properties": {"id": "397", "name": "Aboriginal Head Start", "address": "313 Prince Rupert Blvd.", "city": "Prince Rupert", "phone": "250-627-4010", "services": []}}, {"type": "Feature", "geometry": {"type": "Point", "coordinates": ["-122.741323", "53.912065"]}, "properties": {"id": "410", "name": "Children's Choice Daycare", "address": "933 Patricia Blvd.", "city": "Prince George", "phone": "250-961-1435", "services": []}}, {"type": "Feature", "geometry": {"type": "Point", "coordinates": ["-122.802405", "53.914864"]}, "properties": {"id": "430", "name": "Sunny Day", "address": "4191 Davie Ave", "city": "Prince George", "phone": "250-562-0402", "services": []}}, {"type": "Feature", "geometry": {"type": "Point", "coordinates": ["-125.763163", "54.232267"]}, "properties": {"id": "455", "name": "Ashurst Children's Centre", "address": "545 Highway 16", "city": "Burns Lake", "phone": "250-692-1720", "services": [0, 1]}}, {"type": "Feature", "geometry": {"type": "Point", "coordinates": ["-122.478697", "52.975318"]}, "properties": {"id": "537", "name": "Shirley's Daycare", "address": "1210 Graham Ave", "city": "Quesnel", "phone": "250-983-3697", "services": []}}, {"type": "Feature", "geometry": {"type": "Point", "coordinates": ["-122.835975", "53.960254"]}, "properties": {"id": "539", "name": "Anna's Day Care", "address": "6353 Bench Dr", "city": "Prince George", "phone": "250-563-6955", "services": [0, 1]}}, {"type": "Feature", "geometry": {"type": "Point", "coordinates": ["-122.786417", "53.915008"]}, "properties": {"id": "540", "name": "Little Tykes Day Care", "address": "1036 Babine Cres", "city": "Prince George", "phone": "250-564-1751", "services": []}}, {"type": "Feature", "geometry": {"type": "Point", "coordinates": ["-122.80901", "53.918767"]}, "properties": {"id": "541", "name": "Happy Tots Day Care", "address": "634 Faulkner Cres", "city": "Prince George", "phone": "250-562-6563", "services": []}}, {"type": "Feature", "geometry": {"type": "Point", "coordinates": ["-122.795107", "53.894334"]}, "properties": {"id": "542", "name": "Tykes 'N Tots", "address": "3851 Grace Cres", "city": "Prince George", "phone": "250-563-2496", "services": []}}, {"type": "Feature", "geometry": {"type": "Point", "coordinates": ["-122.777675", "53.860669"]}, "properties": {"id": "543", "name": "Goldilocks Family Day Care", "address": "2967 Parent Rd", "city": "Prince George", "phone": "250-964-1544", "services": []}}, {"type": "Feature", "geometry": {"type": "Point", "coordinates": ["-125.750387", "54.231082"]}, "properties": {"id": "544", "name": "Helping Hands Day Care", "address": "477 4Th Ave", "city": "Burns Lake", "phone": "250-692-0655", "services": []}}, {"type": "Feature", "geometry": {"type": "Point", "coordinates": ["-122.787241", "53.917963"]}, "properties": {"id": "545", "name": "Sherwood Forest", "address": "856 Warren Ave", "city": "Prince George", "phone": "250-562-5536", "services": []}}, {"type": "Feature", "geometry": {"type": "Point", "coordinates": ["-122.782122", "53.887224"]}, "properties": {"id": "546", "name": "Eeyore's Daycare", "address": "106-3308 Underhill Rd", "city": "Prince George", "phone": "250-561-0639", "services": [0, 1, 3]}}, {"type": "Feature", "geometry": {"type": "Point", "coordinates": ["-122.778118", "53.855035"]}, "properties": {"id": "547", "name": "Little Angels Day Care", "address": "7538 Southridge Ave", "city": "Prince George", "phone": "250-964-9275", "services": [0, 1, 3]}}, {"type": "Feature", "geometry": {"type": "Point", "coordinates": ["-122.782952", "53.893137"]}, "properties": {"id": "653", "name": "Amazing Kids Center", "address": "2742 Michener Cres", "city": "Prince George", "phone": "250-981-9322", "services": []}}, {"type": "Feature", "geometry": {"type": "Point", "coordinates": ["-127.670815", "55.253628"]}, "properties": {"id": "658", "name": "Gitanmaax Daycare", "address": "1715 John Field Rd", "city": "Hazelton", "phone": "250-842-0349", "services": []}}, {"type": "Feature", "geometry": {"type": "Point", "coordinates": ["-127.176198", "54.783268"]}, "properties": {"id": "673", "name": "Stepping Stones Learning Centre", "address": "4040 1St Ave", "city": "Smithers", "phone": "250-877-3603", "services": []}}, {"type": "Feature", "geometry": {"type": "Point", "coordinates": ["-122.786855", "53.889061"]}, "properties": {"id": "695", "name": "Little Bits Of Joy Daycare", "address": "3194 Ospika Blvd S", "city": "Prince George", "phone": "250-961-1889", "services": []}}, {"type": "Feature", "geometry": {"type": "Point", "coordinates": ["-122.757765", "53.915011"]}, "properties": {"id": "710", "name": "Duchess Early Learning Centre", "address": "810 Winnipeg St", "city": "Prince George", "phone": "250-596-1319", "services": []}}, {"type": "Feature", "geometry": {"type": "Point", "coordinates": ["-122.75897", "53.9021"]}, "properties": {"id": "716", "name": "Story Book Preschool", "address": "1687 Strathcona Ave", "city": "Prince George", "phone": "250-961-6183", "services": [2]}}, {"type": "Feature", "geometry": {"type": "Point", "coordinates": ["-122.632063", "53.899282"]}, "properties": {"id": "721", "name": "Little Bam Bam's Licensed Daycare Facility", "address": "2108 Bittner Rd E", "city": "Prince George", "phone": "250-640-9592", "services": []}}, {"type": "Feature", "geometry": {"type": "Point", "coordinates": ["-122.807039", "53.936329"]}, "properties": {"id": "728", "name": "Natural Beginnings Child Care Centre", "address": "995 Heritage Cres", "city": "Prince George", "phone": "250-564-4751", "services": []}}, {"type": "Feature", "geometry": {"type": "Point", "coordinates": ["-128.603486", "54.532061"]}, "properties": {"id": "729", "name": "Bumble Bees & Butterflies Childcare", "address": "4008 Best St", "city": "Terrace", "phone": "250-631-6042", "services": []}}, {"type": "Feature", "geometry": {"type": "Point", "coordinates": ["-122.706956", "58.803881"]}, "properties": {"id": "736", "name": "Fort Nelson Playschool", "address": "5319 50 Ave S", "city": "Fort Nelson", "phone": "250-774-3351", "services": []}}, {"type": "Feature", "geometry": {"type": "Point", "coordinates": ["-122.805408", "54.015331"]}, "properties": {"id": "753", "name": "ymca Springwood School Age Care", "address": "4600 Zral Rd", "city": "Prince George", "phone": "250-961-7046", "services": []}}, {"type": "Feature", "geometry": {"type": "Point", "coordinates": ["-122.766492", "53.850574"]}, "properties": {"id": "763", "name": "Abc's & 123 Daycare", "address": "8036 Princeton Cres", "city": "Prince George", "phone": "250-613-7101", "services": []}}, {"type": "Feature", "geometry": {"type": "Point", "coordinates": ["-122.446905", "52.964993"]}, "properties": {"id": "772", "name": "The Whole Child Early Learning Centre", "address": "2192 Maple Dr", "city": "Quesnel", "phone": "778-466-2420", "services": []}}, {"type": "Feature", "geometry": {"type": "Point", "coordinates": ["-122.762582", "53.858883"]}, "properties": {"id": "781", "name": "Castle Court Child Care (C.C.C.C)", "address": "6877 Simon Fraser Ave", "city": "Prince George", "phone": "250-964-1199", "services": []}}, {"type": "Feature", "geometry": {"type": "Point", "coordinates": ["-120.825", "56.235669"]}, "properties": {"id": "802", "name": "Oasis Des Papillons", "address": "8907 88 St", "city": "Fort St. John", "phone": "250-329-7327", "services": []}}, {"type": "Feature", "geometry": {"type": "Point", "coordinates": ["-122.777675", "53.854274"]}, "properties": {"id": "815", "name": "Kidz Corner", "address": "7598 Southridge Ave", "city": "Prince George", "phone": "250-961-5212", "services": [0, 1]}}, {"type": "Feature", "geometry": {"type": "Point", "coordinates": ["-120.829388", "56.245156"]}, "properties": {"id": "824", "name": "Cottontail Cottage Childcare", "address": "9003 99 Ave", "city": "Fort St. John", "phone": "250-261-2623", "services": []}}, {"type": "Feature", "geometry": {"type": "Point", "coordinates": ["-127.212044", "54.803493"]}, "properties": {"id": "872", "name": "Baboons & Gorillas", "address": "5142 Slack Rd", "city": "Smithers", "phone": "250-877-0486", "services": []}}, {"type": "Feature", "geometry": {"type": "Point", "coordinates": ["-130.287077", "54.323179"]}, "properties": {"id": "876", "name": "Puddles And Play", "address": "1710 Jamaica Ave", "city": "Prince Rupert", "phone": "250-624-3904", "services": []}}, {"type": "Feature", "geometry": {"type": "Point", "coordinates": ["-122.758865", "53.951421"]}, "properties": {"id": "891", "name": "Fairytale Daycare", "address": "1820 Hegert Rd", "city": "Prince George", "phone": "250-565-1018", "services": []}}, {"type": "Feature", "geometry": {"type": "Point", "coordinates": ["-123.104648", "55.341287"]}, "properties": {"id": "938", "name": "Sabreland Daycare Ii", "address": "311 Nechako Ave", "city": "Mackenzie", "phone": "250-997-4166", "services": [0, 1, 3]}}, {"type": "Feature", "geometry": {"type": "Point", "coordinates": ["-120.850046", "56.246701"]}, "properties": {"id": "947", "name": "J&J's Hoot And Howl Preschool", "address": "102-10130 100 Ave", "city": "Fort St. John", "phone": "250-787-7319", "services": []}}, {"type": "Feature", "geometry": {"type": "Point", "coordinates": ["-122.822581", "53.850867"]}, "properties": {"id": "971", "name": "Busy B's Clubhouse", "address": "4637 Highway 16 W", "city": "Prince George", "phone": "250-640-7071", "services": [2, 3]}}, {"type": "Feature", "geometry": {"type": "Point", "coordinates": ["-122.771486", "53.906706"]}, "properties": {"id": "982", "name": "Service De Garde Franco-Amis", "address": "2641 Ellison Dr", "city": "Prince George", "phone": "250-640-0143", "services": []}}, {"type": "Feature", "geometry": {"type": "Point", "coordinates": ["-122.505216", "52.976674"]}, "properties": {"id": "1001", "name": "?Echen Early Learning", "address": "324 Hoy St", "city": "Quesnel", "phone": "250-992-0614", "services": []}}, {"type": "Feature", "geometry": {"type": "Point", "coordinates": ["-122.493948", "52.984117"]}, "properties": {"id": "1012", "name": "Lots Of Tots Childcare Center", "address": "450 Bowron Ave", "city": "Quesnel", "phone": "250-991-5015", "services": []}}, {"type": "Feature", "geometry": {"type": "Point", "coordinates": ["-122.801556", "53.917832"]}, "properties": {"id": "1022", "name": "Robyn's Nest Daycare", "address": "755 Kerry St", "city": "Prince George", "phone": "778-349-0815", "services": []}}, {"type": "Feature", "geometry": {"type": "Point", "coordinates": ["-127.163035", "54.757365"]}, "properties": {"id": "1023", "name": "Laughing Together Family Daycare", "address": "1362 Hudson Bay Mountain Rd", "city": "Smithers", "phone": "250-643-0143", "services": []}}, {"type": "Feature", "geometry": {"type": "Point", "coordinates": ["-122.769724", "53.916606"]}, "properties": {"id": "1030", "name": "Always Home Childcare", "address": "887 Carney St", "city": "Prince George", "phone": "250-301-6432", "services": []}}, {"type": "Feature", "geometry": {"type": "Point", "coordinates": ["-122.808961", "53.994832"]}, "properties": {"id": "1042", "name": "Heart To Hart Preschool & After School Care", "address": "7151 Heather Park Rd", "city": "Prince George", "phone": "250-649-5845", "services": []}}, {"type": "Feature", "geometry": {"type": "Point", "coordinates": ["-130.290345", "54.322983"]}, "properties": {"id": "1092", "name": "Puddle Jumpers Childcare Services", "address": "1561 India Ave", "city": "Prince Rupert", "phone": "778-884-2560", "services": []}}, {"type": "Feature", "geometry": {"type": "Point", "coordinates": ["-120.850658", "56.245621"]}, "properties": {"id": "1111", "name": "Wiggles And Giggles Group Daycare 102 Street", "address": "9903 102 St", "city": "Fort St. John", "phone": "250-785-5438", "services": [0, 1, 3]}}, {"type": "Feature", "geometry": {"type": "Point", "coordinates": ["-120.238244", "55.758467"]}, "properties": {"id": "1116", "name": "Milezero Academy", "address": "1300 104 Ave", "city": "Dawson Creek", "phone": "250-782-0844", "services": []}}, {"type": "Feature", "geometry": {"type": "Point", "coordinates": ["-122.499383", "52.987431"]}, "properties": {"id": "1119", "name": "St Ann's Catholic Preschool", "address": "150 Sutherland Ave", "city": "Quesnel", "phone": "250-992-6237", "services": []}}, {"type": "Feature", "geometry": {"type": "Point", "coordinates": ["-120.825784", "56.258082"]}, "properties": {"id": "1136", "name": "Mom's Lap Daycare", "address": "8813 113 Ave", "city": "Fort St. John", "phone": "250-262-2006", "services": [0, 1]}}, {"type": "Feature", "geometry": {"type": "Point", "coordinates": ["-122.762399", "53.856339"]}, "properties": {"id": "1163", "name": "Candy's Kiddie Korner", "address": "7652 Moncton Cres", "city": "Prince George", "phone": "250-617-3081", "services": []}}, {"type": "Feature", "geometry": {"type": "Point", "coordinates": ["-120.839068", "56.244883"]}, "properties": {"id": "1176", "name": "Balaang Banay Childcare", "address": "9508 98A Ave", "city": "Fort St. John", "phone": "250-271-7082", "services": [0, 1, 3]}}, {"type": "Feature", "geometry": {"type": "Point", "coordinates": ["-120.253199", "55.779873"]}, "properties": {"id": "1220", "name": "Little Gems Daycare", "address": "1708 84 Ave", "city": "Dawson Creek", "phone": "250-784-7010", "services": [0, 1, 3]}}, {"type": "Feature", "geometry": {"type": "Point", "coordinates": ["-122.793425", "53.893147"]}, "properties": {"id": "1246", "name": "Shine Star Family Daycare", "address": "3794 Shane Cres", "city": "Prince George", "phone": "250-981-7433", "services": []}}, {"type": "Feature", "geometry": {"type": "Point", "coordinates": ["-122.776356", "53.987821"]}, "properties": {"id": "1297", "name": "A Loving Hart Daycare", "address": "6386 Dawson Rd", "city": "Prince George", "phone": "250-981-2716", "services": []}}, {"type": "Feature", "geometry": {"type": "Point", "coordinates": ["-122.795418", "53.892644"]}, "properties": {"id": "1307", "name": "Ishwar Family Child Care", "address": "3807 Grace Cres", "city": "Prince George", "phone": "250-649-3488", "services": []}}, {"type": "Feature", "geometry": {"type": "Point", "coordinates": ["-120.239786", "55.770898"]}, "properties": {"id": "1313", "name": "Baby Bear Rainbow Adventure Daycare", "address": "1324 92 Ave", "city": "Dawson Creek", "phone": "778-964-0174", "services": []}}, {"type": "Feature", "geometry": {"type": "Point", "coordinates": ["-122.779784", "53.978369"]}, "properties": {"id": "1321", "name": "Mystic Kids Daycare", "address": "5473 Cook Cres", "city": "Prince George", "phone": "250-962-7149", "services": []}}, {"type": "Feature", "geometry": {"type": "Point", "coordinates": ["-122.513072", "52.967609"]}, "properties": {"id": "1325", "name": "Happy Lil' Hearts", "address": "425 Robertson Ave", "city": "Quesnel", "phone": "250-255-2401", "services": []}}, {"type": "Feature", "geometry": {"type": "Point", "coordinates": ["-128.644138", "54.066039"]}, "properties": {"id": "1342", "name": "Stepping Stones (Roy Wilcox) Child Care Centre", "address": "7 Carlson St", "city": "Kitimat", "phone": "778-631-2071", "services": []}}, {"type": "Feature", "geometry": {"type": "Point", "coordinates": ["-122.801567", "53.98712"]}, "properties": {"id": "1351", "name": "Play And Learn Family Childcare", "address": "6357 Kelly Rd S", "city": "Prince George", "phone": "250-981-0391", "services": [0, 1, 3]}}, {"type": "Feature", "geometry": {"type": "Point", "coordinates": ["-120.843683", "56.243192"]}, "properties": {"id": "1370", "name": "Early Exployers Daycare", "address": "9621 98 St", "city": "Fort St. John", "phone": "250-793-9907", "services": []}}, {"type": "Feature", "geometry": {"type": "Point", "coordinates": ["-122.476421", "53.023016"]}, "properties": {"id": "1376", "name": "Kids At Play", "address": "3996 Bernard Ave", "city": "Quesnel", "phone": "450-577-4505", "services": [0, 1]}}, {"type": "Feature", "geometry": {"type": "Point", "coordinates": ["-120.85225", "56.251759"]}, "properties": {"id": "1379", "name": "Tots & Tikes Family Daycare", "address": "10215 106 Ave", "city": "Fort St. John", "phone": "250-785-1136", "services": []}}, {"type": "Feature", "geometry": {"type": "Point", "coordinates": ["-122.75244", "53.908284"]}, "properties": {"id": "1387", "name": "ymca Ron Brent After School Care", "address": "1401 17Th Ave", "city": "Prince George", "phone": "250-961-7046", "services": []}}, {"type": "Feature", "geometry": {"type": "Point", "coordinates": ["-120.228568", "55.774196"]}, "properties": {"id": "1396", "name": "Borrowed Blessings", "address": "924 90 Ave", "city": "Dawson Creek", "phone": "250-719-1308", "services": []}}, {"type": "Feature", "geometry": {"type": "Point", "coordinates": ["-122.80213", "53.994104"]}, "properties": {"id": "1412", "name": "Kidlogic Daycare", "address": "4529 Gray Dr", "city": "Prince George", "phone": "250-981-9851", "services": [0, 1, 3]}}, {"type": "Feature", "geometry": {"type": "Point", "coordinates": ["-122.814219", "53.847139"]}, "properties": {"id": "1440", "name": "Parkridge Early Learning Centre", "address": "5264 Park Dr", "city": "Prince George", "phone": "250-565-7543", "services": []}}, {"type": "Feature", "geometry": {"type": "Point", "coordinates": ["-120.85615", "56.247244"]}, "properties": {"id": "1449", "name": "Little Dandelions Childcare Centre Ltd.", "address": "10507 101 Ave", "city": "Fort St. John", "phone": "250-794-0652", "services": [0, 1]}}, {"type": "Feature", "geometry": {"type": "Point", "coordinates": ["-128.585439", "54.518244"]}, "properties": {"id": "1479", "name": "Hands On Playcare (Hop)", "address": "4542 Park Ave", "city": "Terrace", "phone": "250-631-7516", "services": []}}, {"type": "Feature", "geometry": {"type": "Point", "coordinates": ["-120.818093", "56.258363"]}, "properties": {"id": "1514", "name": "ymca Anne Roberts Young Care And Learning Centre", "address": "8408 112 Ave", "city": "Fort St. John", "phone": "250-961-7046", "services": []}}, {"type": "Feature", "geometry": {"type": "Point", "coordinates": ["-122.441826", "52.94644"]}, "properties": {"id": "1519", "name": "Cradles To Crayons", "address": "1912 Crystal St", "city": "Quesnel", "phone": "250-747-9783", "services": []}}, {"type": "Feature", "geometry": {"type": "Point", "coordinates": ["-128.592341", "54.518833"]}, "properties": {"id": "1535", "name": "Caterpillars Childcare Center", "address": "3302 Sparks St", "city": "Terrace", "phone": "250-635-4884", "services": []}}, {"type": "Feature", "geometry": {"type": "Point", "coordinates": ["-122.792048", "53.925427"]}, "properties": {"id": "1562", "name": "Thimbleberry Children's Centre", "address": "109 Riley Dr", "city": "Prince George", "phone": "250-617-6886", "services": [0, 1, 3]}}, {"type": "Feature", "geometry": {"type": "Point", "coordinates": ["-120.841533", "56.258657"]}, "properties": {"id": "1564", "name": "Alli's Little Rascals", "address": "9620 113 Ave", "city": "Fort St. John", "phone": "250-262-7522", "services": []}}, {"type": "Feature", "geometry": {"type": "Point", "coordinates": ["-122.762041", "53.858187"]}, "properties": {"id": "1566", "name": "Kool Cats Kid Care And Kool Cats Preschool", "address": "6989 Gladstone Dr", "city": "Prince George", "phone": "250-964-2668", "services": [2, 3]}}, {"type": "Feature", "geometry": {"type": "Point", "coordinates": ["-119.262909", "52.836043"]}, "properties": {"id": "1577", "name": "Cvca Kidz Care", "address": "1100 Main St", "city": "Valemount", "phone": "250-566-0008", "services": [3]}}, {"type": "Feature", "geometry": {"type": "Point", "coordinates": ["-122.80538", "54.01489"]}, "properties": {"id": "1592", "name": "Exploring The North Childcare", "address": "4651 Zral Rd", "city": "Prince George", "phone": "250-613-6116", "services": []}}, {"type": "Feature", "geometry": {"type": "Point", "coordinates": ["-128.628233", "54.06271"]}, "properties": {"id": "1603", "name": "Fox In Soxs Daycare", "address": "15 Wohler St", "city": "Kitimat", "phone": "250-615-6806", "services": []}}, {"type": "Feature", "geometry": {"type": "Point", "coordinates": ["-132.08374", "53.256241"]}, "properties": {"id": "1642", "name": "Danu Child Care", "address": "302 1St Ave", "city": "Queen Charlotte", "phone": "778-260-2273", "services": []}}, {"type": "Feature", "geometry": {"type": "Point", "coordinates": ["-122.808308", "53.926379"]}, "properties": {"id": "1661", "name": "Building Blocks Childcare", "address": "261 Bellos St", "city": "Prince George", "phone": "250-961-1341", "services": [0, 1]}}, {"type": "Feature", "geometry": {"type": "Point", "coordinates": ["-122.816791", "53.960229"]}, "properties": {"id": "1670", "name": "Sunshine Learning Centre", "address": "5100 N Nechako Rd", "city": "Prince George", "phone": "250-640-6977", "services": []}}, {"type": "Feature", "geometry": {"type": "Point", "coordinates": ["-120.207608", "55.745555"]}, "properties": {"id": "1691", "name": "Dawson Creek Veterinary Clinic Daycare Ltd.", "address": "233 115 Ave", "city": "Dawson Creek", "phone": "250-719-4271", "services": []}}, {"type": "Feature", "geometry": {"type": "Point", "coordinates": ["-120.841182", "56.261446"]}, "properties": {"id": "1698", "name": "Bert Ambrose Elementary (Little Gators)", "address": "9616 115 Ave", "city": "Fort St. John", "phone": "250-264-7186", "services": []}}, {"type": "Feature", "geometry": {"type": "Point", "coordinates": ["-120.839527", "56.252844"]}, "properties": {"id": "1699", "name": "Alwin Holland Elementary - Little Griffins Clubhouse", "address": "10615 96 St", "city": "Fort St. John", "phone": "250-264-7186", "services": []}}, {"type": "Feature", "geometry": {"type": "Point", "coordinates": ["-122.767518", "53.973602"]}, "properties": {"id": "1709", "name": "Adventure Time Childcare", "address": "14-5164 Hart Hwy", "city": "Prince George", "phone": "250-614-6991", "services": []}}, {"type": "Feature", "geometry": {"type": "Point", "coordinates": ["-122.766159", "53.859139"]}, "properties": {"id": "1742", "name": "Precious Stars Daycare", "address": "7092 Domano Boulevard", "city": "Prince George", "phone": "250-964-0377", "services": []}}, {"type": "Feature", "geometry": {"type": "Point", "coordinates": ["-122.781924", "53.992194"]}, "properties": {"id": "1747", "name": "Moonlight Daycare", "address": "6896 Helm Dr", "city": "Prince George", "phone": "250-900-8815", "services": [0, 1]}}, {"type": "Feature", "geometry": {"type": "Point", "coordinates": ["-122.761664", "53.896342"]}, "properties": {"id": "1751", "name": "Young Pup Child Care", "address": "2685 Abbott Cres", "city": "Prince George", "phone": "250-983-9881", "services": [1, 3]}}, {"type": "Feature", "geometry": {"type": "Point", "coordinates": ["-122.785079", "53.852221"]}, "properties": {"id": "1790", "name": "Little Star Daycare", "address": "2821 Vista Ridge Crt", "city": "Prince George", "phone": "250-563-5349", "services": []}}, {"type": "Feature", "geometry": {"type": "Point", "coordinates": ["-121.613352", "55.695508"]}, "properties": {"id": "1822", "name": "ymca Chetwynd After School Care", "address": "5000 46 St", "city": "Chetwynd", "phone": "250-961-7046", "services": []}}, {"type": "Feature", "geometry": {"type": "Point", "coordinates": ["-120.230891", "55.771785"]}, "properties": {"id": "1823", "name": "ymca Ecole' Frank Ross School Age Child Care", "address": "1000 92 Ave", "city": "Dawson Creek", "phone": "250-961-7046", "services": []}}, {"type": "Feature", "geometry": {"type": "Point", "coordinates": ["-120.249541", "55.770049"]}, "properties": {"id": "1824", "name": "ymca Crescent Park School Age Child Care", "address": "9300 17 St", "city": "Dawson Creek", "phone": "250-961-7046", "services": []}}, {"type": "Feature", "geometry": {"type": "Point", "coordinates": ["-122.788991", "53.923274"]}, "properties": {"id": "1827", "name": "Bbbs Nbc Asc Quinson", "address": "251 Ogilvie St S", "city": "Prince George", "phone": "250-563-7410", "services": []}}, {"type": "Feature", "geometry": {"type": "Point", "coordinates": ["-122.696075", "58.813557"]}, "properties": {"id": "1865", "name": "Gw Carlson Kidz Klub", "address": "5617 51 St", "city": "Fort Nelson", "phone": "250-500-2527", "services": []}}, {"type": "Feature", "geometry": {"type": "Point", "coordinates": ["-122.831391", "54.01475"]}, "properties": {"id": "1869", "name": "Tena's Family Daycare", "address": "9059 Fox Dr", "city": "Prince George", "phone": "250-981-5373", "services": []}}, {"type": "Feature", "geometry": {"type": "Point", "coordinates": ["-121.737273", "55.646462"]}, "properties": {"id": "1875", "name": "Peace Christian School Early Learning Program", "address": "6189 Dokkie School Rd", "city": "Chetwynd", "phone": "250-788-2044", "services": []}}, {"type": "Feature", "geometry": {"type": "Point", "coordinates": ["-122.762966", "53.849636"]}, "properties": {"id": "1892", "name": "ymca Malaspina School Age Care", "address": "7900 Malaspina Ave", "city": "Prince George", "phone": "250-961-7046", "services": []}}, {"type": "Feature", "geometry": {"type": "Point", "coordinates": ["-122.690458", "58.807037"]}, "properties": {"id": "1918", "name": "Rose's Daycare", "address": "5205 45 St", "city": "Fort Nelson", "phone": "250-321-1135", "services": []}}, {"type": "Feature", "geometry": {"type": "Point", "coordinates": ["-124.837475", "54.060256"]}, "properties": {"id": "1940", "name": "Mouse Mountain Elementary School", "address": "266 Taluk Ave", "city": "Fraser Lake", "phone": "250-699-6627", "services": [3]}}, {"type": "Feature", "geometry": {"type": "Point", "coordinates": ["-122.874723", "53.83059"]}, "properties": {"id": "1960", "name": "Bbbs Childcare - Beaverly", "address": "101-9777 Western Rd", "city": "Prince George", "phone": "250-563-7410", "services": []}}, {"type": "Feature", "geometry": {"type": "Point", "coordinates": ["-130.309245", "54.318437"]}, "properties": {"id": "1965", "name": "Sunnyside \"2\" Child Care Centre", "address": "500 Hays Cove Circle", "city": "Prince Rupert", "phone": "250-600-0283", "services": []}}, {"type": "Feature", "geometry": {"type": "Point", "coordinates": ["-122.797584", "53.982225"]}, "properties": {"id": "1968", "name": "Hart Highlands Childcare", "address": "5963 Teresa Pl", "city": "Prince George", "phone": "250-552-5467", "services": []}}, {"type": "Feature", "geometry": {"type": "Point", "coordinates": ["-122.797773", "53.900322"]}, "properties": {"id": "1969", "name": "Lariah's Little Learners Childcare", "address": "4110 Campbell Ave", "city": "Prince George", "phone": "250-562-9639", "services": []}}, {"type": "Feature", "geometry": {"type": "Point", "coordinates": ["-128.634128", "54.057569"]}, "properties": {"id": "1983", "name": "Mayra's Daycare", "address": "4 Grebe St", "city": "Kitimat", "phone": "250-407-3022", "services": [0, 1]}}, {"type": "Feature", "geometry": {"type": "Point", "coordinates": ["-120.819547", "56.241863"]}, "properties": {"id": "1986", "name": "Mama Bear Childcare", "address": "8507 96 Ave", "city": "Fort St. John", "phone": "250-261-1851", "services": []}}, {"type": "Feature", "geometry": {"type": "Point", "coordinates": ["-122.779405", "53.909752"]}, "properties": {"id": "1996", "name": "Costumes & Crayons Daycare Center", "address": "1600 Johnson St", "city": "Prince George", "phone": "236-423-0132", "services": []}}, {"type": "Feature", "geometry": {"type": "Point", "coordinates": ["-122.743958", "53.913419"]}, "properties": {"id": "2001", "name": "ymca Park House Care And Learning Centre", "address": "1075 6Th Ave", "city": "Prince George", "phone": "250-961-7046", "services": []}}, {"type": "Feature", "geometry": {"type": "Point", "coordinates": ["-122.516462", "52.969074"]}, "properties": {"id": "2021", "name": "?Echen Childcare Division", "address": "610 Wade Ave", "city": "Quesnel", "phone": "250-992-0614", "services": []}}, {"type": "Feature", "geometry": {"type": "Point", "coordinates": ["-120.25373", "55.779724"]}, "properties": {"id": "2043", "name": "Giggles & Bows Licensed Family Daycare", "address": "1731 83 Ave", "city": "Dawson Creek", "phone": "250-219-8383", "services": []}}, {"type": "Feature", "geometry": {"type": "Point", "coordinates": ["-127.171058", "54.787725"]}, "properties": {"id": "2045", "name": "Bulkley Valley Little Horizons 2", "address": "4092 Mountainview Dr", "city": "Smithers", "phone": "250-877-2000", "services": []}}, {"type": "Feature", "geometry": {"type": "Point", "coordinates": ["-127.161297", "54.786572"]}, "properties": {"id": "2048", "name": "Crafty Crayons", "address": "4069 10Th Ave", "city": "Smithers", "phone": "250-643-0425", "services": []}}, {"type": "Feature", "geometry": {"type": "Point", "coordinates": ["-122.791498", "53.925816"]}, "properties": {"id": "2077", "name": "Chiddlers Daycare", "address": "210 Quinn St N", "city": "Prince George", "phone": "236-423-4241", "services": []}}, {"type": "Feature", "geometry": {"type": "Point", "coordinates": ["-122.751629", "53.915913"]}, "properties": {"id": "2122", "name": "Kiki Awasis Learning Centre", "address": "1546 6Th Ave", "city": "Prince George", "phone": "250-563-1661", "services": [0, 1]}}, {"type": "Feature", "geometry": {"type": "Point", "coordinates": ["-130.302265", "54.310013"]}, "properties": {"id": "2173", "name": "Cormorant Crew Daycare", "address": "212 Cormorant Rd", "city": "Prince Rupert", "phone": "778-645-4546", "services": []}}, {"type": "Feature", "geometry": {"type": "Point", "coordinates": ["-120.230535", "55.773126"]}, "properties": {"id": "2181", "name": "Wild Things Daycare Ltd", "address": "9009 10 St", "city": "Dawson Creek", "phone": "250-784-4210", "services": [0, 1, 3]}}, {"type": "Feature", "geometry": {"type": "Point", "coordinates": ["-120.235373", "55.75937"]}, "properties": {"id": "2184", "name": "Into The Wild Child Daycare", "address": "1224 103 Ave", "city": "Dawson Creek", "phone": "709-270-0007", "services": []}}, {"type": "Feature", "geometry": {"type": "Point", "coordinates": ["-120.244613", "55.748925"]}, "properties": {"id": "2220", "name": "Lacy's Littles", "address": "1501 111 Ave", "city": "Dawson Creek", "phone": "250-219-7054", "services": []}}, {"type": "Feature", "geometry": {"type": "Point", "coordinates": ["-122.514521", "52.973252"]}, "properties": {"id": "2233", "name": "West Quesnel Day School", "address": "774 Abbott Dr", "city": "Quesnel", "phone": "250-992-7272", "services": []}}, {"type": "Feature", "geometry": {"type": "Point", "coordinates": ["-122.688771", "58.805396"]}, "properties": {"id": "2248", "name": "Hundred Acre Woods Daycare", "address": "4428 Heritage Crescent", "city": "Fort Nelson", "phone": "250-500-2749", "services": []}}, {"type": "Feature", "geometry": {"type": "Point", "coordinates": ["-122.805425", "53.993653"]}, "properties": {"id": "2254", "name": "Bumby's Family Childcare", "address": "4682 Heather Rd", "city": "Prince George", "phone": "250-981-3734", "services": []}}, {"type": "Feature", "geometry": {"type": "Point", "coordinates": ["-127.178208", "54.790766"]}, "properties": {"id": "2265", "name": "Little Horizons Child Care", "address": "4414 Hwy 16", "city": "Smithers", "phone": "250-877-2000", "services": []}}, {"type": "Feature", "geometry": {"type": "Point", "coordinates": ["-122.46761", "52.981691"]}, "properties": {"id": "2286", "name": "Little Stars Pre-School", "address": "301 North Star Rd", "city": "Quesnel", "phone": "778-414-0888", "services": []}}, {"type": "Feature", "geometry": {"type": "Point", "coordinates": ["-120.256082", "55.779535"]}, "properties": {"id": "2304", "name": "Mrs. Appleberry Daycare", "address": "1825 83 Ave", "city": "Dawson Creek", "phone": "403-333-8820", "services": []}}, {"type": "Feature", "geometry": {"type": "Point", "coordinates": ["-120.165747", "53.301139"]}, "properties": {"id": "2349", "name": "Little Munchkins", "address": "1000 3Rd Ave", "city": "mcbride", "phone": "250-306-7186", "services": []}}, {"type": "Feature", "geometry": {"type": "Point", "coordinates": ["-122.806052", "53.854196"]}, "properties": {"id": "2372", "name": "Little Tots Childcare", "address": "7312 Aldeen Rd", "city": "Prince George", "phone": "778-823-1716", "services": []}}, {"type": "Feature", "geometry": {"type": "Point", "coordinates": ["-128.538281", "54.511109"]}, "properties": {"id": "2397", "name": "Thornhill Primary Just B4 Preschool", "address": "3860 Paquette Ave", "city": "Terrace", "phone": "250-635-7066", "services": []}}, {"type": "Feature", "geometry": {"type": "Point", "coordinates": ["-120.239825", "55.746602"]}, "properties": {"id": "2427", "name": "Tremblay Elementary Just B4 Preschool", "address": "11311 13A St", "city": "Dawson Creek", "phone": "250-782-8147", "services": []}}, {"type": "Feature", "geometry": {"type": "Point", "coordinates": ["-122.797412", "53.874498"]}, "properties": {"id": "2433", "name": "Sweet Pumpkins Day Care Inc", "address": "2501 Chancellor Blvd", "city": "Prince George", "phone": "647-642-1112", "services": []}}, {"type": "Feature", "geometry": {"type": "Point", "coordinates": ["-121.921624", "56.025434"]}, "properties": {"id": "2438", "name": "ymca Hudson's Hope School Age Care", "address": "10441 Holland St", "city": "Hudson's Hope", "phone": "250-960-9336", "services": []}}, {"type": "Feature", "geometry": {"type": "Point", "coordinates": ["-122.775058", "53.855962"]}, "properties": {"id": "2447", "name": "The Creative Zone", "address": "7937 St John Cres", "city": "Prince George", "phone": "250-964-9585", "services": [0, 1]}}, {"type": "Feature", "geometry": {"type": "Point", "coordinates": ["-130.300224", "54.320901"]}, "properties": {"id": "2454", "name": "Conrad Elementary School Seamless Day Kindergarten", "address": "825 Conrad St", "city": "Prince Rupert", "phone": "250-624-4935", "services": [3]}}, {"type": "Feature", "geometry": {"type": "Point", "coordinates": ["-128.597332", "54.50787"]}, "properties": {"id": "2473", "name": "Cassie Hall Elementary Seamless Day K / Just B4 Preschool", "address": "2620 Eby St", "city": "Terrace", "phone": "250-635-5646", "services": []}}, {"type": "Feature", "geometry": {"type": "Point", "coordinates": ["-128.617318", "54.506942"]}, "properties": {"id": "2486", "name": "Little Learners", "address": "5040 Graham Ave", "city": "Terrace", "phone": "250-460-0939", "services": []}}, {"type": "Feature", "geometry": {"type": "Point", "coordinates": ["-122.79841", "53.94497"]}, "properties": {"id": "2517", "name": "Megans Nature Childcare", "address": "4236 Churchill Rd", "city": "Prince George", "phone": "250-640-4076", "services": []}}, {"type": "Feature", "geometry": {"type": "Point", "coordinates": ["-122.44219", "52.957078"]}, "properties": {"id": "2535", "name": "Cheeky Monkey's Daycare", "address": "2411 Wong St", "city": "Quesnel", "phone": "250-295-2416", "services": [0, 1]}}, {"type": "Feature", "geometry": {"type": "Point", "coordinates": ["-121.004206", "55.12979"]}, "properties": {"id": "2538", "name": "ymca Tumbler Ridge School Age Child Care", "address": "355 Monkman Way", "city": "Tumbler Ridge", "phone": "250-961-7046", "services": []}}, {"type": "Feature", "geometry": {"type": "Point", "coordinates": ["-122.758591", "53.899139"]}, "properties": {"id": "2551", "name": "Bigs Nbc Early Learning Centre", "address": "1788 Diefenbaker Dr", "city": "Prince George", "phone": "250-563-7410", "services": []}}, {"type": "Feature", "geometry": {"type": "Point", "coordinates": ["-122.757964", "53.94632"]}, "properties": {"id": "2556", "name": "Sky's The Limit Childcare", "address": "2319 mcmillan Dr", "city": "Prince George", "phone": "250-617-6370", "services": []}}, {"type": "Feature", "geometry": {"type": "Point", "coordinates": ["-122.51856", "52.977272"]}, "properties": {"id": "2565", "name": "Country Critters Daycare", "address": "299 Blair St", "city": "Quesnel", "phone": "250-983-2248", "services": []}}, {"type": "Feature", "geometry": {"type": "Point", "coordinates": ["-122.809109", "53.937836"]}, "properties": {"id": "2586", "name": "Tracey\u2019S Place Daycare", "address": "4634 Ryser Crt", "city": "Prince George", "phone": "250-961-9098", "services": []}}, {"type": "Feature", "geometry": {"type": "Point", "coordinates": ["-120.858225", "56.254534"]}, "properties": {"id": "2607", "name": "Cm Finch Elementary Little Falcon's Clubhouse", "address": "10904 106 St", "city": "Fort St. John", "phone": "250-262-6090", "services": []}}, {"type": "Feature", "geometry": {"type": "Point", "coordinates": ["-122.529771", "52.980613"]}, "properties": {"id": "2618", "name": "Little Heritage Learning Centre", "address": "1409 Lewis Dr", "city": "Quesnel", "phone": "250-316-0195", "services": [0, 1, 3]}}, {"type": "Feature", "geometry": {"type": "Point", "coordinates": ["-122.788562", "53.898982"]}, "properties": {"id": "2622", "name": "Precious Gems Daycare", "address": "10-2440 Nicholson St S", "city": "Prince George", "phone": "250-562-9881", "services": []}}, {"type": "Feature", "geometry": {"type": "Point", "coordinates": ["-122.934533", "54.009906"]}, "properties": {"id": "2632", "name": "Circle Z Childcare", "address": "12785 Chief Lake Rd", "city": "Prince George", "phone": "250-613-3726", "services": []}}, {"type": "Feature", "geometry": {"type": "Point", "coordinates": ["-122.596301", "53.026763"]}, "properties": {"id": "2673", "name": "6 Mile Daycare", "address": "2074 Blackwater Rd", "city": "Quesnel", "phone": "250-249-5104", "services": []}}, {"type": "Feature", "geometry": {"type": "Point", "coordinates": ["-122.769548", "53.91278"]}, "properties": {"id": "2674", "name": "Little Peanuts Early Learning", "address": "1257 Carney St", "city": "Prince George", "phone": "250-552-6192", "services": []}}, {"type": "Feature", "geometry": {"type": "Point", "coordinates": ["-122.783673", "53.870409"]}, "properties": {"id": "2688", "name": "Seven Tiny Toes Childcare", "address": "4427 Wheeler Rd", "city": "Prince George", "phone": "778-675-9893", "services": [0, 1]}}, {"type": "Feature", "geometry": {"type": "Point", "coordinates": ["-120.857171", "56.253296"]}, "properties": {"id": "2698", "name": "Grandma\u2019S Cottage Daycare", "address": "10715 106 St", "city": "Fort St. John", "phone": "250-262-7542", "services": [1]}}, {"type": "Feature", "geometry": {"type": "Point", "coordinates": ["-122.765245", "53.849357"]}, "properties": {"id": "2711", "name": "Kool Cats Family Care", "address": "8008 Malaspina Ave", "city": "Prince George", "phone": "250-964-2668", "services": [0, 1, 2, 3]}}, {"type": "Feature", "geometry": {"type": "Point", "coordinates": ["-120.229718", "55.756288"]}, "properties": {"id": "2712", "name": "Notre Dame Morning And A/S Care Program & Nd Preschool", "address": "925 104 Ave", "city": "Dawson Creek", "phone": "250-782-4923", "services": []}}, {"type": "Feature", "geometry": {"type": "Point", "coordinates": ["-127.142381", "54.769645"]}, "properties": {"id": "2715", "name": "The Guiding Forest", "address": "3155 Tatlow Rd", "city": "Smithers", "phone": "250-643-6559", "services": []}}, {"type": "Feature", "geometry": {"type": "Point", "coordinates": ["-122.796696", "53.859222"]}, "properties": {"id": "2718", "name": "Immaculate Conception School", "address": "3285 Cathedral Ave", "city": "Prince George", "phone": "250-964-4362", "services": []}}, {"type": "Feature", "geometry": {"type": "Point", "coordinates": ["-125.752143", "54.236259"]}, "properties": {"id": "2739", "name": "Just B4 Preschool Program", "address": "750 Carroll St", "city": "Burns Lake", "phone": "250-692-3146", "services": [2]}}, {"type": "Feature", "geometry": {"type": "Point", "coordinates": ["-122.79086", "53.975409"]}, "properties": {"id": "2753", "name": "Junior Trekkers", "address": "2850 Sussex Pl", "city": "Prince George", "phone": "250-617-0102", "services": [3]}}, {"type": "Feature", "geometry": {"type": "Point", "coordinates": ["-122.450888", "52.963265"]}, "properties": {"id": "2769", "name": "Sus Yaz Early Learning And After School Center", "address": "950 Mountain Ash Rd", "city": "Quesnel", "phone": "250-991-8217", "services": []}}, {"type": "Feature", "geometry": {"type": "Point", "coordinates": ["-122.817201", "53.857978"]}, "properties": {"id": "2778", "name": "ymca Vanway School Age Child Care", "address": "4509 Highway 16 W", "city": "Prince George", "phone": "250-961-7046", "services": []}}, {"type": "Feature", "geometry": {"type": "Point", "coordinates": ["-124.00763", "54.009833"]}, "properties": {"id": "2779", "name": "ymca Evelyn Dickson School Age Child Care", "address": "1850 Ryley Ave", "city": "Vanderhoof", "phone": "250-961-7046", "services": []}}, {"type": "Feature", "geometry": {"type": "Point", "coordinates": ["-122.512287", "52.969892"]}, "properties": {"id": "2790", "name": "Quesnel And District Day Care Society", "address": "420 Webster Ave", "city": "Quesnel", "phone": "250-992-2433", "services": []}}, {"type": "Feature", "geometry": {"type": "Point", "coordinates": ["-128.62404", "54.091572"]}, "properties": {"id": "2828", "name": "Cablecar Childcare", "address": "131 Sturgeon St", "city": "Kitimat", "phone": "403-409-3447", "services": []}}, {"type": "Feature", "geometry": {"type": "Point", "coordinates": ["-122.785824", "53.991043"]}, "properties": {"id": "2839", "name": "Tsulh Cho (Huckleberry) Early Learning And Care Centre", "address": "6776 Dagg Rd", "city": "Prince George", "phone": "778-764-2429", "services": []}}, {"type": "Feature", "geometry": {"type": "Point", "coordinates": ["-128.622302", "54.523322"]}, "properties": {"id": "2842", "name": "Ecole Mountainview Seamless Day Kindergarten", "address": "3505 Bailey St", "city": "Terrace", "phone": "250-635-3115", "services": []}}, {"type": "Feature", "geometry": {"type": "Point", "coordinates": ["-128.589998", "54.522208"]}, "properties": {"id": "2843", "name": "Suwilaawks Community School Seamless Day Kindergarten", "address": "3430 Sparks St", "city": "Terrace", "phone": "250-638-0306", "services": []}}, {"type": "Feature", "geometry": {"type": "Point", "coordinates": ["-128.660047", "54.050304"]}, "properties": {"id": "2844", "name": "Kildala Elementary Seamless Day Kindergarten", "address": "803 Columbia Ave E", "city": "Kitimat", "phone": "250-632-6194", "services": []}}, {"type": "Feature", "geometry": {"type": "Point", "coordinates": ["-122.797375", "53.948082"]}, "properties": {"id": "2869", "name": "The Hundred Acre Wood Early Learning Centre", "address": "2578 North Nechako Rd", "city": "Prince George", "phone": "778-983-1324", "services": []}}, {"type": "Feature", "geometry": {"type": "Point", "coordinates": ["-128.586412", "54.519517"]}, "properties": {"id": "2878", "name": "City Of Terrace School-Age Program", "address": "3320 Kalum St", "city": "Terrace", "phone": "250-641-7037", "services": [3]}}, {"type": "Feature", "geometry": {"type": "Point", "coordinates": ["-122.516462", "52.969074"]}, "properties": {"id": "2883", "name": "Country Bumpkins Daycare", "address": "610 Wade Ave", "city": "Quesnel", "phone": "250-991-1270", "services": [0, 1, 3]}}, {"type": "Feature", "geometry": {"type": "Point", "coordinates": ["-125.561136", "54.191719"]}, "properties": {"id": "2886", "name": "Lilac And Sage Child Care", "address": "13227 Stearns Sub Rd", "city": "Burns Lake", "phone": "250-251-0069", "services": []}}, {"type": "Feature", "geometry": {"type": "Point", "coordinates": ["-122.773482", "53.913253"]}, "properties": {"id": "2903", "name": "St. Mary's Daycare", "address": "1206 Freeman St", "city": "Prince George", "phone": "250-563-7502", "services": []}}, {"type": "Feature", "geometry": {"type": "Point", "coordinates": ["-120.848886", "56.241219"]}, "properties": {"id": "2923", "name": "North Peace Gymnastics Association", "address": "10023 95 Ave", "city": "Fort St. John", "phone": "250-787-5327", "services": [2]}}, {"type": "Feature", "geometry": {"type": "Point", "coordinates": ["-122.776308", "53.978214"]}, "properties": {"id": "2959", "name": "Munchkins Family Daycare", "address": "5494 Lehman St", "city": "Prince George", "phone": "250-640-4070", "services": [0, 1, 3]}}, {"type": "Feature", "geometry": {"type": "Point", "coordinates": ["-122.523172", "52.976892"]}, "properties": {"id": "2961", "name": "Quesnel Pre-K", "address": "288 Flamingo St", "city": "Quesnel", "phone": "250-983-6778", "services": []}}, {"type": "Feature", "geometry": {"type": "Point", "coordinates": ["-127.193891", "54.817307"]}, "properties": {"id": "2999", "name": "Beginnings Preschool & Skak Togh", "address": "7620 Hwy 16 W", "city": "Smithers", "phone": "250-847-1834", "services": []}}, {"type": "Feature", "geometry": {"type": "Point", "coordinates": ["-120.822747", "56.25591"]}, "properties": {"id": "3049", "name": "Little Lady Bug Laugh And Learn Family Child Care", "address": "11020 86A St", "city": "Fort St. John", "phone": "250-264-7619", "services": [0, 1]}}, {"type": "Feature", "geometry": {"type": "Point", "coordinates": ["-122.797787", "54.007146"]}, "properties": {"id": "3050", "name": "Baby Duck's Early Learning Centre", "address": "4247 Estavilla Dr", "city": "Prince George", "phone": "250-552-4909", "services": []}}, {"type": "Feature", "geometry": {"type": "Point", "coordinates": ["-122.760885", "53.903596"]}, "properties": {"id": "3084", "name": "Doodlebugs Daycare", "address": "30A-2131 Upland St", "city": "Prince George", "phone": "250-640-8897", "services": []}}, {"type": "Feature", "geometry": {"type": "Point", "coordinates": ["-120.255946", "55.775717"]}, "properties": {"id": "3098", "name": "Tot Spot Childcare", "address": "1836 88 Ave", "city": "Dawson Creek", "phone": "306-291-0223", "services": []}}, {"type": "Feature", "geometry": {"type": "Point", "coordinates": ["-122.791408", "53.919078"]}, "properties": {"id": "3120", "name": "First Steps Daycare", "address": "681 Tay Cres", "city": "Prince George", "phone": "250-981-2249", "services": []}}, {"type": "Feature", "geometry": {"type": "Point", "coordinates": ["-122.80794", "53.920244"]}, "properties": {"id": "3145", "name": "Hopes And Dreams Out Of School Childcare", "address": "511 Tabor Blvd S", "city": "Prince George", "phone": "250-617-4331", "services": []}}, {"type": "Feature", "geometry": {"type": "Point", "coordinates": ["-122.77403", "53.91399"]}, "properties": {"id": "3254", "name": "St. Mary's After School Care", "address": "1125 Freeman Street", "city": "Prince George", "phone": "250-563-7502", "services": []}}, {"type": "Feature", "geometry": {"type": "Point", "coordinates": ["-122.80366", "54.00597"]}, "properties": {"id": "3255", "name": "Little Bambinos Child Care", "address": "8263 Peter Rd", "city": "Prince George", "phone": "778-267-0197", "services": [0, 1, 3]}}, {"type": "Feature", "geometry": {"type": "Point", "coordinates": ["-120.866101", "56.250718"]}, "properties": {"id": "3272", "name": "Little Angels Daycare", "address": "11108 104A Ave", "city": "Fort St. John", "phone": "250-271-0375", "services": []}}, {"type": "Feature", "geometry": {"type": "Point", "coordinates": ["-122.813294", "53.919748"]}, "properties": {"id": "3282", "name": "Costumes & Crayons It Centre Urquhart", "address": "4480 Urquhart Crescent", "city": "Prince George", "phone": "778-983-0806", "services": []}}, {"type": "Feature", "geometry": {"type": "Point", "coordinates": ["-122.517554", "52.971969"]}, "properties": {"id": "3325", "name": "Sarah Pelley's Childcare", "address": "823 Avison Ave", "city": "Quesnel", "phone": "250-640-1453", "services": [0, 1]}}, {"type": "Feature", "geometry": {"type": "Point", "coordinates": ["-121.921624", "56.025434"]}, "properties": {"id": "3337", "name": "Hudson's Hope Just B4! Preschool", "address": "10441 Holland St", "city": "Hudson's Hope", "phone": "250-262-6090", "services": []}}, {"type": "Feature", "geometry": {"type": "Point", "coordinates": ["-122.799733", "53.993834"]}, "properties": {"id": "3360", "name": "Mini Marvels Daycare", "address": "4369 Turner Rd", "city": "Prince George", "phone": "250-613-5897", "services": []}}, {"type": "Feature", "geometry": {"type": "Point", "coordinates": ["-120.829342", "56.242925"]}, "properties": {"id": "3373", "name": "My Forest Childcare", "address": "9007 96A Ave", "city": "Fort St. John", "phone": "306-216-0263", "services": []}}, {"type": "Feature", "geometry": {"type": "Point", "coordinates": ["-120.164417", "53.302026"]}, "properties": {"id": "3381", "name": "Little Munchkins Main St", "address": "476 Main St", "city": "mcbride", "phone": "250-306-7186", "services": []}}, {"type": "Feature", "geometry": {"type": "Point", "coordinates": ["-128.594744", "54.519104"]}, "properties": {"id": "3397", "name": "Kermode Friendship Society Daycare Center", "address": "4714 Park Ave", "city": "Terrace", "phone": "250-635-4906", "services": [3]}}, {"type": "Feature", "geometry": {"type": "Point", "coordinates": ["-121.628746", "55.693656"]}, "properties": {"id": "3401", "name": "ymca Chetwynd Care And Learning Centre", "address": "4916 52 Ave. Sw", "city": "Chetwynd", "phone": "250-960-9336", "services": []}}, {"type": "Feature", "geometry": {"type": "Point", "coordinates": ["-122.68929", "58.808703"]}, "properties": {"id": "3429", "name": "Early Learning And Care", "address": "5246 45Th St", "city": "Fort Nelson", "phone": "250-321-0250", "services": [0, 1]}}, {"type": "Feature", "geometry": {"type": "Point", "coordinates": ["-120.85351", "56.245628"]}, "properties": {"id": "3434", "name": "Room To Bloom Child Care Centre", "address": "10316 99 Ave", "city": "Fort St. John", "phone": "250-262-6584", "services": [0, 1]}}, {"type": "Feature", "geometry": {"type": "Point", "coordinates": ["-122.775471", "53.920886"]}, "properties": {"id": "3452", "name": "ymca Gillett School Age Care", "address": "483 Gillett St", "city": "Prince George", "phone": "250-960-9336", "services": []}}, {"type": "Feature", "geometry": {"type": "Point", "coordinates": ["-122.796893", "54.003257"]}, "properties": {"id": "3459", "name": "Sonya's Family Daycare", "address": "4089 Jade Dr", "city": "Prince George", "phone": "250-552-2139", "services": []}}, {"type": "Feature", "geometry": {"type": "Point", "coordinates": ["-124.256213", "54.447686"]}, "properties": {"id": "3472", "name": "The Northern Cubs", "address": "720 4Th Ave", "city": "Fort St. James", "phone": "204-358-0205", "services": [0]}}, {"type": "Feature", "geometry": {"type": "Point", "coordinates": ["-122.740603", "53.906726"]}, "properties": {"id": "3473", "name": "Lena's Daycare", "address": "1858 Ingledew St", "city": "Prince George", "phone": "250-613-7318", "services": [0, 1]}}, {"type": "Feature", "geometry": {"type": "Point", "coordinates": ["-120.839871", "56.258599"]}, "properties": {"id": "3478", "name": "Creative Corner Daycare", "address": "9536 113 Ave", "city": "Fort St. John", "phone": "250-787-5173", "services": [0, 1]}}, {"type": "Feature", "geometry": {"type": "Point", "coordinates": ["-120.84789", "56.24342"]}, "properties": {"id": "3490", "name": "Precious Stars Childcare Centre", "address": "9628 100 St", "city": "Fort St. John", "phone": "250-301-6432", "services": []}}, {"type": "Feature", "geometry": {"type": "Point", "coordinates": ["-122.793706", "53.894455"]}, "properties": {"id": "3497", "name": "Stepping Stones Family Day Care", "address": "3785 Goheen Pl", "city": "Prince George", "phone": "250-552-9304", "services": [0, 1]}}, {"type": "Feature", "geometry": {"type": "Point", "coordinates": ["-120.236732", "55.756304"]}, "properties": {"id": "3548", "name": "Shine Bright Northern Tykes Daycare", "address": "10500 13 St", "city": "Dawson Creek", "phone": "250-793-8012", "services": []}}, {"type": "Feature", "geometry": {"type": "Point", "coordinates": ["-121.922097", "56.02273"]}, "properties": {"id": "3553", "name": "ymca Hudson's Hope Care And Learning Centre", "address": "109-10500 Dudley Dr", "city": "Hudson's Hope", "phone": "250-960-9336", "services": []}}, {"type": "Feature", "geometry": {"type": "Point", "coordinates": ["-122.81499", "53.911972"]}, "properties": {"id": "3558", "name": "Happy Home Day Care", "address": "4545 Cascade Ave", "city": "Prince George", "phone": "250-777-3204", "services": [0, 1, 3]}}, {"type": "Feature", "geometry": {"type": "Point", "coordinates": ["-122.779937", "53.931266"]}, "properties": {"id": "3565", "name": "Lil Hoppers Play Cafe", "address": "140-556 North Nechako Rd", "city": "Prince George", "phone": "250-613-3335", "services": [3]}}, {"type": "Feature", "geometry": {"type": "Point", "coordinates": ["-127.159458", "54.77961"]}, "properties": {"id": "3620", "name": "A To Z Playhouse Inc.", "address": "1636 Princess St", "city": "Smithers", "phone": "250-877-7711", "services": []}}, {"type": "Feature", "geometry": {"type": "Point", "coordinates": ["-122.805025", "53.922118"]}, "properties": {"id": "3687", "name": "Playhouse", "address": "4242 Carrier Ave", "city": "Prince George", "phone": "250-614-2303", "services": [0, 1, 3]}}, {"type": "Feature", "geometry": {"type": "Point", "coordinates": ["-122.815843", "53.916121"]}, "properties": {"id": "3716", "name": "L'il Monsters Daycare", "address": "921 Ochakwin Cres", "city": "Prince George", "phone": "250-561-9409", "services": []}}, {"type": "Feature", "geometry": {"type": "Point", "coordinates": ["-122.800401", "53.855196"]}, "properties": {"id": "3717", "name": "Always Sunshine", "address": "3219 Embree Pl", "city": "Prince George", "phone": "250-964-1704", "services": []}}, {"type": "Feature", "geometry": {"type": "Point", "coordinates": ["-122.81863", "53.84766"]}, "properties": {"id": "3721", "name": "Huggabug", "address": "5570 Heyer Rd", "city": "Prince George", "phone": "250-964-1971", "services": []}}, {"type": "Feature", "geometry": {"type": "Point", "coordinates": ["-120.230549", "55.773693"]}, "properties": {"id": "3726", "name": "Child Development Centre", "address": "9001 10 St", "city": "Dawson Creek", "phone": "250-782-1161", "services": []}}, {"type": "Feature", "geometry": {"type": "Point", "coordinates": ["-130.297971", "54.321502"]}, "properties": {"id": "3743", "name": "Kaien Island Daycare Services & Family Resource Centre", "address": "1200 Hays Cove Ave", "city": "Prince Rupert", "phone": "250-627-1717", "services": []}}, {"type": "Feature", "geometry": {"type": "Point", "coordinates": ["-122.786204", "53.920396"]}, "properties": {"id": "3752", "name": "Edge Meadows Preschool", "address": "3555 5Th Ave", "city": "Prince George", "phone": "250-649-9681", "services": []}}, {"type": "Feature", "geometry": {"type": "Point", "coordinates": ["-128.584148", "54.511064"]}, "properties": {"id": "3760", "name": "Terrace Sunflower Child Care Centre", "address": "2803 Cramer St", "city": "Terrace", "phone": "250-635-1512", "services": []}}, {"type": "Feature", "geometry": {"type": "Point", "coordinates": ["-127.679611", "55.254029"]}, "properties": {"id": "3763", "name": "S.M.I.L.E.S Daycare", "address": "4125 River Rd", "city": "Hazelton", "phone": "250-842-0216", "services": []}}, {"type": "Feature", "geometry": {"type": "Point", "coordinates": ["-130.307694", "54.310566"]}, "properties": {"id": "3769", "name": "Boulevard Daycare", "address": "112 Prince Rupert Blvd", "city": "Prince Rupert", "phone": "250-627-1421", "services": []}}, {"type": "Feature", "geometry": {"type": "Point", "coordinates": ["-122.805178", "53.981993"]}, "properties": {"id": "3787", "name": "Rainbow Kids Daycare", "address": "4521 Stauble Rd", "city": "Prince George", "phone": "250-962-9719", "services": []}}, {"type": "Feature", "geometry": {"type": "Point", "coordinates": ["-120.853013", "56.247684"]}, "properties": {"id": "3811", "name": "Sas Natsadle (Little Bear) Aboriginal Head Start", "address": "10328 101 Ave", "city": "Fort St. John", "phone": "250-785-0887", "services": [2]}}, {"type": "Feature", "geometry": {"type": "Point", "coordinates": ["-124.005947", "54.032202"]}, "properties": {"id": "3817", "name": "Patsy's Family Day Care", "address": "3560 Hospital Rd", "city": "Vanderhoof", "phone": "250-567-3949", "services": []}}, {"type": "Feature", "geometry": {"type": "Point", "coordinates": ["-130.335769", "54.29784"]}, "properties": {"id": "3826", "name": "Kids Club Daycare", "address": "1743 Sloan Ave", "city": "Prince Rupert", "phone": "250-600-2228", "services": []}}, {"type": "Feature", "geometry": {"type": "Point", "coordinates": ["-122.807946", "53.920246"]}, "properties": {"id": "3848", "name": "Prince George Cornerstone Learning Centre", "address": "511 South Tabor Blvd", "city": "Prince George", "phone": "250-552-1098", "services": []}}, {"type": "Feature", "geometry": {"type": "Point", "coordinates": ["-130.31483", "54.313452"]}, "properties": {"id": "3866", "name": "Kidd'n About Child Day Care", "address": "210 7Th Ave E", "city": "Prince Rupert", "phone": "250-627-8579", "services": []}}, {"type": "Feature", "geometry": {"type": "Point", "coordinates": ["-128.535356", "54.514155"]}, "properties": {"id": "3869", "name": "Little Adventurer Preschool", "address": "3091 Century St", "city": "Terrace", "phone": "250-638-7945", "services": []}}, {"type": "Feature", "geometry": {"type": "Point", "coordinates": ["-122.779001", "53.989421"]}, "properties": {"id": "3885", "name": "Wee Care Day Care", "address": "3111 Austin Rd E", "city": "Prince George", "phone": "250-962-2217", "services": []}}, {"type": "Feature", "geometry": {"type": "Point", "coordinates": ["-122.800309", "53.898049"]}, "properties": {"id": "3886", "name": "The Friendship Garden Family Day Care", "address": "4150 Morgan Cres", "city": "Prince George", "phone": "250-564-9350", "services": []}}, {"type": "Feature", "geometry": {"type": "Point", "coordinates": ["-122.797945", "53.898498"]}, "properties": {"id": "3892", "name": "Grizzly Den Daycare", "address": "4118 Guest Cres", "city": "Prince George", "phone": "250-617-6494", "services": []}}, {"type": "Feature", "geometry": {"type": "Point", "coordinates": ["-127.177706", "54.782376"]}, "properties": {"id": "3943", "name": "St. Joseph's Pre-K & After School Program", "address": "4039 Broadway Ave", "city": "Smithers", "phone": "250-847-9414", "services": []}}, {"type": "Feature", "geometry": {"type": "Point", "coordinates": ["-122.763427", "53.955812"]}, "properties": {"id": "3977", "name": "Dandilions & Daisies Family Day Care", "address": "3473 Clearwood Cres", "city": "Prince George", "phone": "250-962-6498", "services": []}}, {"type": "Feature", "geometry": {"type": "Point", "coordinates": ["-128.609456", "54.535471"]}, "properties": {"id": "4000", "name": "Little Timbers Family Child Care", "address": "4938 Halliwell Ave", "city": "Terrace", "phone": "250-635-6418", "services": []}}, {"type": "Feature", "geometry": {"type": "Point", "coordinates": ["-122.804689", "53.92179"]}, "properties": {"id": "4038", "name": "Clarke's Candyland", "address": "4231 Carrier Ave", "city": "Prince George", "phone": "250-614-9563", "services": []}}, {"type": "Feature", "geometry": {"type": "Point", "coordinates": ["-122.79671", "53.979349"]}, "properties": {"id": "4050", "name": "Little Shooting Stars Family Day Care", "address": "3049 Poyner Cres", "city": "Prince George", "phone": "250-613-5152", "services": []}}, {"type": "Feature", "geometry": {"type": "Point", "coordinates": ["-122.988115", "54.085229"]}, "properties": {"id": "4056", "name": "Nukko Lake Child Care", "address": "23955 Chief Lake Rd", "city": "Prince George", "phone": "250-981-4886", "services": []}}, {"type": "Feature", "geometry": {"type": "Point", "coordinates": ["-122.828646", "54.032146"]}, "properties": {"id": "4081", "name": "Teddy Bear Junction", "address": "5963 Ferguson Lake Rd", "city": "Prince George", "phone": "250-962-5705", "services": []}}, {"type": "Feature", "geometry": {"type": "Point", "coordinates": ["-122.809656", "53.927899"]}, "properties": {"id": "4085", "name": "Power Of Friendship Aboriginal Head Start Program", "address": "110 Anderson St", "city": "Prince George", "phone": "250-564-3568", "services": []}}, {"type": "Feature", "geometry": {"type": "Point", "coordinates": ["-122.757616", "53.919996"]}, "properties": {"id": "4086", "name": "Pg Aboriginal Head Start", "address": "1945 3Rd Ave", "city": "Prince George", "phone": "250-564-3568", "services": []}}, {"type": "Feature", "geometry": {"type": "Point", "coordinates": ["-122.47195", "52.976294"]}, "properties": {"id": "4096", "name": "Bambi Day Care", "address": "1420 Johnston Ave", "city": "Quesnel", "phone": "250-992-8079", "services": []}}, {"type": "Feature", "geometry": {"type": "Point", "coordinates": ["-122.781838", "53.853446"]}, "properties": {"id": "4102", "name": "Little Blessings Daycare", "address": "8454 St Lawrence Ave", "city": "Prince George", "phone": "250-961-6173", "services": []}}, {"type": "Feature", "geometry": {"type": "Point", "coordinates": ["-127.675101", "55.255284"]}, "properties": {"id": "4113", "name": "Gitanmaax Nursery School", "address": "1715 John Field Rd", "city": "Hazelton", "phone": "250-842-5297", "services": []}}, {"type": "Feature", "geometry": {"type": "Point", "coordinates": ["-122.78511", "53.990656"]}, "properties": {"id": "4119", "name": "Abra-Kid-Abra Out Of School Daycare", "address": "6742 Dagg Rd", "city": "Prince George", "phone": "250-962-9398", "services": []}}, {"type": "Feature", "geometry": {"type": "Point", "coordinates": ["-122.812072", "53.91385"]}, "properties": {"id": "4126", "name": "Kitty's Korner", "address": "1117 Limestone Cres", "city": "Prince George", "phone": "250-564-1535", "services": []}}, {"type": "Feature", "geometry": {"type": "Point", "coordinates": ["-122.815619", "53.920905"]}, "properties": {"id": "4128", "name": "Cedars Christian School Pre-School", "address": "4590 5Th Ave", "city": "Prince George", "phone": "250-564-0707", "services": []}}, {"type": "Feature", "geometry": {"type": "Point", "coordinates": ["-122.798001", "53.946227"]}, "properties": {"id": "4133", "name": "Little Achievers Day Care", "address": "4188 Craig Dr", "city": "Prince George", "phone": "250-563-3315", "services": []}}, {"type": "Feature", "geometry": {"type": "Point", "coordinates": ["-122.792448", "53.915895"]}, "properties": {"id": "4179", "name": "Bbbs Nbc Asc Spruceland", "address": "3805 Rainbow Dr", "city": "Prince George", "phone": "250-563-7410", "services": []}}, {"type": "Feature", "geometry": {"type": "Point", "coordinates": ["-130.305777", "54.312431"]}, "properties": {"id": "4192", "name": "Little Kings And Queens", "address": "1224 Brett Pl", "city": "Prince Rupert", "phone": "250-624-9685", "services": []}}, {"type": "Feature", "geometry": {"type": "Point", "coordinates": ["-120.814049", "56.235763"]}, "properties": {"id": "4194", "name": "Duncan Cran Elementary (Little Kodiaks Clubhouse)", "address": "8130 89 Ave", "city": "Fort St. John", "phone": "250-264-7186", "services": []}}, {"type": "Feature", "geometry": {"type": "Point", "coordinates": ["-128.60938", "54.517607"]}, "properties": {"id": "4229", "name": "Little Sprouts Family Daycare", "address": "4925 Lazelle Ave", "city": "Terrace", "phone": "250-638-0465", "services": []}}, {"type": "Feature", "geometry": {"type": "Point", "coordinates": ["-122.818823", "53.93334"]}, "properties": {"id": "4240", "name": "Jelly Bean Bunch Childcare", "address": "183 Van Somer St", "city": "Prince George", "phone": "250-961-1463", "services": [0, 1, 3]}}, {"type": "Feature", "geometry": {"type": "Point", "coordinates": ["-122.74263", "53.899863"]}, "properties": {"id": "4254", "name": "Little Monkey's Day Care", "address": "2384 Jasper St", "city": "Prince George", "phone": "250-561-1902", "services": []}}, {"type": "Feature", "geometry": {"type": "Point", "coordinates": ["-120.83059", "56.247358"]}, "properties": {"id": "4310", "name": "Learning Through Playing", "address": "9023 101 Ave", "city": "Fort St. John", "phone": "778-256-1136", "services": []}}, {"type": "Feature", "geometry": {"type": "Point", "coordinates": ["-128.590734", "54.524809"]}, "properties": {"id": "4324", "name": "Centennial Christian School - Preschool And Afterschool Care", "address": "3608 Sparks St", "city": "Terrace", "phone": "250-635-6173", "services": []}}, {"type": "Feature", "geometry": {"type": "Point", "coordinates": ["-122.783481", "53.991529"]}, "properties": {"id": "4325", "name": "Giggles And Stickers Daycare", "address": "6824 Glenview Dr", "city": "Prince George", "phone": "250-612-1519", "services": []}}, {"type": "Feature", "geometry": {"type": "Point", "coordinates": ["-122.780439", "53.858258"]}, "properties": {"id": "4369", "name": "Peanuts Lifetime Pals Club", "address": "7148 Southridge Ave", "city": "Prince George", "phone": "250-964-3326", "services": []}}, {"type": "Feature", "geometry": {"type": "Point", "coordinates": ["-120.855148", "56.251786"]}, "properties": {"id": "4378", "name": "Child Development Centre Society Of Fort St. John & District", "address": "10417 106 Ave", "city": "Fort St. John", "phone": "250-785-3200", "services": []}}, {"type": "Feature", "geometry": {"type": "Point", "coordinates": ["-130.293369", "54.317771"]}, "properties": {"id": "4387", "name": "Happy Trails Daycare", "address": "290 Crestview Dr", "city": "Prince Rupert", "phone": "250-627-8787", "services": []}}, {"type": "Feature", "geometry": {"type": "Point", "coordinates": ["-130.316674", "54.314291"]}, "properties": {"id": "4405", "name": "Rainbow Daycare", "address": "201 6Th Ave E", "city": "Prince Rupert", "phone": "250-600-4365", "services": [0, 1]}}, {"type": "Feature", "geometry": {"type": "Point", "coordinates": ["-123.103053", "55.341271"]}, "properties": {"id": "4428", "name": "Sabreland Daycare", "address": "310 Nechako Ave", "city": "Mackenzie", "phone": "250-997-6340", "services": [0, 1, 3]}}, {"type": "Feature", "geometry": {"type": "Point", "coordinates": ["-122.780739", "53.89579"]}, "properties": {"id": "4449", "name": "Solid Foundations Family Daycare", "address": "2626 Tweedsmuir Ave", "city": "Prince George", "phone": "250-614-9226", "services": []}}, {"type": "Feature", "geometry": {"type": "Point", "coordinates": ["-122.784961", "53.8952"]}, "properties": {"id": "4468", "name": "ymca Westwood After School Care", "address": "2633 Vanier Dr", "city": "Prince George", "phone": "250-961-7046", "services": []}}, {"type": "Feature", "geometry": {"type": "Point", "coordinates": ["-122.78967", "53.895907"]}, "properties": {"id": "4518", "name": "Gentle Rain Family Child Care", "address": "3618 Forest Ave", "city": "Prince George", "phone": "250-561-7015", "services": []}}, {"type": "Feature", "geometry": {"type": "Point", "coordinates": ["-122.781163", "53.891176"]}, "properties": {"id": "4531", "name": "Cherished Treasures", "address": "143 Fern Cres", "city": "Prince George", "phone": "250-649-8762", "services": []}}, {"type": "Feature", "geometry": {"type": "Point", "coordinates": ["-122.809214", "53.915506"]}, "properties": {"id": "4544", "name": "Little Niblets Family Daycare", "address": "853 Faulkner Cres", "city": "Prince George", "phone": "250-562-4419", "services": []}}, {"type": "Feature", "geometry": {"type": "Point", "coordinates": ["-122.64316", "53.89867"]}, "properties": {"id": "4570", "name": "Amanda's Angels", "address": "5428 Giscome Rd", "city": "Prince George", "phone": "250-963-0044", "services": []}}, {"type": "Feature", "geometry": {"type": "Point", "coordinates": ["-130.336875", "54.296024"]}, "properties": {"id": "4577", "name": "Kelly's Daycare", "address": "1797 Sloan Ave", "city": "Prince Rupert", "phone": "250-627-8986", "services": []}}, {"type": "Feature", "geometry": {"type": "Point", "coordinates": ["-125.756531", "54.235854"]}, "properties": {"id": "4600", "name": "Movin On Up", "address": "270 9Th Ave", "city": "Burns Lake", "phone": "250-692-9486", "services": []}}, {"type": "Feature", "geometry": {"type": "Point", "coordinates": ["-130.326709", "54.306401"]}, "properties": {"id": "4627", "name": "Westview Child Care Centre", "address": "800 Summit Ave", "city": "Prince Rupert", "phone": "250-622-2298", "services": []}}, {"type": "Feature", "geometry": {"type": "Point", "coordinates": ["-133.703737", "59.567545"]}, "properties": {"id": "4644", "name": "Tlingit Family Learning Centre", "address": "19 Taku Dr", "city": "Atlin", "phone": "250-651-7739", "services": []}}, {"type": "Feature", "geometry": {"type": "Point", "coordinates": ["-127.155923", "54.777828"]}, "properties": {"id": "4691", "name": "Bulkley Valley Christian School - Preschool", "address": "3575 14Th Ave", "city": "Smithers", "phone": "250-847-4238", "services": [2]}}, {"type": "Feature", "geometry": {"type": "Point", "coordinates": ["-130.336657", "54.298774"]}, "properties": {"id": "4701", "name": "Pineridge Elementary School Before And After School Daycare", "address": "1700 Sloan Ave", "city": "Prince Rupert", "phone": "250-627-7054", "services": []}}, {"type": "Feature", "geometry": {"type": "Point", "coordinates": ["-122.736563", "53.907998"]}, "properties": {"id": "4706", "name": "Le Coin Des Petits", "address": "1752 Fir St", "city": "Prince George", "phone": "250-561-2565", "services": []}}, {"type": "Feature", "geometry": {"type": "Point", "coordinates": ["-114.935182", "50.005219"]}, "properties": {"id": "4745", "name": "Building Blocks Child Care", "address": "10805 14 St", "city": "Dawson Creek", "phone": "250-782-1497", "services": []}}, {"type": "Feature", "geometry": {"type": "Point", "coordinates": ["-122.805339", "53.9173"]}, "properties": {"id": "4780", "name": "Lisa's Daycare", "address": "4262 Merton Cres", "city": "Prince George", "phone": "250-564-5411", "services": []}}, {"type": "Feature", "geometry": {"type": "Point", "coordinates": ["-120.845472", "56.255465"]}, "properties": {"id": "4781", "name": "Wiggles And Giggles Group Daycare", "address": "9820 110 Ave", "city": "Fort St. John", "phone": "250-793-5437", "services": [0, 1]}}, {"type": "Feature", "geometry": {"type": "Point", "coordinates": ["-122.48347", "52.974171"]}, "properties": {"id": "4827", "name": "Betty's Family Daycare", "address": "972 Graham Ave", "city": "Quesnel", "phone": "250-992-7781", "services": []}}, {"type": "Feature", "geometry": {"type": "Point", "coordinates": ["-130.321744", "54.311716"]}, "properties": {"id": "4828", "name": "Prince And Princess Daycare", "address": "329 5Th Ave W", "city": "Prince Rupert", "phone": "250-295-2478", "services": []}}, {"type": "Feature", "geometry": {"type": "Point", "coordinates": ["-122.78405", "53.92999"]}, "properties": {"id": "4831", "name": "Cedars Child Care", "address": "600 Preston Rd", "city": "Prince George", "phone": "250-564-0707", "services": []}}, {"type": "Feature", "geometry": {"type": "Point", "coordinates": ["-130.290103", "54.323731"]}, "properties": {"id": "4936", "name": "Kiddieland Child Care", "address": "1626 11 Ave E", "city": "Prince Rupert", "phone": "250-627-8327", "services": [0, 1, 3]}}, {"type": "Feature", "geometry": {"type": "Point", "coordinates": ["-122.790317", "53.891387"]}, "properties": {"id": "4944", "name": "Precious Angels Family Daycare", "address": "2920 Christopher Cres", "city": "Prince George", "phone": "250-960-0084", "services": []}}, {"type": "Feature", "geometry": {"type": "Point", "coordinates": ["-122.751284", "53.918711"]}, "properties": {"id": "4990", "name": "Little Friends Day Care", "address": "1600 3Rd Ave", "city": "Prince George", "phone": "250-564-3568", "services": []}}, {"type": "Feature", "geometry": {"type": "Point", "coordinates": ["-120.820421", "56.245915"]}, "properties": {"id": "4996", "name": "Robert Ogilvie Preschool", "address": "9907 86 St", "city": "Fort St. John", "phone": "250-794-1955", "services": []}}, {"type": "Feature", "geometry": {"type": "Point", "coordinates": ["-128.609607", "54.510978"]}, "properties": {"id": "5010", "name": "Tiny Steps", "address": "4927 Agar Ave", "city": "Terrace", "phone": "250-631-2101", "services": [0, 1, 3]}}, {"type": "Feature", "geometry": {"type": "Point", "coordinates": ["-122.810538", "53.926326"]}, "properties": {"id": "5029", "name": "Tinker Tots Daycare", "address": "230 Anderson St", "city": "Prince George", "phone": "250-564-5689", "services": [0, 1, 3]}}, {"type": "Feature", "geometry": {"type": "Point", "coordinates": ["-122.771824", "53.874863"]}, "properties": {"id": "5048", "name": "Smiles 'N' Chuckles", "address": "2657 mcgill Cres", "city": "Prince George", "phone": "250-964-8663", "services": []}}, {"type": "Feature", "geometry": {"type": "Point", "coordinates": ["-122.772486", "53.91893"]}, "properties": {"id": "5061", "name": "Tiny Treasures", "address": "667 Ewert St", "city": "Prince George", "phone": "250-570-2733", "services": [0, 1]}}, {"type": "Feature", "geometry": {"type": "Point", "coordinates": ["-123.997932", "54.017015"]}, "properties": {"id": "5086", "name": "Early Years Preschool", "address": "448 Connaught St", "city": "Vanderhoof", "phone": "250-524-0238", "services": []}}, {"type": "Feature", "geometry": {"type": "Point", "coordinates": ["-128.604506", "54.524216"]}, "properties": {"id": "5097", "name": "Veritas School After-School Care", "address": "4836 Straume Ave", "city": "Terrace", "phone": "250-635-3035", "services": []}}, {"type": "Feature", "geometry": {"type": "Point", "coordinates": ["-128.603586", "54.525078"]}, "properties": {"id": "5098", "name": "Sprout-Up Preschool", "address": "4830 Straume Ave", "city": "Terrace", "phone": "250-635-3035", "services": []}}, {"type": "Feature", "geometry": {"type": "Point", "coordinates": ["-128.587525", "54.519961"]}, "properties": {"id": "5104", "name": "Kermode Friendship Society Aboriginal Headstart", "address": "102 3313 Kalum St", "city": "Terrace", "phone": "250-635-4906", "services": []}}, {"type": "Feature", "geometry": {"type": "Point", "coordinates": ["-122.473953", "52.984131"]}, "properties": {"id": "5105", "name": "Little Owls Family Daycare", "address": "590 Nason St", "city": "Quesnel", "phone": "250-992-0143", "services": []}}, {"type": "Feature", "geometry": {"type": "Point", "coordinates": ["-124.27415", "54.45262"]}, "properties": {"id": "5116", "name": "Nak'al Bun Child Care Centre", "address": "10 Lakeshore Dr", "city": "Fort St. James", "phone": "250-996-8441", "services": [1, 2]}}, {"type": "Feature", "geometry": {"type": "Point", "coordinates": ["-122.803985", "53.857883"]}, "properties": {"id": "5124", "name": "Little Otters Daycare", "address": "6864 Chartwell Cres", "city": "Prince George", "phone": "250-964-9478", "services": []}}, {"type": "Feature", "geometry": {"type": "Point", "coordinates": ["-120.231232", "55.756756"]}, "properties": {"id": "5134", "name": "Kiwanis Child Care Centre", "address": "10401 10 St", "city": "Dawson Creek", "phone": "250-782-6885", "services": [0, 1, 3]}}, {"type": "Feature", "geometry": {"type": "Point", "coordinates": ["-130.350163", "54.297549"]}, "properties": {"id": "5137", "name": "Little Einstein Childcare", "address": "180 Van Arsdol St", "city": "Prince Rupert", "phone": "250-600-0131", "services": []}}, {"type": "Feature", "geometry": {"type": "Point", "coordinates": ["-122.781339", "53.872329"]}, "properties": {"id": "5139", "name": "Soaring Butterflies Family Day Care", "address": "4467 Wheeler Rd", "city": "Prince George", "phone": "250-981-0829", "services": []}}, {"type": "Feature", "geometry": {"type": "Point", "coordinates": ["-120.820161", "56.245471"]}, "properties": {"id": "5199", "name": "ymca Robert Ogilvie Care And Learning Centre", "address": "9907 86 St", "city": "Fort St. John", "phone": "250-961-7046", "services": []}}, {"type": "Feature", "geometry": {"type": "Point", "coordinates": ["-128.608895", "54.510368"]}, "properties": {"id": "5222", "name": "Kids At Play", "address": "4923 Agar Ave", "city": "Terrace", "phone": "250-631-2101", "services": [3]}}, {"type": "Feature", "geometry": {"type": "Point", "coordinates": ["-122.792118", "53.919925"]}, "properties": {"id": "5239", "name": "Bbbs Pg Asc Clubhouse", "address": "777 Kinsmen Pl", "city": "Prince George", "phone": "250-563-7410", "services": []}}, {"type": "Feature", "geometry": {"type": "Point", "coordinates": ["-122.798283", "53.914179"]}, "properties": {"id": "5252", "name": "Little Ladybugs Family Daycare", "address": "1112 Cluculz Ave", "city": "Prince George", "phone": "250-614-0023", "services": []}}, {"type": "Feature", "geometry": {"type": "Point", "coordinates": ["-120.225417", "55.774237"]}, "properties": {"id": "5293", "name": "Kenzie N Friends", "address": "804 90 Ave", "city": "Dawson Creek", "phone": "250-782-6368", "services": []}}, {"type": "Feature", "geometry": {"type": "Point", "coordinates": ["-122.803664", "53.985576"]}, "properties": {"id": "5306", "name": "Growing Patch (The)", "address": "6221 Tasa Pl", "city": "Prince George", "phone": "250-640-6517", "services": []}}, {"type": "Feature", "geometry": {"type": "Point", "coordinates": ["-120.821989", "56.246817"]}, "properties": {"id": "5338", "name": "Rise & Shine Clubhouse", "address": "2 8612 100 Ave", "city": "Fort St. John", "phone": "250-793-5269", "services": []}}, {"type": "Feature", "geometry": {"type": "Point", "coordinates": ["-122.805004", "53.899433"]}, "properties": {"id": "5360", "name": "Something Cool Family Daycare", "address": "2387 Webber Cres", "city": "Prince George", "phone": "250-562-8861", "services": []}}, {"type": "Feature", "geometry": {"type": "Point", "coordinates": ["-127.169787", "54.774561"]}, "properties": {"id": "5373", "name": "Miss Melanie's Munchkins", "address": "3539 Alfred Ave", "city": "Smithers", "phone": "250-877-0110", "services": []}}, {"type": "Feature", "geometry": {"type": "Point", "coordinates": ["-120.836071", "56.260853"]}, "properties": {"id": "5377", "name": "Owl's Nest Daycare (The)", "address": "9324 114A Ave", "city": "Fort St. John", "phone": "250-262-6736", "services": []}}, {"type": "Feature", "geometry": {"type": "Point", "coordinates": ["-122.779937", "53.931266"]}, "properties": {"id": "5383", "name": "Tadpole Ranch Daycare", "address": "2-556 North Nechako Rd", "city": "Prince George", "phone": "250-612-2955", "services": []}}, {"type": "Feature", "geometry": {"type": "Point", "coordinates": ["-130.292674", "54.316488"]}, "properties": {"id": "5425", "name": "The Pottle Patch", "address": "118 Bill Rd", "city": "Prince Rupert", "phone": "250-627-1428", "services": []}}, {"type": "Feature", "geometry": {"type": "Point", "coordinates": ["-130.301784", "54.311863"]}, "properties": {"id": "5468", "name": "Tiny Treasures Childcare", "address": "210 Heron Rd", "city": "Prince Rupert", "phone": "250-600-3944", "services": []}}, {"type": "Feature", "geometry": {"type": "Point", "coordinates": ["-122.768924", "53.910547"]}, "properties": {"id": "5474", "name": "Finger Prints Learning Centre Ltd.", "address": "2364 15Th Ave", "city": "Prince George", "phone": "778-349-1791", "services": []}}, {"type": "Feature", "geometry": {"type": "Point", "coordinates": ["-122.449591", "52.966714"]}, "properties": {"id": "5483", "name": "Cariboo Clubhouse After School Care & Activity Centre", "address": "2075 Balsam Ave", "city": "Quesnel", "phone": "250-983-2582", "services": []}}, {"type": "Feature", "geometry": {"type": "Point", "coordinates": ["-122.641281", "53.895377"]}, "properties": {"id": "5514", "name": "Bbbspg Li'l Rascals", "address": "2455 Blackburn Rd S", "city": "Prince George", "phone": "250-563-7410", "services": []}}, {"type": "Feature", "geometry": {"type": "Point", "coordinates": ["-128.653643", "54.57685"]}, "properties": {"id": "5518", "name": "Munchkin Magic", "address": "5625 Oscar Rd", "city": "Terrace", "phone": "250-635-7998", "services": [0, 1, 3]}}, {"type": "Feature", "geometry": {"type": "Point", "coordinates": ["-122.803551", "53.899174"]}, "properties": {"id": "5533", "name": "Adrianne's Little Critters Family Daycare", "address": "4245 Paschal Pl", "city": "Prince George", "phone": "250-301-3969", "services": []}}, {"type": "Feature", "geometry": {"type": "Point", "coordinates": ["-123.095679", "55.339778"]}, "properties": {"id": "5553", "name": "Gammie's Daycare", "address": "6-520 Mackenzie Blvd", "city": "Mackenzie", "phone": "250-997-5437", "services": []}}, {"type": "Feature", "geometry": {"type": "Point", "coordinates": ["-122.741261", "53.897018"]}, "properties": {"id": "5560", "name": "Early Learning Preschool Of The North", "address": "2588 Queensway", "city": "Prince George", "phone": "250-565-5262", "services": [0, 1, 2]}}, {"type": "Feature", "geometry": {"type": "Point", "coordinates": ["-122.774647", "53.908872"]}, "properties": {"id": "5564", "name": "Chez Naty", "address": "1658 Gillett St", "city": "Prince George", "phone": "250-613-5254", "services": []}}, {"type": "Feature", "geometry": {"type": "Point", "coordinates": ["-122.759004", "53.893257"]}, "properties": {"id": "5596", "name": "Happy Beginnings Childcare", "address": "2744 Lonsdale St", "city": "Prince George", "phone": "250-640-2340", "services": []}}]}