{
  "type": "FeatureCollection",
  "features": [
    {
      "type": "Feature",
      "geometry": {
        "type": "Point",
        "coordinates": [
          "-122.914866",
          "49.264565"
        ]
      },
      "properties": {
        "id": "8",
        "name": "Forest Grove Childcare Centre",
        "address": "36-8650 Cinnamon Dr",
        "city": "Burnaby",
        "services": []
      }
    },
    {
      "type": "Feature",
      "geometry": {
        "type": "Point",
        "coordinates": [
          "-122.940843",
          "49.223387"
        ]
      },
      "properties": {
        "id": "25",
        "name": "St. Matthews Day Care Society",
        "address": "103-7355 Canada Way",
        "city": "Burnaby",
        "services": []
      }
    },
    {
      "type": "Feature",
      "geometry": {
        "type": "Point",
        "coordinates": [
          "-122.899696",
          "49.251635"
        ]
      },
      "properties": {
        "id": "46",
        "name": "Cameron ymca Kids Club",
        "address": "9540 Erickson Dr",
        "city": "Burnaby",
        "services": []
      }
    },
    {
      "type": "Feature",
      "geometry": {
        "type": "Point",
        "coordinates": [
          "-122.979536",
          "49.281465"
        ]
      },
      "properties": {
        "id": "47",
        "name": "Capitol Hill ymca Kids Club",
        "address": "350 Holdom Ave",
        "city": "Burnaby",
        "services": []
      }
    },
    {
      "type": "Feature",
      "geometry": {
        "type": "Point",
        "coordinates": [
          "-122.902055",
          "49.259404"
        ]
      },
      "properties": {
        "id": "50",
        "name": "Stoney Creek ymca Kids Club",
        "address": "2740 Beaverbrook Cres",
        "city": "Burnaby",
        "services": []
      }
    },
    {
      "type": "Feature",
      "geometry": {
        "type": "Point",
        "coordinates": [
          "-122.970614",
          "49.274765"
        ]
      },
      "properties": {
        "id": "76",
        "name": "Little Vine Learning Centre",
        "address": "1005 Kensington Ave",
        "city": "Burnaby",
        "services": []
      }
    },
    {
      "type": "Feature",
      "geometry": {
        "type": "Point",
        "coordinates": [
          "-122.993524",
          "49.271456"
        ]
      },
      "properties": {
        "id": "81",
        "name": "Brentwood Park Plus",
        "address": "1455 Delta Ave Room B",
        "city": "Burnaby",
        "services": []
      }
    },
    {
      "type": "Feature",
      "geometry": {
        "type": "Point",
        "coordinates": [
          "-122.939818",
          "49.223736"
        ]
      },
      "properties": {
        "id": "105",
        "name": "St. Alban's The Martyr Day Care",
        "address": "7717 19Th Ave",
        "city": "Burnaby",
        "services": []
      }
    },
    {
      "type": "Feature",
      "geometry": {
        "type": "Point",
        "coordinates": [
          "-122.991466",
          "49.229781"
        ]
      },
      "properties": {
        "id": "118",
        "name": "Burnaby French Language Playschool",
        "address": "6060 Marlborough Ave",
        "city": "Burnaby",
        "services": [
          2
        ]
      }
    },
    {
      "type": "Feature",
      "geometry": {
        "type": "Point",
        "coordinates": [
          "-123.014934",
          "49.233536"
        ]
      },
      "properties": {
        "id": "119",
        "name": "Kingsway Christian Children's Centre - Clubhouse",
        "address": "4045 Kingsway",
        "city": "Burnaby",
        "services": []
      }
    },
    {
      "type": "Feature",
      "geometry": {
        "type": "Point",
        "coordinates": [
          "-123.014259",
          "49.23303"
        ]
      },
      "properties": {
        "id": "120",
        "name": "Kingsway Christian Children's Centre",
        "address": "4061 Kingsway",
        "city": "Burnaby",
        "services": []
      }
    },
    {
      "type": "Feature",
      "geometry": {
        "type": "Point",
        "coordinates": [
          "-122.906734",
          "49.255095"
        ]
      },
      "properties": {
        "id": "174",
        "name": "Village Day Care",
        "address": "3290 Ganymede Dr",
        "city": "Burnaby",
        "services": []
      }
    },
    {
      "type": "Feature",
      "geometry": {
        "type": "Point",
        "coordinates": [
          "-122.994926",
          "49.231632"
        ]
      },
      "properties": {
        "id": "176",
        "name": "Nelson Avenue Daycare",
        "address": "5825 Nelson Ave",
        "city": "Burnaby",
        "services": []
      }
    },
    {
      "type": "Feature",
      "geometry": {
        "type": "Point",
        "coordinates": [
          "-122.92098",
          "49.226764"
        ]
      },
      "properties": {
        "id": "207",
        "name": "Beehive Christian Early Learning",
        "address": "8255 13 Ave",
        "city": "Burnaby",
        "services": [
          1
        ]
      }
    },
    {
      "type": "Feature",
      "geometry": {
        "type": "Point",
        "coordinates": [
          "-122.908745",
          "49.234156"
        ]
      },
      "properties": {
        "id": "211",
        "name": "Pied Piper Preschool",
        "address": "8757 Armstrong Ave",
        "city": "Burnaby",
        "services": []
      }
    },
    {
      "type": "Feature",
      "geometry": {
        "type": "Point",
        "coordinates": [
          "-123.013333",
          "49.284233"
        ]
      },
      "properties": {
        "id": "228",
        "name": "Gilmore Preschool",
        "address": "50 Gilmore Ave",
        "city": "Burnaby",
        "services": []
      }
    },
    {
      "type": "Feature",
      "geometry": {
        "type": "Point",
        "coordinates": [
          "-123.008147",
          "49.209961"
        ]
      },
      "properties": {
        "id": "237",
        "name": "Hillview Parent Participation Preschool",
        "address": "4340 Carson St",
        "city": "Burnaby",
        "services": [
          2
        ]
      }
    },
    {
      "type": "Feature",
      "geometry": {
        "type": "Point",
        "coordinates": [
          "-123.007359",
          "49.267764"
        ]
      },
      "properties": {
        "id": "246",
        "name": "Madison Children's Centre",
        "address": "4397 Buchanan St",
        "city": "Burnaby",
        "services": []
      }
    },
    {
      "type": "Feature",
      "geometry": {
        "type": "Point",
        "coordinates": [
          "-122.979509",
          "49.242183"
        ]
      },
      "properties": {
        "id": "260",
        "name": "Tiny Town Childcare Centre",
        "address": "5747 Gilpin St",
        "city": "Burnaby",
        "services": []
      }
    },
    {
      "type": "Feature",
      "geometry": {
        "type": "Point",
        "coordinates": [
          "-122.895005",
          "49.253877"
        ]
      },
      "properties": {
        "id": "268",
        "name": "Three Bears Centre",
        "address": "9887 Cameron St",
        "city": "Burnaby",
        "services": []
      }
    },
    {
      "type": "Feature",
      "geometry": {
        "type": "Point",
        "coordinates": [
          "-122.994499",
          "49.217611"
        ]
      },
      "properties": {
        "id": "269",
        "name": "Absorbent Minds Montessori Ltd.",
        "address": "7283 Nelson Ave",
        "city": "Burnaby",
        "services": []
      }
    },
    {
      "type": "Feature",
      "geometry": {
        "type": "Point",
        "coordinates": [
          "-122.94567",
          "49.230167"
        ]
      },
      "properties": {
        "id": "281",
        "name": "Burnaby Lakeview Early Learning Centre",
        "address": "7777 Mayfield St",
        "city": "Burnaby",
        "services": []
      }
    },
    {
      "type": "Feature",
      "geometry": {
        "type": "Point",
        "coordinates": [
          "-122.935675",
          "49.249888"
        ]
      },
      "properties": {
        "id": "330",
        "name": "Dharma Kids Centre",
        "address": "3821 Piper Ave",
        "city": "Burnaby",
        "services": []
      }
    },
    {
      "type": "Feature",
      "geometry": {
        "type": "Point",
        "coordinates": [
          "-122.92671",
          "49.227801"
        ]
      },
      "properties": {
        "id": "332",
        "name": "Kids Link Out Of School Care",
        "address": "7502  2Nd St",
        "city": "Burnaby",
        "services": [
          3,
          4
        ]
      }
    },
    {
      "type": "Feature",
      "geometry": {
        "type": "Point",
        "coordinates": [
          "-122.976562",
          "49.26977"
        ]
      },
      "properties": {
        "id": "364",
        "name": "Parkcrest Children's Centre",
        "address": "6040 Winch St",
        "city": "Burnaby",
        "services": []
      }
    },
    {
      "type": "Feature",
      "geometry": {
        "type": "Point",
        "coordinates": [
          "-122.994499",
          "49.217611"
        ]
      },
      "properties": {
        "id": "379",
        "name": "Bee House Montessori Day Care I",
        "address": "7283 Nelson Ave",
        "city": "Burnaby",
        "services": []
      }
    },
    {
      "type": "Feature",
      "geometry": {
        "type": "Point",
        "coordinates": [
          "-122.999763",
          "49.222893"
        ]
      },
      "properties": {
        "id": "416",
        "name": "Maywood Neighbourhood Care",
        "address": "4567 Imperial St",
        "city": "Burnaby",
        "services": []
      }
    },
    {
      "type": "Feature",
      "geometry": {
        "type": "Point",
        "coordinates": [
          "-122.954208",
          "49.210908"
        ]
      },
      "properties": {
        "id": "417",
        "name": "Stride Avenue Neighbourhood Care",
        "address": "7014 Stride Ave",
        "city": "Burnaby",
        "services": []
      }
    },
    {
      "type": "Feature",
      "geometry": {
        "type": "Point",
        "coordinates": [
          "-123.01903",
          "49.284083"
        ]
      },
      "properties": {
        "id": "421",
        "name": "Treasure Island School Age Care",
        "address": "3883 Triumph St",
        "city": "Burnaby",
        "services": []
      }
    },
    {
      "type": "Feature",
      "geometry": {
        "type": "Point",
        "coordinates": [
          "-122.916511",
          "49.225856"
        ]
      },
      "properties": {
        "id": "450",
        "name": "Beyond Care",
        "address": "8350 11Th Ave",
        "city": "Burnaby",
        "services": []
      }
    },
    {
      "type": "Feature",
      "geometry": {
        "type": "Point",
        "coordinates": [
          "-122.986756",
          "49.230284"
        ]
      },
      "properties": {
        "id": "565",
        "name": "Little Hearts Family Child Care",
        "address": "47-5955 Oakdale Rd",
        "city": "Burnaby",
        "services": [
          0,
          1,
          4
        ]
      }
    },
    {
      "type": "Feature",
      "geometry": {
        "type": "Point",
        "coordinates": [
          "-122.986756",
          "49.230284"
        ]
      },
      "properties": {
        "id": "566",
        "name": "Kool Catz Family Child Care",
        "address": "48-5955 Oakdale Rd",
        "city": "Burnaby",
        "services": []
      }
    },
    {
      "type": "Feature",
      "geometry": {
        "type": "Point",
        "coordinates": [
          "-122.970637",
          "49.273154"
        ]
      },
      "properties": {
        "id": "619",
        "name": "Sheila's Family Daycare",
        "address": "6470 Aubrey St",
        "city": "Burnaby",
        "services": []
      }
    },
    {
      "type": "Feature",
      "geometry": {
        "type": "Point",
        "coordinates": [
          "-122.998205",
          "49.265369"
        ]
      },
      "properties": {
        "id": "633",
        "name": "Cefa Early Learning Brentwood",
        "address": "Lm100-4664 Lougheed Hwy",
        "city": "Burnaby",
        "services": []
      }
    },
    {
      "type": "Feature",
      "geometry": {
        "type": "Point",
        "coordinates": [
          "-123.012106",
          "49.281103"
        ]
      },
      "properties": {
        "id": "650",
        "name": "Petits Genies Academy Ltd",
        "address": "101-4181 Hastings St",
        "city": "Burnaby",
        "services": []
      }
    },
    {
      "type": "Feature",
      "geometry": {
        "type": "Point",
        "coordinates": [
          "-122.999981",
          "49.217617"
        ]
      },
      "properties": {
        "id": "665",
        "name": "Pomegranate Childcare",
        "address": "7289 Gray Ave",
        "city": "Burnaby",
        "services": [
          0
        ]
      }
    },
    {
      "type": "Feature",
      "geometry": {
        "type": "Point",
        "coordinates": [
          "-122.911777",
          "49.228829"
        ]
      },
      "properties": {
        "id": "673",
        "name": "Starlight Child Care Centre",
        "address": "8547 11Th Ave",
        "city": "Burnaby",
        "services": []
      }
    },
    {
      "type": "Feature",
      "geometry": {
        "type": "Point",
        "coordinates": [
          "-122.961452",
          "49.222682"
        ]
      },
      "properties": {
        "id": "676",
        "name": "Hand In Hand Montessori Child Care",
        "address": "6733 Griffiths Ave",
        "city": "Burnaby",
        "services": []
      }
    },
    {
      "type": "Feature",
      "geometry": {
        "type": "Point",
        "coordinates": [
          "-122.922397",
          "49.222709"
        ]
      },
      "properties": {
        "id": "690",
        "name": "Rising Stars Daycare Inc",
        "address": "8094 11Th Ave",
        "city": "Burnaby",
        "services": [
          0,
          1
        ]
      }
    },
    {
      "type": "Feature",
      "geometry": {
        "type": "Point",
        "coordinates": [
          "-122.93321",
          "49.227756"
        ]
      },
      "properties": {
        "id": "698",
        "name": "Sophia Child Care Facility",
        "address": "8007 19Th Ave",
        "city": "Burnaby",
        "services": []
      }
    },
    {
      "type": "Feature",
      "geometry": {
        "type": "Point",
        "coordinates": [
          "-122.942928",
          "49.22132"
        ]
      },
      "properties": {
        "id": "723",
        "name": "Happy Bird Daycare",
        "address": "7545 18Th Ave",
        "city": "Burnaby",
        "services": []
      }
    },
    {
      "type": "Feature",
      "geometry": {
        "type": "Point",
        "coordinates": [
          "-122.971181",
          "49.22337"
        ]
      },
      "properties": {
        "id": "756",
        "name": "Little Hat Daycare",
        "address": "6669 Colborne Ave",
        "city": "Burnaby",
        "services": []
      }
    },
    {
      "type": "Feature",
      "geometry": {
        "type": "Point",
        "coordinates": [
          "-122.950874",
          "49.21341"
        ]
      },
      "properties": {
        "id": "789",
        "name": "Little Bell Daycare Centre",
        "address": "101-7168 Stride Ave",
        "city": "Burnaby",
        "services": []
      }
    },
    {
      "type": "Feature",
      "geometry": {
        "type": "Point",
        "coordinates": [
          "-123.006242",
          "49.242699"
        ]
      },
      "properties": {
        "id": "815",
        "name": "Little Sprouts Montessori Daycare Centre",
        "address": "4364 Moscrop St",
        "city": "Burnaby",
        "services": []
      }
    },
    {
      "type": "Feature",
      "geometry": {
        "type": "Point",
        "coordinates": [
          "-122.992712",
          "49.269456"
        ]
      },
      "properties": {
        "id": "829",
        "name": "Jessie's Tots Educare Centre A",
        "address": "4871 Highlawn Dr",
        "city": "Burnaby",
        "services": []
      }
    },
    {
      "type": "Feature",
      "geometry": {
        "type": "Point",
        "coordinates": [
          "-122.963952",
          "49.226446"
        ]
      },
      "properties": {
        "id": "847",
        "name": "Ask Or Imagine Christian Children's Center",
        "address": "6344 Sperling Ave",
        "city": "Burnaby",
        "services": []
      }
    },
    {
      "type": "Feature",
      "geometry": {
        "type": "Point",
        "coordinates": [
          "-123.009169",
          "49.22925"
        ]
      },
      "properties": {
        "id": "866",
        "name": "Little Penguin Family Child Care",
        "address": "114-6044 Wilson Ave",
        "city": "Burnaby",
        "services": [
          0,
          1
        ]
      }
    },
    {
      "type": "Feature",
      "geometry": {
        "type": "Point",
        "coordinates": [
          "-122.959597",
          "49.273653"
        ]
      },
      "properties": {
        "id": "872",
        "name": "Happy Face Family Child Care",
        "address": "6965 Aubrey St",
        "city": "Burnaby",
        "services": [
          0,
          1
        ]
      }
    },
    {
      "type": "Feature",
      "geometry": {
        "type": "Point",
        "coordinates": [
          "-123.000793",
          "49.235008"
        ]
      },
      "properties": {
        "id": "887",
        "name": "Little Learners Family Daycare",
        "address": "5450 Elsom Ave",
        "city": "Burnaby",
        "services": []
      }
    },
    {
      "type": "Feature",
      "geometry": {
        "type": "Point",
        "coordinates": [
          "-123.003478",
          "49.218093"
        ]
      },
      "properties": {
        "id": "900",
        "name": "Fantastic Kidz Childcare",
        "address": "7233 Dow Ave",
        "city": "Burnaby",
        "services": []
      }
    },
    {
      "type": "Feature",
      "geometry": {
        "type": "Point",
        "coordinates": [
          "-122.96636",
          "49.261439"
        ]
      },
      "properties": {
        "id": "908",
        "name": "Broadway Bilingual Daycare",
        "address": "6644 Broadway",
        "city": "Burnaby",
        "services": []
      }
    },
    {
      "type": "Feature",
      "geometry": {
        "type": "Point",
        "coordinates": [
          "-122.968223",
          "49.223053"
        ]
      },
      "properties": {
        "id": "927",
        "name": "Springtree Montessori School",
        "address": "6693 Brantford Ave",
        "city": "Burnaby",
        "services": []
      }
    },
    {
      "type": "Feature",
      "geometry": {
        "type": "Point",
        "coordinates": [
          "-122.989715",
          "49.272029"
        ]
      },
      "properties": {
        "id": "928",
        "name": "Angels Playhouse Infant & Toddler Childcare Centre -Creslawn",
        "address": "1361 Crestlawn Dr",
        "city": "Burnaby",
        "services": []
      }
    },
    {
      "type": "Feature",
      "geometry": {
        "type": "Point",
        "coordinates": [
          "-122.984318",
          "49.252962"
        ]
      },
      "properties": {
        "id": "993",
        "name": "Lael Academy",
        "address": "5467 Hardy Crt",
        "city": "Burnaby",
        "services": []
      }
    },
    {
      "type": "Feature",
      "geometry": {
        "type": "Point",
        "coordinates": [
          "-122.994492",
          "49.217608"
        ]
      },
      "properties": {
        "id": "998",
        "name": "Little Blossom Daycare",
        "address": "7283 Nelson Ave",
        "city": "Burnaby",
        "services": []
      }
    },
    {
      "type": "Feature",
      "geometry": {
        "type": "Point",
        "coordinates": [
          "-122.99859",
          "49.211326"
        ]
      },
      "properties": {
        "id": "1007",
        "name": "Inspirations Montessori School",
        "address": "7980 Gray Ave",
        "city": "Burnaby",
        "services": [
          0
        ]
      }
    },
    {
      "type": "Feature",
      "geometry": {
        "type": "Point",
        "coordinates": [
          "-122.906318",
          "49.237609"
        ]
      },
      "properties": {
        "id": "1054",
        "name": "Grace Montessori Daycare",
        "address": "7588 Cariboo Rd",
        "city": "Burnaby",
        "services": []
      }
    },
    {
      "type": "Feature",
      "geometry": {
        "type": "Point",
        "coordinates": [
          "-122.99736",
          "49.271945"
        ]
      },
      "properties": {
        "id": "1103",
        "name": "Jessie's Tots Educare Centre B",
        "address": "4630 Northlawn Dr",
        "city": "Burnaby",
        "services": []
      }
    },
    {
      "type": "Feature",
      "geometry": {
        "type": "Point",
        "coordinates": [
          "-123.018836",
          "49.282045"
        ]
      },
      "properties": {
        "id": "1115",
        "name": "Aurora Montessori Children's House",
        "address": "3895 Albert St",
        "city": "Burnaby",
        "services": []
      }
    },
    {
      "type": "Feature",
      "geometry": {
        "type": "Point",
        "coordinates": [
          "-122.968219",
          "49.223953"
        ]
      },
      "properties": {
        "id": "1117",
        "name": "Early Learning Childcare Centre",
        "address": "6619 Brantford Ave",
        "city": "Burnaby",
        "services": []
      }
    },
    {
      "type": "Feature",
      "geometry": {
        "type": "Point",
        "coordinates": [
          "-122.978802",
          "49.222485"
        ]
      },
      "properties": {
        "id": "1130",
        "name": "Forest City Children's Centre",
        "address": "5855 Imperial St",
        "city": "Burnaby",
        "services": []
      }
    },
    {
      "type": "Feature",
      "geometry": {
        "type": "Point",
        "coordinates": [
          "-122.957745",
          "49.261458"
        ]
      },
      "properties": {
        "id": "1155",
        "name": "Spring Childcare",
        "address": "7050 Broadway",
        "city": "Burnaby",
        "services": []
      }
    },
    {
      "type": "Feature",
      "geometry": {
        "type": "Point",
        "coordinates": [
          "-122.980006",
          "49.270452"
        ]
      },
      "properties": {
        "id": "1171",
        "name": "Parker James",
        "address": "5770 Grant St",
        "city": "Burnaby",
        "services": []
      }
    },
    {
      "type": "Feature",
      "geometry": {
        "type": "Point",
        "coordinates": [
          "-122.971595",
          "49.222283"
        ]
      },
      "properties": {
        "id": "1189",
        "name": "Sakura Childcare The Third",
        "address": "6776 Gilley Ave",
        "city": "Burnaby",
        "services": []
      }
    },
    {
      "type": "Feature",
      "geometry": {
        "type": "Point",
        "coordinates": [
          "-122.97225",
          "49.228624"
        ]
      },
      "properties": {
        "id": "1225",
        "name": "Gummy Bears Child Care",
        "address": "6288 Service St",
        "city": "Burnaby",
        "services": []
      }
    },
    {
      "type": "Feature",
      "geometry": {
        "type": "Point",
        "coordinates": [
          "-122.95645",
          "49.285374"
        ]
      },
      "properties": {
        "id": "1237",
        "name": "Emmarisse Daycare",
        "address": "7057 Sierra Dr",
        "city": "Burnaby",
        "services": [
          0,
          1,
          3,
          4
        ]
      }
    },
    {
      "type": "Feature",
      "geometry": {
        "type": "Point",
        "coordinates": [
          "-123.019039",
          "49.235028"
        ]
      },
      "properties": {
        "id": "1246",
        "name": "Play N Learn Daycare",
        "address": "3839 Thurston St",
        "city": "Burnaby",
        "services": []
      }
    },
    {
      "type": "Feature",
      "geometry": {
        "type": "Point",
        "coordinates": [
          "-122.983027",
          "49.241798"
        ]
      },
      "properties": {
        "id": "1263",
        "name": "Deer Lake Seventh-Day Adventist School",
        "address": "5550 Gilpin St",
        "city": "Burnaby",
        "services": []
      }
    },
    {
      "type": "Feature",
      "geometry": {
        "type": "Point",
        "coordinates": [
          "-122.927848",
          "49.219576"
        ]
      },
      "properties": {
        "id": "1303",
        "name": "Toma's Montessori Childcare",
        "address": "7870 6Th St",
        "city": "Burnaby",
        "services": []
      }
    },
    {
      "type": "Feature",
      "geometry": {
        "type": "Point",
        "coordinates": [
          "-122.99337",
          "49.280674"
        ]
      },
      "properties": {
        "id": "1323",
        "name": "Next Prep Academy",
        "address": "4838 Hastings St",
        "city": "Burnaby",
        "services": []
      }
    },
    {
      "type": "Feature",
      "geometry": {
        "type": "Point",
        "coordinates": [
          "-122.932967",
          "49.227902"
        ]
      },
      "properties": {
        "id": "1368",
        "name": "Happy Treehouse Family Daycare",
        "address": "8017 19Th Ave",
        "city": "Burnaby",
        "services": []
      }
    },
    {
      "type": "Feature",
      "geometry": {
        "type": "Point",
        "coordinates": [
          "-122.945768",
          "49.260985"
        ]
      },
      "properties": {
        "id": "1388",
        "name": "Little Town Childcare Centre",
        "address": "7480 Broadway",
        "city": "Burnaby",
        "services": [
          0,
          1,
          3,
          4
        ]
      }
    },
    {
      "type": "Feature",
      "geometry": {
        "type": "Point",
        "coordinates": [
          "-123.015796",
          "49.238412"
        ]
      },
      "properties": {
        "id": "1389",
        "name": "Cedar Tree Early Learning Center",
        "address": "5086 Inman Ave",
        "city": "Burnaby",
        "services": []
      }
    },
    {
      "type": "Feature",
      "geometry": {
        "type": "Point",
        "coordinates": [
          "-122.96487",
          "49.213859"
        ]
      },
      "properties": {
        "id": "1430",
        "name": "Foccus Kids Family Child Care",
        "address": "47-6670 Rumble St",
        "city": "Burnaby",
        "services": []
      }
    },
    {
      "type": "Feature",
      "geometry": {
        "type": "Point",
        "coordinates": [
          "-123.0026",
          "49.217879"
        ]
      },
      "properties": {
        "id": "1433",
        "name": "Metrotown Daycare",
        "address": "7250 Dow Ave",
        "city": "Burnaby",
        "services": []
      }
    },
    {
      "type": "Feature",
      "geometry": {
        "type": "Point",
        "coordinates": [
          "-122.985258",
          "49.228755"
        ]
      },
      "properties": {
        "id": "1439",
        "name": "A & B Daycare",
        "address": "6092 Selma Ave",
        "city": "Burnaby",
        "services": []
      }
    },
    {
      "type": "Feature",
      "geometry": {
        "type": "Point",
        "coordinates": [
          "-122.93344",
          "49.223231"
        ]
      },
      "properties": {
        "id": "1450",
        "name": "Organic Early Learning",
        "address": "7535 Sixth St",
        "city": "Burnaby",
        "services": []
      }
    },
    {
      "type": "Feature",
      "geometry": {
        "type": "Point",
        "coordinates": [
          "-122.908553",
          "49.24425"
        ]
      },
      "properties": {
        "id": "1456",
        "name": "Propel Montessori Daycare",
        "address": "7200 Cariboo Rd",
        "city": "Burnaby",
        "services": []
      }
    },
    {
      "type": "Feature",
      "geometry": {
        "type": "Point",
        "coordinates": [
          "-122.98952",
          "49.25217"
        ]
      },
      "properties": {
        "id": "1516",
        "name": "Kidz Adventure Learning Centre",
        "address": "5165 Hardwick St",
        "city": "Burnaby",
        "services": []
      }
    },
    {
      "type": "Feature",
      "geometry": {
        "type": "Point",
        "coordinates": [
          "-123.015454",
          "49.21456"
        ]
      },
      "properties": {
        "id": "1564",
        "name": "Eminent Stars Daycare Ltd",
        "address": "3986 Rumble St",
        "city": "Burnaby",
        "services": []
      }
    },
    {
      "type": "Feature",
      "geometry": {
        "type": "Point",
        "coordinates": [
          "-122.983393",
          "49.214569"
        ]
      },
      "properties": {
        "id": "1571",
        "name": "Angels Playhouse Infant And Toddler Childcare Centre(Rumble)",
        "address": "5588 Rumble St",
        "city": "Burnaby",
        "services": []
      }
    },
    {
      "type": "Feature",
      "geometry": {
        "type": "Point",
        "coordinates": [
          "-123.001184",
          "49.232569"
        ]
      },
      "properties": {
        "id": "1587",
        "name": "Busy Bee Montessori Children's House",
        "address": "5749 Elsom Ave",
        "city": "Burnaby",
        "services": []
      }
    },
    {
      "type": "Feature",
      "geometry": {
        "type": "Point",
        "coordinates": [
          "-122.982886",
          "49.227653"
        ]
      },
      "properties": {
        "id": "1624",
        "name": "Boo Boo Daycare",
        "address": "6209 Elgin Ave",
        "city": "Burnaby",
        "services": []
      }
    },
    {
      "type": "Feature",
      "geometry": {
        "type": "Point",
        "coordinates": [
          "-122.935334",
          "49.22615"
        ]
      },
      "properties": {
        "id": "1637",
        "name": "Little Dino Childcare Centre",
        "address": "7929 19Th Ave",
        "city": "Burnaby",
        "services": []
      }
    },
    {
      "type": "Feature",
      "geometry": {
        "type": "Point",
        "coordinates": [
          "-122.961408",
          "49.279361"
        ]
      },
      "properties": {
        "id": "1674",
        "name": "Puddle Splashers Childcare Society",
        "address": "510 Duncan Ave",
        "city": "Burnaby",
        "services": []
      }
    },
    {
      "type": "Feature",
      "geometry": {
        "type": "Point",
        "coordinates": [
          "-122.954049",
          "49.230914"
        ]
      },
      "properties": {
        "id": "1678",
        "name": "2Nd Home Bilingual Child Care Center",
        "address": "6262 Buckingham Dr",
        "city": "Burnaby",
        "services": []
      }
    },
    {
      "type": "Feature",
      "geometry": {
        "type": "Point",
        "coordinates": [
          "-122.946886",
          "49.220631"
        ]
      },
      "properties": {
        "id": "1679",
        "name": "Angel Wings Daycare Center",
        "address": "7444 Edmonds St",
        "city": "Burnaby",
        "services": []
      }
    },
    {
      "type": "Feature",
      "geometry": {
        "type": "Point",
        "coordinates": [
          "-123.011833",
          "49.276797"
        ]
      },
      "properties": {
        "id": "1682",
        "name": "Little Shakespeare Child Care Ltd.",
        "address": "4181 Venables St",
        "city": "Burnaby",
        "services": []
      }
    },
    {
      "type": "Feature",
      "geometry": {
        "type": "Point",
        "coordinates": [
          "-122.905383",
          "49.230986"
        ]
      },
      "properties": {
        "id": "1689",
        "name": "Language Arts Early Learning",
        "address": "8695 10Th Ave",
        "city": "Burnaby",
        "services": []
      }
    },
    {
      "type": "Feature",
      "geometry": {
        "type": "Point",
        "coordinates": [
          "-122.980228",
          "49.282516"
        ]
      },
      "properties": {
        "id": "1734",
        "name": "Capitol Hill Children's Centre",
        "address": "5750 Pandora St",
        "city": "Burnaby",
        "services": []
      }
    },
    {
      "type": "Feature",
      "geometry": {
        "type": "Point",
        "coordinates": [
          "-123.016006",
          "49.281353"
        ]
      },
      "properties": {
        "id": "1752",
        "name": "P-Wee Early Learning Centre",
        "address": "4001 Hastings St",
        "city": "Burnaby",
        "services": []
      }
    },
    {
      "type": "Feature",
      "geometry": {
        "type": "Point",
        "coordinates": [
          "-122.999489",
          "49.279823"
        ]
      },
      "properties": {
        "id": "1760",
        "name": "Kids Fun Castle",
        "address": "4620 Pender St",
        "city": "Burnaby",
        "services": [
          0,
          1
        ]
      }
    },
    {
      "type": "Feature",
      "geometry": {
        "type": "Point",
        "coordinates": [
          "-123.022777",
          "49.279072"
        ]
      },
      "properties": {
        "id": "1785",
        "name": "Children's Reef Learning Center Ltd.",
        "address": "3722 Frances St",
        "city": "Burnaby",
        "services": [
          0
        ]
      }
    },
    {
      "type": "Feature",
      "geometry": {
        "type": "Point",
        "coordinates": [
          "-122.917995",
          "49.231529"
        ]
      },
      "properties": {
        "id": "1846",
        "name": "Starlight Child Care Centre",
        "address": "8486 16Th Ave",
        "city": "Burnaby",
        "services": []
      }
    },
    {
      "type": "Feature",
      "geometry": {
        "type": "Point",
        "coordinates": [
          "-122.940792",
          "49.230611"
        ]
      },
      "properties": {
        "id": "1885",
        "name": "Baby Home Child Care Centre",
        "address": "7931 Goodlad St",
        "city": "Burnaby",
        "services": []
      }
    },
    {
      "type": "Feature",
      "geometry": {
        "type": "Point",
        "coordinates": [
          "-122.974494",
          "49.266487"
        ]
      },
      "properties": {
        "id": "1897",
        "name": "Kidz Adventure Learning Centre (Parkcrest)",
        "address": "6138 Parkcrest Dr",
        "city": "Burnaby",
        "services": []
      }
    },
    {
      "type": "Feature",
      "geometry": {
        "type": "Point",
        "coordinates": [
          "-122.968226",
          "49.2228"
        ]
      },
      "properties": {
        "id": "1908",
        "name": "Gummy Bears Child Care",
        "address": "6719 Brantford Ave",
        "city": "Burnaby",
        "services": []
      }
    },
    {
      "type": "Feature",
      "geometry": {
        "type": "Point",
        "coordinates": [
          "-122.960214",
          "49.222728"
        ]
      },
      "properties": {
        "id": "1914",
        "name": "Abc Childcare",
        "address": "6938 Halligan St",
        "city": "Burnaby",
        "services": []
      }
    },
    {
      "type": "Feature",
      "geometry": {
        "type": "Point",
        "coordinates": [
          "-122.928292",
          "49.219555"
        ]
      },
      "properties": {
        "id": "1920",
        "name": "Honey Bees Studio Daycare",
        "address": "7854 6Th St",
        "city": "Burnaby",
        "services": []
      }
    },
    {
      "type": "Feature",
      "geometry": {
        "type": "Point",
        "coordinates": [
          "-122.955368",
          "49.27548"
        ]
      },
      "properties": {
        "id": "1932",
        "name": "Lil Prodigies Centre",
        "address": "7123 Curtis St",
        "city": "Burnaby",
        "services": []
      }
    },
    {
      "type": "Feature",
      "geometry": {
        "type": "Point",
        "coordinates": [
          "-123.005925",
          "49.225253"
        ]
      },
      "properties": {
        "id": "1959",
        "name": "Wonderworld Montessori Academy-Metrotown",
        "address": "6390 Silver Ave",
        "city": "Burnaby",
        "services": []
      }
    },
    {
      "type": "Feature",
      "geometry": {
        "type": "Point",
        "coordinates": [
          "-122.97793",
          "49.211416"
        ]
      },
      "properties": {
        "id": "1970",
        "name": "Momentos De Ninos Childcare Ltd",
        "address": "5875 mckee St",
        "city": "Burnaby",
        "services": [
          0
        ]
      }
    },
    {
      "type": "Feature",
      "geometry": {
        "type": "Point",
        "coordinates": [
          "-122.9897",
          "49.227953"
        ]
      },
      "properties": {
        "id": "1996",
        "name": "Marlbrough Neighbourhood Care",
        "address": "5151 Sanders St",
        "city": "Burnaby",
        "services": []
      }
    },
    {
      "type": "Feature",
      "geometry": {
        "type": "Point",
        "coordinates": [
          "-122.932664",
          "49.219182"
        ]
      },
      "properties": {
        "id": "1998",
        "name": "Little Wonderland Childcare",
        "address": "7767 12Th Ave",
        "city": "Burnaby",
        "services": [
          0
        ]
      }
    },
    {
      "type": "Feature",
      "geometry": {
        "type": "Point",
        "coordinates": [
          "-122.976285",
          "49.198036"
        ]
      },
      "properties": {
        "id": "2039",
        "name": "Polka Dot Fine Art & Education",
        "address": "300-5761 Marine Way",
        "city": "Burnaby",
        "services": []
      }
    },
    {
      "type": "Feature",
      "geometry": {
        "type": "Point",
        "coordinates": [
          "-123.008023",
          "49.275358"
        ]
      },
      "properties": {
        "id": "2076",
        "name": "Captain Alpha Childcare",
        "address": "4304 Parker St",
        "city": "Burnaby",
        "services": []
      }
    },
    {
      "type": "Feature",
      "geometry": {
        "type": "Point",
        "coordinates": [
          "-123.021486",
          "49.279063"
        ]
      },
      "properties": {
        "id": "2090",
        "name": "Mulberry Tree Infant And Toddler Childcare",
        "address": "3784 Frances St",
        "city": "Burnaby",
        "services": []
      }
    },
    {
      "type": "Feature",
      "geometry": {
        "type": "Point",
        "coordinates": [
          "-123.005438",
          "49.236227"
        ]
      },
      "properties": {
        "id": "2122",
        "name": "Play And Learn Childcare Centre",
        "address": "4425 Saratoga Ct",
        "city": "Burnaby",
        "services": []
      }
    },
    {
      "type": "Feature",
      "geometry": {
        "type": "Point",
        "coordinates": [
          "-122.962857",
          "49.221352"
        ]
      },
      "properties": {
        "id": "2129",
        "name": "A + Child Care Centre",
        "address": "6793 Elwell St",
        "city": "Burnaby",
        "services": [
          0,
          1
        ]
      }
    },
    {
      "type": "Feature",
      "geometry": {
        "type": "Point",
        "coordinates": [
          "-122.972741",
          "49.263655"
        ]
      },
      "properties": {
        "id": "2139",
        "name": "Happyland Infant And Toddler Daycare",
        "address": "6295 Broadway",
        "city": "Burnaby",
        "services": []
      }
    },
    {
      "type": "Feature",
      "geometry": {
        "type": "Point",
        "coordinates": [
          "-122.978372",
          "49.224671"
        ]
      },
      "properties": {
        "id": "2148",
        "name": "Hula Bears Child Care",
        "address": "5858 Bryant St",
        "city": "Burnaby",
        "services": []
      }
    },
    {
      "type": "Feature",
      "geometry": {
        "type": "Point",
        "coordinates": [
          "-123.000432",
          "49.238899"
        ]
      },
      "properties": {
        "id": "2191",
        "name": "A & B Learning Daycare",
        "address": "4605 Grassmere St",
        "city": "Burnaby",
        "services": []
      }
    },
    {
      "type": "Feature",
      "geometry": {
        "type": "Point",
        "coordinates": [
          "-122.986574",
          "49.250574"
        ]
      },
      "properties": {
        "id": "2197",
        "name": "Little Eagles Childcare - Centre For Excellence",
        "address": "3755 Banff Ave",
        "city": "Burnaby",
        "services": []
      }
    },
    {
      "type": "Feature",
      "geometry": {
        "type": "Point",
        "coordinates": [
          "-122.989822",
          "49.229297"
        ]
      },
      "properties": {
        "id": "2230",
        "name": "Marlborough Early Years Care",
        "address": "6051 Royal Oak Ave",
        "city": "Burnaby",
        "services": []
      }
    },
    {
      "type": "Feature",
      "geometry": {
        "type": "Point",
        "coordinates": [
          "-122.984373",
          "49.223601"
        ]
      },
      "properties": {
        "id": "2275",
        "name": "Burnaby Montessori School Ltd",
        "address": "5489 Kingsway",
        "city": "Burnaby",
        "services": []
      }
    },
    {
      "type": "Feature",
      "geometry": {
        "type": "Point",
        "coordinates": [
          "-122.940998",
          "49.260615"
        ]
      },
      "properties": {
        "id": "2276",
        "name": "Little Stars Daycare Centre",
        "address": "7760 Lawrence Dr",
        "city": "Burnaby",
        "services": []
      }
    },
    {
      "type": "Feature",
      "geometry": {
        "type": "Point",
        "coordinates": [
          "-122.99912",
          "49.214161"
        ]
      },
      "properties": {
        "id": "2293",
        "name": "South Slope Day Care",
        "address": "4625 Neville St",
        "city": "Burnaby",
        "services": []
      }
    },
    {
      "type": "Feature",
      "geometry": {
        "type": "Point",
        "coordinates": [
          "-123.021607",
          "49.236738"
        ]
      },
      "properties": {
        "id": "2299",
        "name": "Creative Tots Montessori & Daycare",
        "address": "3756 Burke St",
        "city": "Burnaby",
        "services": []
      }
    },
    {
      "type": "Feature",
      "geometry": {
        "type": "Point",
        "coordinates": [
          "-122.964359",
          "49.221475"
        ]
      },
      "properties": {
        "id": "2332",
        "name": "Angels Playhouse Daycare Society (Sperling Ave)",
        "address": "6850 Sperling Ave",
        "city": "Burnaby",
        "services": []
      }
    },
    {
      "type": "Feature",
      "geometry": {
        "type": "Point",
        "coordinates": [
          "-122.98728",
          "49.214824"
        ]
      },
      "properties": {
        "id": "2335",
        "name": "Bright Beginnings Fine Arts Preschool Ltd",
        "address": "201-5262 Rumble St",
        "city": "Burnaby",
        "services": [
          2
        ]
      }
    },
    {
      "type": "Feature",
      "geometry": {
        "type": "Point",
        "coordinates": [
          "-122.955947",
          "49.279226"
        ]
      },
      "properties": {
        "id": "2341",
        "name": "Chris' Home Daycare",
        "address": "7110 Maureen Cres",
        "city": "Burnaby",
        "services": [
          1
        ]
      }
    },
    {
      "type": "Feature",
      "geometry": {
        "type": "Point",
        "coordinates": [
          "-122.961196",
          "49.228485"
        ]
      },
      "properties": {
        "id": "2361",
        "name": "Kiddie Club Infant Toddler Childcare",
        "address": "6177 Leibly Ave",
        "city": "Burnaby",
        "services": []
      }
    },
    {
      "type": "Feature",
      "geometry": {
        "type": "Point",
        "coordinates": [
          "-122.927887",
          "49.228739"
        ]
      },
      "properties": {
        "id": "2401",
        "name": "Pretty Angels Daycare",
        "address": "8148 18Th Ave",
        "city": "Burnaby",
        "services": []
      }
    },
    {
      "type": "Feature",
      "geometry": {
        "type": "Point",
        "coordinates": [
          "-122.988507",
          "49.22672"
        ]
      },
      "properties": {
        "id": "2402",
        "name": "Ic Early Learning Center",
        "address": "6336 Royal Oak Ave",
        "city": "Burnaby",
        "services": []
      }
    },
    {
      "type": "Feature",
      "geometry": {
        "type": "Point",
        "coordinates": [
          "-122.941511",
          "49.250333"
        ]
      },
      "properties": {
        "id": "2467",
        "name": "Amazing Kidz Childcare",
        "address": "3780 Lozells Ave",
        "city": "Burnaby",
        "services": []
      }
    },
    {
      "type": "Feature",
      "geometry": {
        "type": "Point",
        "coordinates": [
          "-122.992918",
          "49.280271"
        ]
      },
      "properties": {
        "id": "2472",
        "name": "Early Steps",
        "address": "4890 Hastings St",
        "city": "Burnaby",
        "services": []
      }
    },
    {
      "type": "Feature",
      "geometry": {
        "type": "Point",
        "coordinates": [
          "-122.92672",
          "49.250102"
        ]
      },
      "properties": {
        "id": "2476",
        "name": "Galaxy Daycare Centre Ltd",
        "address": "8187 Woodlake Crt",
        "city": "Burnaby",
        "services": []
      }
    },
    {
      "type": "Feature",
      "geometry": {
        "type": "Point",
        "coordinates": [
          "-122.963483",
          "49.216604"
        ]
      },
      "properties": {
        "id": "2508",
        "name": "Nubo Kids Center",
        "address": "101-7312 Magnolia Terr",
        "city": "Burnaby",
        "services": [
          0,
          1
        ]
      }
    },
    {
      "type": "Feature",
      "geometry": {
        "type": "Point",
        "coordinates": [
          "-122.940799",
          "49.221341"
        ]
      },
      "properties": {
        "id": "2551",
        "name": "Happy Smile Childcare Centre",
        "address": "7615 17Th Ave",
        "city": "Burnaby",
        "services": []
      }
    },
    {
      "type": "Feature",
      "geometry": {
        "type": "Point",
        "coordinates": [
          "-123.005458",
          "49.221021"
        ]
      },
      "properties": {
        "id": "2559",
        "name": "Tree House Infant And Toddler Daycare",
        "address": "6897 Sussex Ave",
        "city": "Burnaby",
        "services": []
      }
    },
    {
      "type": "Feature",
      "geometry": {
        "type": "Point",
        "coordinates": [
          "-122.949557",
          "49.217571"
        ]
      },
      "properties": {
        "id": "2568",
        "name": "Open Mind Childcare",
        "address": "7296 18Th Ave",
        "city": "Burnaby",
        "services": [
          0,
          1
        ]
      }
    },
    {
      "type": "Feature",
      "geometry": {
        "type": "Point",
        "coordinates": [
          "-122.977075",
          "49.210437"
        ]
      },
      "properties": {
        "id": "2573",
        "name": "Wonderful Childcare Centre",
        "address": "8080 Buller Ave",
        "city": "Burnaby",
        "services": [
          0,
          1
        ]
      }
    },
    {
      "type": "Feature",
      "geometry": {
        "type": "Point",
        "coordinates": [
          "-122.970411",
          "49.223817"
        ]
      },
      "properties": {
        "id": "2577",
        "name": "A & B Childcare Centre",
        "address": "6620 Colborne Ave",
        "city": "Burnaby",
        "services": []
      }
    },
    {
      "type": "Feature",
      "geometry": {
        "type": "Point",
        "coordinates": [
          "-123.011668",
          "49.278089"
        ]
      },
      "properties": {
        "id": "2590",
        "name": "Little Montessorians",
        "address": "719 Carleton Ave",
        "city": "Burnaby",
        "services": []
      }
    },
    {
      "type": "Feature",
      "geometry": {
        "type": "Point",
        "coordinates": [
          "-122.908357",
          "49.232974"
        ]
      },
      "properties": {
        "id": "2624",
        "name": "Armstrong Daycare",
        "address": "8688 Armstrong Ave",
        "city": "Burnaby",
        "services": [
          0,
          1,
          3,
          4
        ]
      }
    },
    {
      "type": "Feature",
      "geometry": {
        "type": "Point",
        "coordinates": [
          "-122.99861",
          "49.21548"
        ]
      },
      "properties": {
        "id": "2640",
        "name": "E2 Childcare",
        "address": "4642 Irmin St",
        "city": "Burnaby",
        "services": []
      }
    },
    {
      "type": "Feature",
      "geometry": {
        "type": "Point",
        "coordinates": [
          "-122.960791",
          "49.262976"
        ]
      },
      "properties": {
        "id": "2646",
        "name": "Hycrest Kids Childcare",
        "address": "6905 Hycrest Dr",
        "city": "Burnaby",
        "services": [
          0,
          1
        ]
      }
    },
    {
      "type": "Feature",
      "geometry": {
        "type": "Point",
        "coordinates": [
          "-122.942948",
          "49.252284"
        ]
      },
      "properties": {
        "id": "2657",
        "name": "Bear Cubs Childcare",
        "address": "3530 Colter Crt",
        "city": "Burnaby",
        "services": []
      }
    },
    {
      "type": "Feature",
      "geometry": {
        "type": "Point",
        "coordinates": [
          "-122.951017",
          "49.258259"
        ]
      },
      "properties": {
        "id": "2663",
        "name": "Little Butterfly Montessori Childcare",
        "address": "2863 Southcrest Dr",
        "city": "Burnaby",
        "services": [
          0,
          1
        ]
      }
    },
    {
      "type": "Feature",
      "geometry": {
        "type": "Point",
        "coordinates": [
          "-122.964386",
          "49.220008"
        ]
      },
      "properties": {
        "id": "2671",
        "name": "Burnaby Lakeview Daycare",
        "address": "7020 Sperling Ave",
        "city": "Burnaby",
        "services": []
      }
    },
    {
      "type": "Feature",
      "geometry": {
        "type": "Point",
        "coordinates": [
          "-122.997524",
          "49.271544"
        ]
      },
      "properties": {
        "id": "2689",
        "name": "Kids View Studio",
        "address": "4610 Northlawn Dr",
        "city": "Burnaby",
        "services": []
      }
    },
    {
      "type": "Feature",
      "geometry": {
        "type": "Point",
        "coordinates": [
          "-122.979782",
          "49.268617"
        ]
      },
      "properties": {
        "id": "2701",
        "name": "Angels Playhouse Daycare Society (Sherban Ct)",
        "address": "5798 Sherban Crt",
        "city": "Burnaby",
        "services": []
      }
    },
    {
      "type": "Feature",
      "geometry": {
        "type": "Point",
        "coordinates": [
          "-122.99809",
          "49.281261"
        ]
      },
      "properties": {
        "id": "2703",
        "name": "Crescendo Childcare Centre",
        "address": "4663 Hastings St",
        "city": "Burnaby",
        "services": []
      }
    },
    {
      "type": "Feature",
      "geometry": {
        "type": "Point",
        "coordinates": [
          "-122.926209",
          "49.231683"
        ]
      },
      "properties": {
        "id": "2717",
        "name": "Miss Jenny's",
        "address": "7275 Newcombe St",
        "city": "Burnaby",
        "services": []
      }
    },
    {
      "type": "Feature",
      "geometry": {
        "type": "Point",
        "coordinates": [
          "-122.997349",
          "49.233696"
        ]
      },
      "properties": {
        "id": "2722",
        "name": "Ic Early Learning Center (Metrotown)",
        "address": "4721 Sardis St",
        "city": "Burnaby",
        "services": []
      }
    },
    {
      "type": "Feature",
      "geometry": {
        "type": "Point",
        "coordinates": [
          "-122.952432",
          "49.211521"
        ]
      },
      "properties": {
        "id": "2726",
        "name": "Stride Early Years Care",
        "address": "7051 14Th Ave",
        "city": "Burnaby",
        "services": []
      }
    },
    {
      "type": "Feature",
      "geometry": {
        "type": "Point",
        "coordinates": [
          null,
          null
        ]
      },
      "properties": {
        "id": "2790",
        "name": "Raja Montessori Academy Ltd.",
        "address": null,
        "city": null,
        "services": []
      }
    },
    {
      "type": "Feature",
      "geometry": {
        "type": "Point",
        "coordinates": [
          "-122.98787",
          "49.215378"
        ]
      },
      "properties": {
        "id": "2802",
        "name": "Inspirations Montessori School - Irmin",
        "address": "5232 Irmin St",
        "city": "Burnaby",
        "services": []
      }
    },
    {
      "type": "Feature",
      "geometry": {
        "type": "Point",
        "coordinates": [
          "-122.949989",
          "49.270977"
        ]
      },
      "properties": {
        "id": "2868",
        "name": "Mom's Pride Childcare Centre",
        "address": "7328 Dunvegan Crt",
        "city": "Burnaby",
        "services": []
      }
    },
    {
      "type": "Feature",
      "geometry": {
        "type": "Point",
        "coordinates": [
          "-123.018332",
          "49.220387"
        ]
      },
      "properties": {
        "id": "2894",
        "name": "Sakura Childcare The Annex",
        "address": "3893 Hurst St",
        "city": "Burnaby",
        "services": []
      }
    },
    {
      "type": "Feature",
      "geometry": {
        "type": "Point",
        "coordinates": [
          "-122.943895",
          "49.259815"
        ]
      },
      "properties": {
        "id": "2895",
        "name": "Baby Club Childcare",
        "address": "7538 Tyndale Cres",
        "city": "Burnaby",
        "services": []
      }
    },
    {
      "type": "Feature",
      "geometry": {
        "type": "Point",
        "coordinates": [
          "-123.016693",
          "49.253799"
        ]
      },
      "properties": {
        "id": "2920",
        "name": "Alysh Daycare Centre",
        "address": "3964 Creekside Pl",
        "city": "Burnaby",
        "services": [
          0,
          1
        ]
      }
    },
    {
      "type": "Feature",
      "geometry": {
        "type": "Point",
        "coordinates": [
          "-122.990324",
          "49.27047"
        ]
      },
      "properties": {
        "id": "2921",
        "name": "Opus Daycare - Brentwood",
        "address": "1562 Taralawn Crt",
        "city": "Burnaby",
        "services": []
      }
    },
    {
      "type": "Feature",
      "geometry": {
        "type": "Point",
        "coordinates": [
          "-122.996574",
          "49.208333"
        ]
      },
      "properties": {
        "id": "2922",
        "name": "Opus Daycare - Nelson",
        "address": "8358 Nelson Ave",
        "city": "Burnaby",
        "services": []
      }
    },
    {
      "type": "Feature",
      "geometry": {
        "type": "Point",
        "coordinates": [
          "-122.972823",
          "49.27734"
        ]
      },
      "properties": {
        "id": "2943",
        "name": "Puddle Splashers Childcare Society",
        "address": "751 Hammarskjold Dr",
        "city": "Burnaby",
        "services": []
      }
    },
    {
      "type": "Feature",
      "geometry": {
        "type": "Point",
        "coordinates": [
          "-122.994632",
          "49.23008"
        ]
      },
      "properties": {
        "id": "2954",
        "name": "Ic Early Learning Center (Nelson)",
        "address": "5989 Nelson Ave",
        "city": "Burnaby",
        "services": []
      }
    },
    {
      "type": "Feature",
      "geometry": {
        "type": "Point",
        "coordinates": [
          "-122.985255",
          "49.225846"
        ]
      },
      "properties": {
        "id": "2980",
        "name": "Gym Bears Child Care",
        "address": "6428 Selma Ave",
        "city": "Burnaby",
        "services": []
      }
    },
    {
      "type": "Feature",
      "geometry": {
        "type": "Point",
        "coordinates": [
          "-122.945621",
          "49.21628"
        ]
      },
      "properties": {
        "id": "3004",
        "name": "Baby Smile Childcare",
        "address": "7348 Stride Ave",
        "city": "Burnaby",
        "services": []
      }
    },
    {
      "type": "Feature",
      "geometry": {
        "type": "Point",
        "coordinates": [
          "-122.941104",
          "49.2138"
        ]
      },
      "properties": {
        "id": "3018",
        "name": "Little Seedlings Daycare Centre",
        "address": "7352 12Th Ave",
        "city": "Burnaby",
        "services": []
      }
    },
    {
      "type": "Feature",
      "geometry": {
        "type": "Point",
        "coordinates": [
          "-123.000462",
          "49.269878"
        ]
      },
      "properties": {
        "id": "3021",
        "name": "Burnaby Lake Childcare",
        "address": "4578 Brentlawn Dr",
        "city": "Burnaby",
        "services": []
      }
    },
    {
      "type": "Feature",
      "geometry": {
        "type": "Point",
        "coordinates": [
          "-122.998559",
          "49.236441"
        ]
      },
      "properties": {
        "id": "3029",
        "name": "Fabulous Kidz Childcare",
        "address": "4677 Northview Crt",
        "city": "Burnaby",
        "services": []
      }
    },
    {
      "type": "Feature",
      "geometry": {
        "type": "Point",
        "coordinates": [
          "-122.972306",
          "49.270957"
        ]
      },
      "properties": {
        "id": "3036",
        "name": "Happy Owls Childcare",
        "address": "6355 Grant St",
        "city": "Burnaby",
        "services": []
      }
    },
    {
      "type": "Feature",
      "geometry": {
        "type": "Point",
        "coordinates": [
          "-122.984882",
          "49.245537"
        ]
      },
      "properties": {
        "id": "3037",
        "name": "Baby Beluga Early Learning & Play House",
        "address": "5450 Moreland Dr",
        "city": "Burnaby",
        "services": [
          0
        ]
      }
    },
    {
      "type": "Feature",
      "geometry": {
        "type": "Point",
        "coordinates": [
          "-122.921903",
          "49.224974"
        ]
      },
      "properties": {
        "id": "3042",
        "name": "Adventure House Early Learning Childcare",
        "address": "8187 12Th Ave",
        "city": "Burnaby",
        "services": [
          0,
          1
        ]
      }
    },
    {
      "type": "Feature",
      "geometry": {
        "type": "Point",
        "coordinates": [
          "-122.935563",
          "49.228922"
        ]
      },
      "properties": {
        "id": "3051",
        "name": "Bear House Daycare At Rosewood",
        "address": "7978 Rosewood St",
        "city": "Burnaby",
        "services": [
          0,
          1,
          3,
          4
        ]
      }
    },
    {
      "type": "Feature",
      "geometry": {
        "type": "Point",
        "coordinates": [
          "-122.987161",
          "49.212764"
        ]
      },
      "properties": {
        "id": "3053",
        "name": "Angels Playhouse Daycare Society (Clinton St)",
        "address": "5288 Clinton St",
        "city": "Burnaby",
        "services": []
      }
    },
    {
      "type": "Feature",
      "geometry": {
        "type": "Point",
        "coordinates": [
          "-122.986931",
          "49.226892"
        ]
      },
      "properties": {
        "id": "3062",
        "name": "Pearl Childcare",
        "address": "6312 Pearl Ave",
        "city": "Burnaby",
        "services": []
      }
    },
    {
      "type": "Feature",
      "geometry": {
        "type": "Point",
        "coordinates": [
          "-122.967774",
          "49.251363"
        ]
      },
      "properties": {
        "id": "3146",
        "name": "Christine Sinclair Child Care Centre",
        "address": "3713 Kensington Ave",
        "city": "Burnaby",
        "services": [
          1
        ]
      }
    },
    {
      "type": "Feature",
      "geometry": {
        "type": "Point",
        "coordinates": [
          "-122.947456",
          "49.223025"
        ]
      },
      "properties": {
        "id": "3173",
        "name": "Apple Island Childcare",
        "address": "7487 Holly St",
        "city": "Burnaby",
        "services": [
          0,
          1,
          3,
          4
        ]
      }
    },
    {
      "type": "Feature",
      "geometry": {
        "type": "Point",
        "coordinates": [
          "-122.972614",
          "49.210654"
        ]
      },
      "properties": {
        "id": "3192",
        "name": "Little Sparrows Academy Corporation",
        "address": "8049 Gilley Ave",
        "city": "Burnaby",
        "services": [
          0
        ]
      }
    },
    {
      "type": "Feature",
      "geometry": {
        "type": "Point",
        "coordinates": [
          "-122.966773",
          "49.278864"
        ]
      },
      "properties": {
        "id": "3217",
        "name": "A Miracle Childcare",
        "address": "6655 Georgia St",
        "city": "Burnaby",
        "services": [
          0
        ]
      }
    },
    {
      "type": "Feature",
      "geometry": {
        "type": "Point",
        "coordinates": [
          "-122.948565",
          "49.230786"
        ]
      },
      "properties": {
        "id": "3250",
        "name": "Ic Early Learning Center (Morley)",
        "address": "7726 Morley St",
        "city": "Burnaby",
        "services": []
      }
    },
    {
      "type": "Feature",
      "geometry": {
        "type": "Point",
        "coordinates": [
          "-122.98338",
          "49.21074"
        ]
      },
      "properties": {
        "id": "3270",
        "name": "Hummingbird Learning House",
        "address": "8049 Macpherson Ave",
        "city": "Burnaby",
        "services": [
          0,
          1
        ]
      }
    },
    {
      "type": "Feature",
      "geometry": {
        "type": "Point",
        "coordinates": [
          "-123.019081",
          "49.249642"
        ]
      },
      "properties": {
        "id": "3280",
        "name": "Abc Academy - Children's Learning Center Ltd - Burnaby",
        "address": "3830 Sunset St",
        "city": "Burnaby",
        "services": []
      }
    },
    {
      "type": "Feature",
      "geometry": {
        "type": "Point",
        "coordinates": [
          "-122.99851",
          "49.213621"
        ]
      },
      "properties": {
        "id": "3324",
        "name": "Little Charm Daycare",
        "address": "4650 Neville St",
        "city": "Burnaby",
        "services": []
      }
    },
    {
      "type": "Feature",
      "geometry": {
        "type": "Point",
        "coordinates": [
          "-122.930323",
          "49.225539"
        ]
      },
      "properties": {
        "id": "3366",
        "name": "Lulu Berry And Lime Daycare",
        "address": "8013 16Th Ave",
        "city": "Burnaby",
        "services": [
          0,
          1
        ]
      }
    },
    {
      "type": "Feature",
      "geometry": {
        "type": "Point",
        "coordinates": [
          "-122.930496",
          "49.253858"
        ]
      },
      "properties": {
        "id": "3393",
        "name": "Summer Joy Child-Care",
        "address": "3322 Lealand Crt",
        "city": "Burnaby",
        "services": [
          0,
          1
        ]
      }
    },
    {
      "type": "Feature",
      "geometry": {
        "type": "Point",
        "coordinates": [
          "-123.013413",
          "49.212576"
        ]
      },
      "properties": {
        "id": "3419",
        "name": "A1 Suncrest Daycare",
        "address": "7907 Suncrest Dr",
        "city": "Burnaby",
        "services": [
          0
        ]
      }
    },
    {
      "type": "Feature",
      "geometry": {
        "type": "Point",
        "coordinates": [
          "-123.001833",
          "49.215516"
        ]
      },
      "properties": {
        "id": "3449",
        "name": "Baby Angel Early Learning Inc",
        "address": "4536 Irmin St",
        "city": "Burnaby",
        "services": []
      }
    },
    {
      "type": "Feature",
      "geometry": {
        "type": "Point",
        "coordinates": [
          "-122.972741",
          "49.263655"
        ]
      },
      "properties": {
        "id": "3518",
        "name": "Happyland Infant And Toddler Daycare (Dundas)",
        "address": "6295 Broadway",
        "city": "Burnaby",
        "services": []
      }
    },
    {
      "type": "Feature",
      "geometry": {
        "type": "Point",
        "coordinates": [
          "-122.99022",
          "49.205372"
        ]
      },
      "properties": {
        "id": "3522",
        "name": "Marin Learning Center",
        "address": "5110 Marine Dr",
        "city": "Burnaby",
        "services": [
          1
        ]
      }
    },
    {
      "type": "Feature",
      "geometry": {
        "type": "Point",
        "coordinates": [
          "-122.933082",
          "49.217635"
        ]
      },
      "properties": {
        "id": "3540",
        "name": "Blessed Generations Academy - Canada Way Burnaby",
        "address": "7837 Canada Way",
        "city": "Burnaby",
        "services": []
      }
    },
    {
      "type": "Feature",
      "geometry": {
        "type": "Point",
        "coordinates": [
          "-122.951032",
          "49.219153"
        ]
      },
      "properties": {
        "id": "3552",
        "name": "Early Steps Highgate",
        "address": "7327 Edmonds St",
        "city": "Burnaby",
        "services": []
      }
    },
    {
      "type": "Feature",
      "geometry": {
        "type": "Point",
        "coordinates": [
          "-122.930375",
          "49.222045"
        ]
      },
      "properties": {
        "id": "3567",
        "name": "Happy Gogo Childcare Centre",
        "address": "7928 14Th Ave",
        "city": "Burnaby",
        "services": [
          0
        ]
      }
    },
    {
      "type": "Feature",
      "geometry": {
        "type": "Point",
        "coordinates": [
          "-122.956518",
          "49.229696"
        ]
      },
      "properties": {
        "id": "3572",
        "name": "Lullaby Child Care",
        "address": "6368 Buckingham Dr",
        "city": "Burnaby",
        "services": []
      }
    },
    {
      "type": "Feature",
      "geometry": {
        "type": "Point",
        "coordinates": [
          "-122.933831",
          "49.223548"
        ]
      },
      "properties": {
        "id": "3577",
        "name": "Organic Early Learning (Satellite)",
        "address": "7501 6Th St",
        "city": "Burnaby",
        "services": []
      }
    },
    {
      "type": "Feature",
      "geometry": {
        "type": "Point",
        "coordinates": [
          "-122.972002",
          "49.205096"
        ]
      },
      "properties": {
        "id": "3583",
        "name": "Pioneering Minds Childcare Ltd",
        "address": "6079 Marine Drive",
        "city": "Burnaby",
        "services": []
      }
    },
    {
      "type": "Feature",
      "geometry": {
        "type": "Point",
        "coordinates": [
          "-122.95137",
          "49.213794"
        ]
      },
      "properties": {
        "id": "3587",
        "name": "Little Oak Childcare Centre (Stride Burnaby)",
        "address": "7171 Stride Ave",
        "city": "Burnaby",
        "services": [
          0
        ]
      }
    },
    {
      "type": "Feature",
      "geometry": {
        "type": "Point",
        "coordinates": [
          "-123.008941",
          "49.276263"
        ]
      },
      "properties": {
        "id": "3598",
        "name": "Keekoz Daycare",
        "address": "4290 Venables St",
        "city": "Burnaby",
        "services": []
      }
    },
    {
      "type": "Feature",
      "geometry": {
        "type": "Point",
        "coordinates": [
          "-123.001017",
          "49.22683"
        ]
      },
      "properties": {
        "id": "3608",
        "name": "Jellybean Park Junior Campus",
        "address": "2110 4700 Kingsway",
        "city": "Burnaby",
        "services": []
      }
    },
    {
      "type": "Feature",
      "geometry": {
        "type": "Point",
        "coordinates": [
          "-122.959254",
          "49.209001"
        ]
      },
      "properties": {
        "id": "3610",
        "name": "Taylor Park Children's Centre (30 Months To School Age)",
        "address": "7500 Hanna Crt",
        "city": "Burnaby",
        "services": [
          0,
          1
        ]
      }
    },
    {
      "type": "Feature",
      "geometry": {
        "type": "Point",
        "coordinates": [
          "-122.981082",
          "49.241105"
        ]
      },
      "properties": {
        "id": "3655",
        "name": "Little Children Family Daycare",
        "address": "5655 Cedarwood St",
        "city": "Burnaby",
        "services": []
      }
    },
    {
      "type": "Feature",
      "geometry": {
        "type": "Point",
        "coordinates": [
          "-122.925824",
          "49.264737"
        ]
      },
      "properties": {
        "id": "3712",
        "name": "The Grove Out Of School Childcare Program",
        "address": "8525 Forest Grove Dr Rm 11 & 7",
        "city": "Burnaby",
        "services": [
          3,
          4
        ]
      }
    },
    {
      "type": "Feature",
      "geometry": {
        "type": "Point",
        "coordinates": [
          "-123.006843",
          "49.233973"
        ]
      },
      "properties": {
        "id": "3754",
        "name": "Seeds Family Day Care",
        "address": "4378 Sardis St",
        "city": "Burnaby",
        "services": []
      }
    },
    {
      "type": "Feature",
      "geometry": {
        "type": "Point",
        "coordinates": [
          "-122.976548",
          "49.267741"
        ]
      },
      "properties": {
        "id": "3765",
        "name": "Mrs Dolling's Family Daycare",
        "address": "6050 Halifax St",
        "city": "Burnaby",
        "services": []
      }
    },
    {
      "type": "Feature",
      "geometry": {
        "type": "Point",
        "coordinates": [
          "-122.895434",
          "49.259382"
        ]
      },
      "properties": {
        "id": "3770",
        "name": "Burquitlam Childcare",
        "address": "9847 Lyndhurst St",
        "city": "Burnaby",
        "services": []
      }
    },
    {
      "type": "Feature",
      "geometry": {
        "type": "Point",
        "coordinates": [
          "-123.002322",
          "49.271695"
        ]
      },
      "properties": {
        "id": "3779",
        "name": "Treasure Island Out Of School Care Ii",
        "address": "4550 Kitchener St",
        "city": "Burnaby",
        "services": []
      }
    },
    {
      "type": "Feature",
      "geometry": {
        "type": "Point",
        "coordinates": [
          "-122.981936",
          "49.248941"
        ]
      },
      "properties": {
        "id": "3796",
        "name": "Douglas Road Neighbourhood Care",
        "address": "4861 Canada Way",
        "city": "Burnaby",
        "services": []
      }
    },
    {
      "type": "Feature",
      "geometry": {
        "type": "Point",
        "coordinates": [
          "-123.003405",
          "49.216172"
        ]
      },
      "properties": {
        "id": "3806",
        "name": "South Slope Out Of School Care",
        "address": "4446 Watling St",
        "city": "Burnaby",
        "services": []
      }
    },
    {
      "type": "Feature",
      "geometry": {
        "type": "Point",
        "coordinates": [
          "-123.002436",
          "49.214565"
        ]
      },
      "properties": {
        "id": "3825",
        "name": "House Of Angels",
        "address": "7610 Dow Ave",
        "city": "Burnaby",
        "services": []
      }
    },
    {
      "type": "Feature",
      "geometry": {
        "type": "Point",
        "coordinates": [
          "-122.971155",
          "49.243949"
        ]
      },
      "properties": {
        "id": "3826",
        "name": "Core Education & Fine Arts",
        "address": "4970 Canada Way",
        "city": "Burnaby",
        "services": []
      }
    },
    {
      "type": "Feature",
      "geometry": {
        "type": "Point",
        "coordinates": [
          "-122.959838",
          "49.208646"
        ]
      },
      "properties": {
        "id": "3835",
        "name": "Hanna Court Children's Centre",
        "address": "7521 Hanna Crt",
        "city": "Burnaby",
        "services": [
          0,
          1
        ]
      }
    },
    {
      "type": "Feature",
      "geometry": {
        "type": "Point",
        "coordinates": [
          "-122.99817",
          "49.26862"
        ]
      },
      "properties": {
        "id": "3860",
        "name": "Kelli's Little Angels",
        "address": "4652 Brentlawn Dr",
        "city": "Burnaby",
        "services": []
      }
    },
    {
      "type": "Feature",
      "geometry": {
        "type": "Point",
        "coordinates": [
          "-122.999828",
          "49.215099"
        ]
      },
      "properties": {
        "id": "3874",
        "name": "Bright Star Montessori School Inc",
        "address": "7591 Gray Ave",
        "city": "Burnaby",
        "services": []
      }
    },
    {
      "type": "Feature",
      "geometry": {
        "type": "Point",
        "coordinates": [
          "-122.990156",
          "49.280704"
        ]
      },
      "properties": {
        "id": "3989",
        "name": "Yu's Montessori School In Burnaby",
        "address": "380 Hythe Ave S",
        "city": "Burnaby",
        "services": []
      }
    },
    {
      "type": "Feature",
      "geometry": {
        "type": "Point",
        "coordinates": [
          "-122.949072",
          "49.236829"
        ]
      },
      "properties": {
        "id": "3998",
        "name": "Apple Tree Family Daycare",
        "address": "7924 Nursery St",
        "city": "Burnaby",
        "services": []
      }
    },
    {
      "type": "Feature",
      "geometry": {
        "type": "Point",
        "coordinates": [
          "-122.981452",
          "49.253289"
        ]
      },
      "properties": {
        "id": "4016",
        "name": "Building Block Daycare",
        "address": "3430 Douglas Rd",
        "city": "Burnaby",
        "services": [
          0,
          1,
          3,
          4
        ]
      }
    },
    {
      "type": "Feature",
      "geometry": {
        "type": "Point",
        "coordinates": [
          "-122.979134",
          "49.212525"
        ]
      },
      "properties": {
        "id": "4018",
        "name": "Clinton Neighbourhood Care",
        "address": "5858 Clinton St",
        "city": "Burnaby",
        "services": []
      }
    },
    {
      "type": "Feature",
      "geometry": {
        "type": "Point",
        "coordinates": [
          "-123.018504",
          "49.249984"
        ]
      },
      "properties": {
        "id": "4070",
        "name": "Bee House Montessori Day Care Ii",
        "address": "3855 Sunset St",
        "city": "Burnaby",
        "services": []
      }
    },
    {
      "type": "Feature",
      "geometry": {
        "type": "Point",
        "coordinates": [
          "-122.893453",
          "49.259217"
        ]
      },
      "properties": {
        "id": "4079",
        "name": "North Rd Montessori Child Care",
        "address": "2781 North Rd",
        "city": "Burnaby",
        "services": [
          1
        ]
      }
    },
    {
      "type": "Feature",
      "geometry": {
        "type": "Point",
        "coordinates": [
          "-122.963602",
          "49.216811"
        ]
      },
      "properties": {
        "id": "4097",
        "name": "In-Joy Montessori Children's Centre",
        "address": "6808 Beresford St",
        "city": "Burnaby",
        "services": []
      }
    },
    {
      "type": "Feature",
      "geometry": {
        "type": "Point",
        "coordinates": [
          "-122.986404",
          "49.242192"
        ]
      },
      "properties": {
        "id": "4109",
        "name": "In-Joy Montessori Children's Center",
        "address": "5375 Gilpin St",
        "city": "Burnaby",
        "services": []
      }
    },
    {
      "type": "Feature",
      "geometry": {
        "type": "Point",
        "coordinates": [
          "-123.01538",
          "49.272919"
        ]
      },
      "properties": {
        "id": "4112",
        "name": "Kitchener School Age Care",
        "address": "1351 Gilmore Ave",
        "city": "Burnaby",
        "services": []
      }
    },
    {
      "type": "Feature",
      "geometry": {
        "type": "Point",
        "coordinates": [
          "-122.998133",
          "49.225518"
        ]
      },
      "properties": {
        "id": "4123",
        "name": "Jellybean Park International Campus",
        "address": "452 4800 Kingsway",
        "city": "Burnaby",
        "services": []
      }
    },
    {
      "type": "Feature",
      "geometry": {
        "type": "Point",
        "coordinates": [
          "-122.959592",
          "49.272902"
        ]
      },
      "properties": {
        "id": "4146",
        "name": "Lochdale Neighbourhood Care",
        "address": "6990 Aubrey St",
        "city": "Burnaby",
        "services": []
      }
    },
    {
      "type": "Feature",
      "geometry": {
        "type": "Point",
        "coordinates": [
          "-122.958645",
          "49.26968"
        ]
      },
      "properties": {
        "id": "4186",
        "name": "Summerhill Montessori Preschool And Kindergarten",
        "address": "1600 Cliff Ave",
        "city": "Burnaby",
        "services": [
          1,
          2
        ]
      }
    },
    {
      "type": "Feature",
      "geometry": {
        "type": "Point",
        "coordinates": [
          "-122.995345",
          "49.264457"
        ]
      },
      "properties": {
        "id": "4246",
        "name": "Yukon Crescent Children's Centre",
        "address": "2123 Yukon Cres",
        "city": "Burnaby",
        "services": []
      }
    },
    {
      "type": "Feature",
      "geometry": {
        "type": "Point",
        "coordinates": [
          "-122.971479",
          "49.273667"
        ]
      },
      "properties": {
        "id": "4254",
        "name": "Aubrey Daycare Centre",
        "address": "6409 Aubrey St",
        "city": "Burnaby",
        "services": []
      }
    },
    {
      "type": "Feature",
      "geometry": {
        "type": "Point",
        "coordinates": [
          "-123.006839",
          "49.283279"
        ]
      },
      "properties": {
        "id": "4263",
        "name": "Rosser Children's Centre",
        "address": "4375 Pandora St",
        "city": "Burnaby",
        "services": []
      }
    },
    {
      "type": "Feature",
      "geometry": {
        "type": "Point",
        "coordinates": [
          "-122.965008",
          "49.275809"
        ]
      },
      "properties": {
        "id": "4314",
        "name": "Aubrey Daycare Centre",
        "address": "947 Sperling Ave",
        "city": "Burnaby",
        "services": []
      }
    },
    {
      "type": "Feature",
      "geometry": {
        "type": "Point",
        "coordinates": [
          "-122.948394",
          "49.275463"
        ]
      },
      "properties": {
        "id": "4316",
        "name": "Rhema Childcare Centre Ltd.",
        "address": "7381 Curtis St",
        "city": "Burnaby",
        "services": []
      }
    },
    {
      "type": "Feature",
      "geometry": {
        "type": "Point",
        "coordinates": [
          "-122.965195",
          "49.238338"
        ]
      },
      "properties": {
        "id": "4331",
        "name": "Deer Lake Child Care",
        "address": "5135 Sperling Ave",
        "city": "Burnaby",
        "services": []
      }
    },
    {
      "type": "Feature",
      "geometry": {
        "type": "Point",
        "coordinates": [
          "-122.934011",
          "49.215835"
        ]
      },
      "properties": {
        "id": "4358",
        "name": "Kiddocare Infant/Toddler Centre",
        "address": "7595 10 Ave",
        "city": "Burnaby",
        "services": []
      }
    },
    {
      "type": "Feature",
      "geometry": {
        "type": "Point",
        "coordinates": [
          "-122.979322",
          "49.244939"
        ]
      },
      "properties": {
        "id": "4369",
        "name": "Cambridge Montessori Children's House",
        "address": "4415 Fitzgerald Ave",
        "city": "Burnaby",
        "services": []
      }
    },
    {
      "type": "Feature",
      "geometry": {
        "type": "Point",
        "coordinates": [
          "-122.964678",
          "49.275772"
        ]
      },
      "properties": {
        "id": "4405",
        "name": "Aubrey Daycare Centre",
        "address": "949 Sperling Ave",
        "city": "Burnaby",
        "services": []
      }
    },
    {
      "type": "Feature",
      "geometry": {
        "type": "Point",
        "coordinates": [
          "-122.894199",
          "49.253094"
        ]
      },
      "properties": {
        "id": "4442",
        "name": "Cameron Children's Centre",
        "address": "9838 Cameron St",
        "city": "Burnaby",
        "services": []
      }
    },
    {
      "type": "Feature",
      "geometry": {
        "type": "Point",
        "coordinates": [
          "-122.938322",
          "49.215768"
        ]
      },
      "properties": {
        "id": "4446",
        "name": "Discovery Childcare Centre",
        "address": "49 7411 12 Ave",
        "city": "Burnaby",
        "services": []
      }
    },
    {
      "type": "Feature",
      "geometry": {
        "type": "Point",
        "coordinates": [
          "-122.964334",
          "49.228702"
        ]
      },
      "properties": {
        "id": "4453",
        "name": "Amy's Family Day Care",
        "address": "6088 Sperling Ave",
        "city": "Burnaby",
        "services": []
      }
    },
    {
      "type": "Feature",
      "geometry": {
        "type": "Point",
        "coordinates": [
          "-123.018002",
          "49.215363"
        ]
      },
      "properties": {
        "id": "4476",
        "name": "Suncrest Neighbourhood Care",
        "address": "3883 Rumble St",
        "city": "Burnaby",
        "services": []
      }
    },
    {
      "type": "Feature",
      "geometry": {
        "type": "Point",
        "coordinates": [
          "-122.986441",
          "49.225897"
        ]
      },
      "properties": {
        "id": "4484",
        "name": "A & C Family Daycare",
        "address": "5382 Irving St",
        "city": "Burnaby",
        "services": []
      }
    },
    {
      "type": "Feature",
      "geometry": {
        "type": "Point",
        "coordinates": [
          "-122.967365",
          "49.229155"
        ]
      },
      "properties": {
        "id": "4495",
        "name": "Little Stars Daycare",
        "address": "6026 Brantford Ave",
        "city": "Burnaby",
        "services": []
      }
    },
    {
      "type": "Feature",
      "geometry": {
        "type": "Point",
        "coordinates": [
          "-123.019097",
          "49.238028"
        ]
      },
      "properties": {
        "id": "4521",
        "name": "Lil' Monkeys Family Childcare",
        "address": "3842 Hertford St",
        "city": "Burnaby",
        "services": []
      }
    },
    {
      "type": "Feature",
      "geometry": {
        "type": "Point",
        "coordinates": [
          "-123.015456",
          "49.233263"
        ]
      },
      "properties": {
        "id": "4546",
        "name": "Core Education & Fine Arts - Kingsway",
        "address": "4021 Kingsway",
        "city": "Burnaby",
        "services": []
      }
    },
    {
      "type": "Feature",
      "geometry": {
        "type": "Point",
        "coordinates": [
          "-122.955298",
          "49.272097"
        ]
      },
      "properties": {
        "id": "4566",
        "name": "Morning Star Child Educare",
        "address": "1345 Aldrin Pl",
        "city": "Burnaby",
        "services": []
      }
    },
    {
      "type": "Feature",
      "geometry": {
        "type": "Point",
        "coordinates": [
          "-122.983556",
          "49.21707"
        ]
      },
      "properties": {
        "id": "4568",
        "name": "Angels Playhouse Infant & Toddler Child Care Centre",
        "address": "103 7339 Macpherson Ave",
        "city": "Burnaby",
        "services": []
      }
    },
    {
      "type": "Feature",
      "geometry": {
        "type": "Point",
        "coordinates": [
          "-123.023111",
          "49.25376"
        ]
      },
      "properties": {
        "id": "4595",
        "name": "Reach For The Stars Montessori",
        "address": "3440 Boundary Rd",
        "city": "Burnaby",
        "services": []
      }
    },
    {
      "type": "Feature",
      "geometry": {
        "type": "Point",
        "coordinates": [
          "-122.973925",
          "49.247144"
        ]
      },
      "properties": {
        "id": "4620",
        "name": "Smilestones Junior Kindergarten Inc.",
        "address": "4162 Norland Ave",
        "city": "Burnaby",
        "services": []
      }
    },
    {
      "type": "Feature",
      "geometry": {
        "type": "Point",
        "coordinates": [
          "-122.968238",
          "49.212662"
        ]
      },
      "properties": {
        "id": "4622",
        "name": "Happy Feet Childcare Centre",
        "address": "6550 Clinton St",
        "city": "Burnaby",
        "services": []
      }
    },
    {
      "type": "Feature",
      "geometry": {
        "type": "Point",
        "coordinates": [
          "-122.971572",
          "49.221406"
        ]
      },
      "properties": {
        "id": "4638",
        "name": "Bear Paws Child Care",
        "address": "6842 Gilley Ave",
        "city": "Burnaby",
        "services": []
      }
    },
    {
      "type": "Feature",
      "geometry": {
        "type": "Point",
        "coordinates": [
          "-122.920292",
          "49.226128"
        ]
      },
      "properties": {
        "id": "4680",
        "name": "Graham Montessori School (Oos)",
        "address": "8260 13Th Ave",
        "city": "Burnaby",
        "services": []
      }
    },
    {
      "type": "Feature",
      "geometry": {
        "type": "Point",
        "coordinates": [
          "-123.021408",
          "49.245088"
        ]
      },
      "properties": {
        "id": "4709",
        "name": "Little Eden Child Care Center",
        "address": "3755 Fir St",
        "city": "Burnaby",
        "services": [
          0,
          1
        ]
      }
    },
    {
      "type": "Feature",
      "geometry": {
        "type": "Point",
        "coordinates": [
          "-122.989306",
          "49.232414"
        ]
      },
      "properties": {
        "id": "4755",
        "name": "Educare Children's  Centre",
        "address": "5715 Royal Oak Ave",
        "city": "Burnaby",
        "services": []
      }
    },
    {
      "type": "Feature",
      "geometry": {
        "type": "Point",
        "coordinates": [
          "-123.013675",
          "49.256961"
        ]
      },
      "properties": {
        "id": "4768",
        "name": "Astro Childcare",
        "address": "4108 Manor St",
        "city": "Burnaby",
        "services": []
      }
    },
    {
      "type": "Feature",
      "geometry": {
        "type": "Point",
        "coordinates": [
          "-122.938879",
          "49.218311"
        ]
      },
      "properties": {
        "id": "4781",
        "name": "Caring Daycare",
        "address": "7544 14Th Ave",
        "city": "Burnaby",
        "services": []
      }
    },
    {
      "type": "Feature",
      "geometry": {
        "type": "Point",
        "coordinates": [
          "-122.966665",
          "49.202534"
        ]
      },
      "properties": {
        "id": "4789",
        "name": "Fraser Montessori Daycare",
        "address": "6269  14Th Ave",
        "city": "Burnaby",
        "services": []
      }
    },
    {
      "type": "Feature",
      "geometry": {
        "type": "Point",
        "coordinates": [
          "-122.966901",
          "49.219986"
        ]
      },
      "properties": {
        "id": "4843",
        "name": "St. Francis De Sales Parish Before & After School Care",
        "address": "6656 Balmoral St",
        "city": "Burnaby",
        "services": []
      }
    },
    {
      "type": "Feature",
      "geometry": {
        "type": "Point",
        "coordinates": [
          "-122.965824",
          "49.219598"
        ]
      },
      "properties": {
        "id": "4850",
        "name": "St. Francis De Sales Preschool",
        "address": "6681 Arcola St",
        "city": "Burnaby",
        "services": []
      }
    },
    {
      "type": "Feature",
      "geometry": {
        "type": "Point",
        "coordinates": [
          "-123.002812",
          "49.221983"
        ]
      },
      "properties": {
        "id": "4868",
        "name": "Linda's Family Daycare",
        "address": "5-6797 Dow Ave",
        "city": "Burnaby",
        "services": []
      }
    },
    {
      "type": "Feature",
      "geometry": {
        "type": "Point",
        "coordinates": [
          "-122.99823",
          "49.24273"
        ]
      },
      "properties": {
        "id": "4871",
        "name": "Bcit Student Association Childcare Centre",
        "address": "4703 Wayburne Dr",
        "city": "Burnaby",
        "services": []
      }
    },
    {
      "type": "Feature",
      "geometry": {
        "type": "Point",
        "coordinates": [
          "-122.934222",
          "49.216955"
        ]
      },
      "properties": {
        "id": "4879",
        "name": "Twelfth Avenue Neighbourhood Care",
        "address": "7622 12Th Ave",
        "city": "Burnaby",
        "services": []
      }
    },
    {
      "type": "Feature",
      "geometry": {
        "type": "Point",
        "coordinates": [
          "-122.987959",
          "49.266684"
        ]
      },
      "properties": {
        "id": "4881",
        "name": "Brentwood Montessori Child Care Ltd.",
        "address": "101-1950 Bellwood Ave",
        "city": "Burnaby",
        "services": []
      }
    },
    {
      "type": "Feature",
      "geometry": {
        "type": "Point",
        "coordinates": [
          "-122.965021",
          "49.264121"
        ]
      },
      "properties": {
        "id": "4904",
        "name": "Golden Apple Daycare",
        "address": "2181 Sperling Ave",
        "city": "Burnaby",
        "services": []
      }
    },
    {
      "type": "Feature",
      "geometry": {
        "type": "Point",
        "coordinates": [
          "-122.975551",
          "49.263811"
        ]
      },
      "properties": {
        "id": "4910",
        "name": "A Tree House Daycare Centre",
        "address": "6100 Broadway",
        "city": "Burnaby",
        "services": []
      }
    },
    {
      "type": "Feature",
      "geometry": {
        "type": "Point",
        "coordinates": [
          "-122.94553",
          "49.220338"
        ]
      },
      "properties": {
        "id": "4918",
        "name": "Growing Minds Child Care Centre",
        "address": "7456 19 Ave",
        "city": "Burnaby",
        "services": []
      }
    },
    {
      "type": "Feature",
      "geometry": {
        "type": "Point",
        "coordinates": [
          "-123.006839",
          "49.283279"
        ]
      },
      "properties": {
        "id": "4989",
        "name": "Rosser ymca Kids Club",
        "address": "4375 Pandora St",
        "city": "Burnaby",
        "services": []
      }
    },
    {
      "type": "Feature",
      "geometry": {
        "type": "Point",
        "coordinates": [
          "-122.919451",
          "49.226981"
        ]
      },
      "properties": {
        "id": "5049",
        "name": "Harmony Family Childcare",
        "address": "7750 Newcombe St",
        "city": "Burnaby",
        "services": [
          0
        ]
      }
    },
    {
      "type": "Feature",
      "geometry": {
        "type": "Point",
        "coordinates": [
          "-122.985603",
          "49.24298"
        ]
      },
      "properties": {
        "id": "5058",
        "name": "Gilpin Neighbourhood Care",
        "address": "5433 Ivar Pl",
        "city": "Burnaby",
        "services": []
      }
    },
    {
      "type": "Feature",
      "geometry": {
        "type": "Point",
        "coordinates": [
          "-122.953112",
          "49.219046"
        ]
      },
      "properties": {
        "id": "5064",
        "name": "Kidtopia Child Care",
        "address": "7135 Walker Ave",
        "city": "Burnaby",
        "services": [
          0
        ]
      }
    },
    {
      "type": "Feature",
      "geometry": {
        "type": "Point",
        "coordinates": [
          "-122.95539",
          "49.259247"
        ]
      },
      "properties": {
        "id": "5072",
        "name": "Brightstart Children's Academy Ltd",
        "address": "2830 Bainbridge Ave",
        "city": "Burnaby",
        "services": []
      }
    },
    {
      "type": "Feature",
      "geometry": {
        "type": "Point",
        "coordinates": [
          "-122.99213",
          "49.270106"
        ]
      },
      "properties": {
        "id": "5077",
        "name": "Petits Genies",
        "address": "1600 Delta Ave",
        "city": "Burnaby",
        "services": []
      }
    },
    {
      "type": "Feature",
      "geometry": {
        "type": "Point",
        "coordinates": [
          "-123.020265",
          "49.275981"
        ]
      },
      "properties": {
        "id": "5120",
        "name": "Little House Child Care",
        "address": "3849 Parker St",
        "city": "Burnaby",
        "services": []
      }
    },
    {
      "type": "Feature",
      "geometry": {
        "type": "Point",
        "coordinates": [
          "-122.965368",
          "49.2268"
        ]
      },
      "properties": {
        "id": "5160",
        "name": "Kiddie Club Childcare Center",
        "address": "6686 Stanley St",
        "city": "Burnaby",
        "services": []
      }
    },
    {
      "type": "Feature",
      "geometry": {
        "type": "Point",
        "coordinates": [
          "-122.976929",
          "49.211409"
        ]
      },
      "properties": {
        "id": "5241",
        "name": "Pamela's Little Promises",
        "address": "5925 mckee St",
        "city": "Burnaby",
        "services": []
      }
    },
    {
      "type": "Feature",
      "geometry": {
        "type": "Point",
        "coordinates": [
          "-122.979284",
          "49.214141"
        ]
      },
      "properties": {
        "id": "5262",
        "name": "Neville Childcare",
        "address": "5769 Neville St",
        "city": "Burnaby",
        "services": []
      }
    },
    {
      "type": "Feature",
      "geometry": {
        "type": "Point",
        "coordinates": [
          "-123.01619",
          "49.238402"
        ]
      },
      "properties": {
        "id": "5319",
        "name": "Ccaa Child Care Centre",
        "address": "5069 Inman Ave",
        "city": "Burnaby",
        "services": []
      }
    },
    {
      "type": "Feature",
      "geometry": {
        "type": "Point",
        "coordinates": [
          "-123.016499",
          "49.238539"
        ]
      },
      "properties": {
        "id": "5320",
        "name": "'Ccaa' Infant And Toddler Child Care Centre",
        "address": "3978 Brandon St",
        "city": "Burnaby",
        "services": []
      }
    },
    {
      "type": "Feature",
      "geometry": {
        "type": "Point",
        "coordinates": [
          "-122.964414",
          "49.222108"
        ]
      },
      "properties": {
        "id": "5390",
        "name": "Bear Paws Child Care Sperling",
        "address": "6790 Sperling Ave",
        "city": "Burnaby",
        "services": []
      }
    },
    {
      "type": "Feature",
      "geometry": {
        "type": "Point",
        "coordinates": [
          "-122.999145",
          "49.215095"
        ]
      },
      "properties": {
        "id": "5397",
        "name": "Bear's House Child Care",
        "address": "4609 Rumble St",
        "city": "Burnaby",
        "services": []
      }
    },
    {
      "type": "Feature",
      "geometry": {
        "type": "Point",
        "coordinates": [
          "-122.954095",
          "49.225944"
        ]
      },
      "properties": {
        "id": "5414",
        "name": "C.J.'S School Age Fun Daycare",
        "address": "7429 Imperial St",
        "city": "Burnaby",
        "services": [
          4
        ]
      }
    },
    {
      "type": "Feature",
      "geometry": {
        "type": "Point",
        "coordinates": [
          "-122.951983",
          "49.225759"
        ]
      },
      "properties": {
        "id": "5418",
        "name": "Kathy's Licensed Child Care Centre",
        "address": "6650 Humphries Ave",
        "city": "Burnaby",
        "services": []
      }
    },
    {
      "type": "Feature",
      "geometry": {
        "type": "Point",
        "coordinates": [
          "-122.939401",
          "49.22081"
        ]
      },
      "properties": {
        "id": "5437",
        "name": "Supernova Montessori Childcare",
        "address": "7626 16Th Ave",
        "city": "Burnaby",
        "services": []
      }
    },
    {
      "type": "Feature",
      "geometry": {
        "type": "Point",
        "coordinates": [
          "-123.019793",
          "49.239219"
        ]
      },
      "properties": {
        "id": "5440",
        "name": "Little Einstein Children's Centre",
        "address": "5014 Smith Ave",
        "city": "Burnaby",
        "services": []
      }
    },
    {
      "type": "Feature",
      "geometry": {
        "type": "Point",
        "coordinates": [
          "-122.985914",
          "49.276666"
        ]
      },
      "properties": {
        "id": "5464",
        "name": "Dreamland Infant And Toddler Daycare Center",
        "address": "5365 Venables St",
        "city": "Burnaby",
        "services": []
      }
    },
    {
      "type": "Feature",
      "geometry": {
        "type": "Point",
        "coordinates": [
          "-122.960773",
          "49.227471"
        ]
      },
      "properties": {
        "id": "5471",
        "name": "Kiddie Club Childcare Center",
        "address": "6290 Walker Ave",
        "city": "Burnaby",
        "services": []
      }
    },
    {
      "type": "Feature",
      "geometry": {
        "type": "Point",
        "coordinates": [
          "-122.973779",
          "49.221584"
        ]
      },
      "properties": {
        "id": "5487",
        "name": "Windsor ymca Kids Club",
        "address": "6166 Imperial St",
        "city": "Burnaby",
        "services": []
      }
    },
    {
      "type": "Feature",
      "geometry": {
        "type": "Point",
        "coordinates": [
          "-123.010311",
          "49.239156"
        ]
      },
      "properties": {
        "id": "5498",
        "name": "Sakura Childcare The First",
        "address": "4237 Price Cres",
        "city": "Burnaby",
        "services": []
      }
    },
    {
      "type": "Feature",
      "geometry": {
        "type": "Point",
        "coordinates": [
          "-122.957481",
          "49.229403"
        ]
      },
      "properties": {
        "id": "5510",
        "name": "Buckingham Tots Child Care Center",
        "address": "7461 Stanley St",
        "city": "Burnaby",
        "services": []
      }
    },
    {
      "type": "Feature",
      "geometry": {
        "type": "Point",
        "coordinates": [
          "-122.993519",
          "49.268037"
        ]
      },
      "properties": {
        "id": "5527",
        "name": "Jessie's Tots Educare Centre",
        "address": "4836 Brentlawn Dr",
        "city": "Burnaby",
        "services": []
      }
    },
    {
      "type": "Feature",
      "geometry": {
        "type": "Point",
        "coordinates": [
          "-122.97803",
          "49.214518"
        ]
      },
      "properties": {
        "id": "5559",
        "name": "Dandelion Daycare Centre",
        "address": "5870 Rumble St",
        "city": "Burnaby",
        "services": []
      }
    }
  ]
}