{"type": "FeatureCollection", "features": [{"type": "Feature", "geometry": {"type": "Point", "coordinates": ["-122.804247", "49.300609"]}, "properties": {"id": "392", "name": "Kinder Kampus - Heritage Mountain Community Centre", "address": "200 Panorama Pl Lower Flr", "city": "Port Moody", "phone": "604-417-9109", "services": []}}, {"type": "Feature", "geometry": {"type": "Point", "coordinates": ["-122.845146", "49.2902"]}, "properties": {"id": "393", "name": "Kinder Kampus - Old Orchard Hall", "address": "646 Bentley Rd Old Orchard Hall - Lower Flr", "city": "Port Moody", "phone": "604-417-9109", "services": []}}, {"type": "Feature", "geometry": {"type": "Point", "coordinates": ["-122.887984", "49.273553"]}, "properties": {"id": "414", "name": "Glenayre Montessori Daycare", "address": "495 Glencoe St", "city": "Port Moody", "phone": "604-937-0084", "services": []}}, {"type": "Feature", "geometry": {"type": "Point", "coordinates": ["-122.824582", "49.290215"]}, "properties": {"id": "443", "name": "Junior Citizens Care Center", "address": "999 Noons Creek Dr", "city": "Port Moody", "phone": "236-838-3404", "services": []}}, {"type": "Feature", "geometry": {"type": "Point", "coordinates": ["-122.868053", "49.284612"]}, "properties": {"id": "502", "name": "Pumpkin Patch Daycare", "address": "1605 Gore St", "city": "Port Moody", "phone": "604-931-3901", "services": []}}, {"type": "Feature", "geometry": {"type": "Point", "coordinates": ["-122.82684", "49.29338"]}, "properties": {"id": "775", "name": "Kids At Play Daycare", "address": "5 Deerwood Pl", "city": "Port Moody", "phone": "604-374-7484", "services": []}}, {"type": "Feature", "geometry": {"type": "Point", "coordinates": ["-122.85129", "49.276751"]}, "properties": {"id": "789", "name": "Brightpath St Johns Street", "address": "2750 St. Johns St", "city": "Port Moody", "phone": "604-492-1415", "services": []}}, {"type": "Feature", "geometry": {"type": "Point", "coordinates": ["-122.851503", "49.276752"]}, "properties": {"id": "790", "name": "Brightpath St Johns Kids Zone", "address": "2740 St. Johns St", "city": "Port Moody", "phone": "604-492-1415", "services": []}}, {"type": "Feature", "geometry": {"type": "Point", "coordinates": ["-122.8815", "49.274866"]}, "properties": {"id": "830", "name": "Kinder Joy Daycare", "address": "406 Glencoe Dr", "city": "Port Moody", "phone": "778-355-0480", "services": []}}, {"type": "Feature", "geometry": {"type": "Point", "coordinates": ["-122.841224", "49.288505"]}, "properties": {"id": "1069", "name": "Butterfly Early Learning Center", "address": "511 San Remo Dr", "city": "Port Moody", "phone": "778-928-3839", "services": []}}, {"type": "Feature", "geometry": {"type": "Point", "coordinates": ["-122.82729", "49.29324"]}, "properties": {"id": "1073", "name": "Sandy Child Care Centre", "address": "1 Deerwood Pl", "city": "Port Moody", "phone": "778-320-8281", "services": []}}, {"type": "Feature", "geometry": {"type": "Point", "coordinates": ["-122.853279", "49.275362"]}, "properties": {"id": "1144", "name": "Happy Kids World Home Childcare", "address": "2617 St. George St", "city": "Port Moody", "phone": "778-231-5645", "services": []}}, {"type": "Feature", "geometry": {"type": "Point", "coordinates": ["-122.849818", "49.276342"]}, "properties": {"id": "1412", "name": "Block 8 Academy - Moody Street", "address": "110 Moody St", "city": "Port Moody", "phone": "778-893-9706", "services": [1, 3]}}, {"type": "Feature", "geometry": {"type": "Point", "coordinates": ["-122.825924", "49.283075"]}, "properties": {"id": "1519", "name": "Newport Childcare Center", "address": "265B Newport Dr", "city": "Port Moody", "phone": "604-492-3337", "services": []}}, {"type": "Feature", "geometry": {"type": "Point", "coordinates": ["-122.849818", "49.276342"]}, "properties": {"id": "1607", "name": "Block 8 Academy - 106 Moody Street", "address": "106 Moody St", "city": "Port Moody", "phone": "778-893-9706", "services": [1, 3]}}, {"type": "Feature", "geometry": {"type": "Point", "coordinates": ["-122.862607", "49.277454"]}, "properties": {"id": "1642", "name": "Kiddos Clubhouse Daycare", "address": "2225 Clarke St", "city": "Port Moody", "phone": "604-492-1179", "services": []}}, {"type": "Feature", "geometry": {"type": "Point", "coordinates": ["-122.85991", "49.277492"]}, "properties": {"id": "1838", "name": "Busy Crocodile Clarke", "address": "2325 Clarke St", "city": "Port Moody", "phone": "778-232-1562", "services": []}}, {"type": "Feature", "geometry": {"type": "Point", "coordinates": ["-122.880085", "49.271177"]}, "properties": {"id": "1934", "name": "Blossoming Ninos Childcare Centre", "address": "900 Glenayre Dr", "city": "Port Moody", "phone": "778-986-6154", "services": []}}, {"type": "Feature", "geometry": {"type": "Point", "coordinates": ["-122.85388", "49.277037"]}, "properties": {"id": "2120", "name": "Kids Academy (2610)", "address": "2610 St Johns St", "city": "Port Moody", "phone": "604-353-3830", "services": []}}, {"type": "Feature", "geometry": {"type": "Point", "coordinates": ["-122.824582", "49.290215"]}, "properties": {"id": "2669", "name": "Coronation Kids Care (Mountain Meadows Elementary)", "address": "999 Noons Creek Dr", "city": "Port Moody", "phone": "236-838-3404", "services": [3]}}, {"type": "Feature", "geometry": {"type": "Point", "coordinates": ["-122.854074", "49.276772"]}, "properties": {"id": "2993", "name": "Kids Academy (2624)", "address": "2624A St Johns St", "city": "Port Moody", "phone": "604-492-5437", "services": []}}, {"type": "Feature", "geometry": {"type": "Point", "coordinates": ["-122.849126", "49.277016"]}, "properties": {"id": "3016", "name": "Kidz Venture Club", "address": "2809 Spring St", "city": "Port Moody", "phone": "604-727-7991", "services": [1, 2, 3]}}, {"type": "Feature", "geometry": {"type": "Point", "coordinates": ["-122.854043", "49.277293"]}, "properties": {"id": "3388", "name": "Block 8 Academy - Spring Street", "address": "2626 Spring St", "city": "Port Moody", "phone": "778-893-9706", "services": []}}, {"type": "Feature", "geometry": {"type": "Point", "coordinates": ["-122.867372", "49.279745"]}, "properties": {"id": "3457", "name": "A Wave Of Stars Childcare", "address": "1821 Barnet Hwy", "city": "Port Moody", "phone": "604-715-7548", "services": []}}, {"type": "Feature", "geometry": {"type": "Point", "coordinates": ["-122.839934", "49.295926"]}, "properties": {"id": "3527", "name": "Happy Circle Childcare Centre", "address": "206 Ravine Dr", "city": "Port Moody", "phone": "778-384-2060", "services": []}}, {"type": "Feature", "geometry": {"type": "Point", "coordinates": ["-122.834524", "49.274273"]}, "properties": {"id": "3552", "name": "Bay Breeze Buddies", "address": "204 Moray St", "city": "Port Moody", "phone": "778-846-2684", "services": [0, 1]}}, {"type": "Feature", "geometry": {"type": "Point", "coordinates": ["-122.854151", "49.295098"]}, "properties": {"id": "3725", "name": "Kinder Kampus - Pleasantside Elementary School", "address": "195 Barber St", "city": "Port Moody", "phone": "604-417-9109", "services": []}}, {"type": "Feature", "geometry": {"type": "Point", "coordinates": ["-122.836185", "49.287887"]}, "properties": {"id": "3871", "name": "Little Star Family Child Care", "address": "409 Ioco Rd", "city": "Port Moody", "phone": "604-469-3657", "services": []}}, {"type": "Feature", "geometry": {"type": "Point", "coordinates": ["-122.828112", "49.292679"]}, "properties": {"id": "4292", "name": "Sunlight Daycare", "address": "63 Ravine Dr", "city": "Port Moody", "phone": "604-461-0375", "services": []}}, {"type": "Feature", "geometry": {"type": "Point", "coordinates": ["-122.873044", "49.302426"]}, "properties": {"id": "4333", "name": "Green Apple Daycare", "address": "1790 Ioco Rd", "city": "Port Moody", "phone": "604-218-3417", "services": [0, 1]}}, {"type": "Feature", "geometry": {"type": "Point", "coordinates": ["-122.829782", "49.302025"]}, "properties": {"id": "4645", "name": "Kinder Kampus - Heritage Mountain", "address": "103-300 Panorama Pl", "city": "Port Moody", "phone": "604-417-9109", "services": []}}, {"type": "Feature", "geometry": {"type": "Point", "coordinates": ["-122.850145", "49.275842"]}, "properties": {"id": "4646", "name": "Constellation Montessori Daycare", "address": "122 Moody St", "city": "Port Moody", "phone": "604-461-3172", "services": []}}, {"type": "Feature", "geometry": {"type": "Point", "coordinates": ["-122.826552", "49.283018"]}, "properties": {"id": "4806", "name": "Newport Child Care Center", "address": "235 Newport Dr", "city": "Port Moody", "phone": "604-792-3337", "services": []}}, {"type": "Feature", "geometry": {"type": "Point", "coordinates": ["-122.853637", "49.276651"]}, "properties": {"id": "4911", "name": "Happy Kids World Childcare Inc", "address": "2611A St Johns St", "city": "Port Moody", "phone": "604-900-2412", "services": []}}, {"type": "Feature", "geometry": {"type": "Point", "coordinates": ["-122.85188", "49.277478"]}, "properties": {"id": "4981", "name": "Rocky Point Montessori", "address": "2709 Clarke St", "city": "Port Moody", "phone": "604-619-5308", "services": []}}, {"type": "Feature", "geometry": {"type": "Point", "coordinates": ["-122.855485", "49.276368"]}, "properties": {"id": "5098", "name": "Busy Crocodile French Immersion Children Centre Inc.", "address": "2511 St Johns St", "city": "Port Moody", "phone": "604-349-9041", "services": []}}, {"type": "Feature", "geometry": {"type": "Point", "coordinates": ["-122.836028", "49.294951"]}, "properties": {"id": "5172", "name": "Heritage Mountain Daycare", "address": "145 Ravine Dr", "city": "Port Moody", "phone": "604-619-5308", "services": []}}, {"type": "Feature", "geometry": {"type": "Point", "coordinates": ["-122.887984", "49.273553"]}, "properties": {"id": "5227", "name": "Griffin's Gateway", "address": "495 Glencoe Dr", "city": "Port Moody", "phone": "604-813-5792", "services": []}}, {"type": "Feature", "geometry": {"type": "Point", "coordinates": ["-122.828403", "49.295976"]}, "properties": {"id": "5336", "name": "Aria Montessori Learning Center", "address": "44 Timbercrest Dr", "city": "Port Moody", "phone": "778-989-7264", "services": []}}, {"type": "Feature", "geometry": {"type": "Point", "coordinates": ["-122.829447", "49.291976"]}, "properties": {"id": "5389", "name": "City Of Art Childcare", "address": "1 Creekstone Pl", "city": "Port Moody", "phone": "604-771-8076", "services": []}}, {"type": "Feature", "geometry": {"type": "Point", "coordinates": ["-122.828488", "49.279196"]}, "properties": {"id": "5472", "name": "Kids & Company Port Moody", "address": "220 Brew St", "city": "Port Moody", "phone": "604-492-1075", "services": []}}, {"type": "Feature", "geometry": {"type": "Point", "coordinates": ["-122.844089", "49.296291"]}, "properties": {"id": "5533", "name": "Parkside Childcare Centre", "address": "210 Parkside Dr", "city": "Port Moody", "phone": "604-936-9197", "services": []}}]}